{
    "protocolSection": {
        "identificationModule": {
            "nctId": "NCT02954094",
            "orgStudyIdInfo": {
                "id": "TARGET-HCC"
            },
            "organization": {
                "fullName": "Target PharmaSolutions, Inc.",
                "class": "INDUSTRY"
            },
            "briefTitle": "A Longitudinal Observational Study of the Natural History and Management of Patients With HCC",
            "officialTitle": "A Longitudinal Observational Study of the Natural History and Management of Patients With Hepatocellular Carcinoma",
            "therapeuticArea": [
                "Oncology and Hematology"
            ],
            "study": "a-longitudinal-observational-study-of-the-natural-history-and-management-of-patients-with-hcc"
        },
        "statusModule": {
            "statusVerifiedDate": "2024-06",
            "overallStatus": "RECRUITING",
            "expandedAccessInfo": {
                "hasExpandedAccess": false
            },
            "startDateStruct": {
                "date": "2016-12"
            },
            "primaryCompletionDateStruct": {
                "date": "2024-10",
                "type": "ESTIMATED"
            },
            "completionDateStruct": {
                "date": "2024-10",
                "type": "ESTIMATED"
            },
            "studyFirstSubmitDate": "2016-11-01",
            "studyFirstSubmitQcDate": "2016-11-01",
            "studyFirstPostDateStruct": {
                "date": "2016-11-03",
                "type": "ESTIMATED"
            },
            "lastUpdateSubmitDate": "2024-06-26",
            "lastUpdatePostDateStruct": {
                "date": "2024-06-28",
                "type": "ACTUAL"
            }
        },
        "sponsorCollaboratorsModule": {
            "responsibleParty": {
                "type": "SPONSOR"
            },
            "leadSponsor": {
                "name": "Target PharmaSolutions, Inc.",
                "class": "INDUSTRY"
            }
        },
        "oversightModule": {
            "oversightHasDmc": false
        },
        "descriptionModule": {
            "briefSummary": "TARGET-HCC is a longitudinal, observational study of patients being managed for HCC in usual clinical practice. TARGET-HCC will create a research registry of participants with HCC within academic and community real-world practices in order to assess the safety and effectiveness of the entire spectrum of current and future therapies across diverse populations."
        },
        "conditionsModule": {
            "conditions": [
                "Hepatocellular Cancer"
            ]
        },
        "designModule": {
            "studyType": "OBSERVATIONAL",
            "patientRegistry": true,
            "targetDuration": "15 Years",
            "designInfo": {
                "observationalModel": "COHORT",
                "timePerspective": "PROSPECTIVE"
            },
            "bioSpec": {
                "retention": "SAMPLES_WITH_DNA",
                "description": "Patients enrolled in TARGET-HCC may be invited to participate in the Biorepository Specimen Bank (BSB). Blood samples and tissue samples for biomarker and DNA assays will be collected on a voluntary basis and participation in this project will not affect participation in the main study. These samples will be shipped to a central repository for storage to use in future studies. Samples stored at the biorepository will be identified only with the participant's unique study ID number and the date that the sample was obtained. This link between the participant's study ID number and their name will be available only at the site where the samples were obtained."
            },
            "enrollmentInfo": {
                "count": 10000,
                "type": "ESTIMATED"
            }
        },
        "outcomesModule": {
            "primaryOutcomes": [
                {
                    "measure": "Establish a longitudinal observational cohort to understand the natural history and management of HCC, including the safety and outcomes of HCC treatment interventions utilized in usual clinical practice",
                    "timeFrame": "Up to 15 years"
                }
            ],
            "secondaryOutcomes": [
                {
                    "measure": "Evaluate the impact of HCC treatment interventions and concomitant medications on comorbid conditions and liver function",
                    "timeFrame": "Up to 15 years"
                },
                {
                    "measure": "Evaluate patient-reported outcomes measures during the natural course of HCC and management with HRQoL questionnaires",
                    "timeFrame": "Up to 15 years"
                },
                {
                    "measure": "Establish a Biorepository Specimen Bank (BSB)",
                    "timeFrame": "Up to 15 years"
                }
            ]
        },
        "eligibilityModule": {
            "eligibilityCriteria": "Inclusion Criteria:\n\n1. Male or female patients, age \u226518 years\n2. Patients with a histological/cytological or radiological diagnosis of HCC (mixed HCC cholangiocarcinoma may be included; patients who are candidates for surgical and non-surgical treatment, as well as those being followed without specific HCC therapy may be included)\n\nExclusion Criteria:\n\n1. Inability to provide written informed consent",
            "healthyVolunteers": false,
            "sex": "ALL",
            "minimumAge": "18 Years",
            "stdAges": [
                "ADULT",
                "OLDER_ADULT"
            ],
            "studyPopulation": "Adult patients being managed for HCC",
            "samplingMethod": "NON_PROBABILITY_SAMPLE"
        },
        "contactsLocationsModule": {
            "centralContacts": [
                {
                    "name": "Stephanie Harrison",
                    "role": "CONTACT",
                    "email": "sharrison@targetrwe.com"
                },
                {
                    "name": "Ellie Michalski",
                    "role": "CONTACT",
                    "email": "emichalski@targetrwe.com"
                }
            ],
            "locations": [
                {
                    "facility": "Banner University Medical Center",
                    "status": "TERMINATED",
                    "city": "Phoenix",
                    "state": "Arizona",
                    "zip": "85006",
                    "country": "United States",
                    "geoPoint": {
                        "lat": 33.44838,
                        "lon": -112.07404
                    }
                },
                {
                    "facility": "University of Arkansas",
                    "status": "TERMINATED",
                    "city": "Little Rock",
                    "state": "Arkansas",
                    "zip": "72205",
                    "country": "United States",
                    "geoPoint": {
                        "lat": 34.74648,
                        "lon": -92.28959
                    }
                },
                {
                    "facility": "University of Southern California/Norris Comprehensive Cancer Center",
                    "status": "TERMINATED",
                    "city": "Los Angeles",
                    "state": "California",
                    "zip": "90033",
                    "country": "United States",
                    "geoPoint": {
                        "lat": 34.05223,
                        "lon": -118.24368
                    }
                },
                {
                    "facility": "Stanford University",
                    "status": "ACTIVE_NOT_RECRUITING",
                    "city": "Palo Alto",
                    "state": "California",
                    "zip": "94304",
                    "country": "United States",
                    "geoPoint": {
                        "lat": 37.44188,
                        "lon": -122.14302
                    }
                },
                {
                    "facility": "California Liver Research Institute",
                    "status": "ACTIVE_NOT_RECRUITING",
                    "city": "Pasadena",
                    "state": "California",
                    "zip": "91105",
                    "country": "United States",
                    "geoPoint": {
                        "lat": 34.14778,
                        "lon": -118.14452
                    }
                },
                {
                    "facility": "University of California-Davis",
                    "status": "TERMINATED",
                    "city": "Sacramento",
                    "state": "California",
                    "zip": "95817",
                    "country": "United States",
                    "geoPoint": {
                        "lat": 38.58157,
                        "lon": -121.4944
                    }
                },
                {
                    "facility": "University of California",
                    "status": "TERMINATED",
                    "city": "San Francisco",
                    "state": "California",
                    "zip": "94158",
                    "country": "United States",
                    "geoPoint": {
                        "lat": 37.77493,
                        "lon": -122.41942
                    }
                },
                {
                    "facility": "Georgetown University",
                    "status": "TERMINATED",
                    "city": "Washington",
                    "state": "District of Columbia",
                    "zip": "20007",
                    "country": "United States",
                    "geoPoint": {
                        "lat": 38.89511,
                        "lon": -77.03637
                    }
                },
                {
                    "facility": "Gastro Florida",
                    "status": "ACTIVE_NOT_RECRUITING",
                    "city": "Clearwater",
                    "state": "Florida",
                    "zip": "33762",
                    "country": "United States",
                    "geoPoint": {
                        "lat": 27.96585,
                        "lon": -82.8001
                    }
                },
                {
                    "facility": "University of Florida Hepatology Research at CTRB",
                    "status": "ACTIVE_NOT_RECRUITING",
                    "city": "Gainesville",
                    "state": "Florida",
                    "zip": "32610-0272",
                    "country": "United States",
                    "geoPoint": {
                        "lat": 29.65163,
                        "lon": -82.32483
                    }
                },
                {
                    "facility": "University of Florida Health Gastroenterology",
                    "status": "TERMINATED",
                    "city": "Jacksonville",
                    "state": "Florida",
                    "zip": "32207",
                    "country": "United States",
                    "geoPoint": {
                        "lat": 30.33218,
                        "lon": -81.65565
                    }
                },
                {
                    "facility": "Schiff Center for Liver Diseases/University of Miami",
                    "status": "ACTIVE_NOT_RECRUITING",
                    "city": "Miami",
                    "state": "Florida",
                    "zip": "33136",
                    "country": "United States",
                    "geoPoint": {
                        "lat": 25.77427,
                        "lon": -80.19366
                    }
                },
                {
                    "facility": "Tampa General Medical Group",
                    "status": "TERMINATED",
                    "city": "Tampa",
                    "state": "Florida",
                    "zip": "33606",
                    "country": "United States",
                    "geoPoint": {
                        "lat": 27.94752,
                        "lon": -82.45843
                    }
                },
                {
                    "facility": "Piedmont Atlanta Hospital",
                    "status": "TERMINATED",
                    "city": "Atlanta",
                    "state": "Georgia",
                    "zip": "30309",
                    "country": "United States",
                    "geoPoint": {
                        "lat": 33.749,
                        "lon": -84.38798
                    }
                },
                {
                    "facility": "Piedmont Cancer Institute",
                    "status": "TERMINATED",
                    "city": "Atlanta",
                    "state": "Georgia",
                    "zip": "30318",
                    "country": "United States",
                    "geoPoint": {
                        "lat": 33.749,
                        "lon": -84.38798
                    }
                },
                {
                    "facility": "Emory University Hospital",
                    "status": "TERMINATED",
                    "city": "Atlanta",
                    "state": "Georgia",
                    "zip": "30322",
                    "country": "United States",
                    "geoPoint": {
                        "lat": 33.749,
                        "lon": -84.38798
                    }
                },
                {
                    "facility": "Northwestern University Division of Gastroenterology and Hepatology",
                    "status": "ACTIVE_NOT_RECRUITING",
                    "city": "Chicago",
                    "state": "Illinois",
                    "zip": "60611",
                    "country": "United States",
                    "geoPoint": {
                        "lat": 41.85003,
                        "lon": -87.65005
                    }
                },
                {
                    "facility": "Rush University Medical Center",
                    "status": "TERMINATED",
                    "city": "Chicago",
                    "state": "Illinois",
                    "zip": "60612",
                    "country": "United States",
                    "geoPoint": {
                        "lat": 41.85003,
                        "lon": -87.65005
                    }
                },
                {
                    "facility": "University of Chicago",
                    "status": "ACTIVE_NOT_RECRUITING",
                    "city": "Chicago",
                    "state": "Illinois",
                    "zip": "60637",
                    "country": "United States",
                    "geoPoint": {
                        "lat": 41.85003,
                        "lon": -87.65005
                    }
                },
                {
                    "facility": "University of Iowa Hospitals and Clinics",
                    "status": "TERMINATED",
                    "city": "Iowa City",
                    "state": "Iowa",
                    "zip": "52242",
                    "country": "United States",
                    "geoPoint": {
                        "lat": 41.66113,
                        "lon": -91.53017
                    }
                },
                {
                    "facility": "Tulane University",
                    "status": "TERMINATED",
                    "city": "New Orleans",
                    "state": "Louisiana",
                    "zip": "70112",
                    "country": "United States",
                    "geoPoint": {
                        "lat": 29.95465,
                        "lon": -90.07507
                    }
                },
                {
                    "facility": "Mercy Medical Center, GI Research",
                    "status": "TERMINATED",
                    "city": "Baltimore",
                    "state": "Maryland",
                    "zip": "21202",
                    "country": "United States",
                    "geoPoint": {
                        "lat": 39.29038,
                        "lon": -76.61219
                    }
                },
                {
                    "facility": "Johns Hopkins University",
                    "status": "TERMINATED",
                    "city": "Baltimore",
                    "state": "Maryland",
                    "zip": "21205",
                    "country": "United States",
                    "geoPoint": {
                        "lat": 39.29038,
                        "lon": -76.61219
                    }
                },
                {
                    "facility": "Beth Israel Deaconess Medical Center",
                    "status": "TERMINATED",
                    "city": "Boston",
                    "state": "Massachusetts",
                    "zip": "02215",
                    "country": "United States",
                    "geoPoint": {
                        "lat": 42.35843,
                        "lon": -71.05977
                    }
                },
                {
                    "facility": "University of Michigan",
                    "status": "TERMINATED",
                    "city": "Ann Arbor",
                    "state": "Michigan",
                    "zip": "48109",
                    "country": "United States",
                    "geoPoint": {
                        "lat": 42.27756,
                        "lon": -83.74088
                    }
                },
                {
                    "facility": "Henry Ford Health System",
                    "status": "ACTIVE_NOT_RECRUITING",
                    "city": "Detroit",
                    "state": "Michigan",
                    "zip": "48202",
                    "country": "United States",
                    "geoPoint": {
                        "lat": 42.33143,
                        "lon": -83.04575
                    }
                },
                {
                    "facility": "Mayo Clinic",
                    "status": "TERMINATED",
                    "city": "Rochester",
                    "state": "Minnesota",
                    "zip": "55905",
                    "country": "United States",
                    "geoPoint": {
                        "lat": 44.02163,
                        "lon": -92.4699
                    }
                },
                {
                    "facility": "Southern Therapy and Advanced Research (STAR) LLC",
                    "status": "TERMINATED",
                    "city": "Jackson",
                    "state": "Mississippi",
                    "zip": "39216",
                    "country": "United States",
                    "geoPoint": {
                        "lat": 32.29876,
                        "lon": -90.18481
                    }
                },
                {
                    "facility": "Saint Louis University",
                    "status": "ACTIVE_NOT_RECRUITING",
                    "city": "Saint Louis",
                    "state": "Missouri",
                    "zip": "63110",
                    "country": "United States",
                    "geoPoint": {
                        "lat": 38.62727,
                        "lon": -90.19789
                    }
                },
                {
                    "facility": "University of Nebraska Medical Center",
                    "status": "TERMINATED",
                    "city": "Omaha",
                    "state": "Nebraska",
                    "zip": "68106",
                    "country": "United States",
                    "geoPoint": {
                        "lat": 41.25626,
                        "lon": -95.94043
                    }
                },
                {
                    "facility": "Rutgers-Robert Wood Johnson Medical School",
                    "status": "TERMINATED",
                    "city": "New Brunswick",
                    "state": "New Jersey",
                    "zip": "08901",
                    "country": "United States",
                    "geoPoint": {
                        "lat": 40.48622,
                        "lon": -74.45182
                    }
                },
                {
                    "facility": "Northwell Health - Center for Liver Diseases",
                    "status": "TERMINATED",
                    "city": "Manhasset",
                    "state": "New York",
                    "zip": "11030",
                    "country": "United States",
                    "geoPoint": {
                        "lat": 40.79788,
                        "lon": -73.69957
                    }
                },
                {
                    "facility": "NYU Langone Health",
                    "status": "ACTIVE_NOT_RECRUITING",
                    "city": "New York",
                    "state": "New York",
                    "zip": "10016",
                    "country": "United States",
                    "geoPoint": {
                        "lat": 40.71427,
                        "lon": -74.00597
                    }
                },
                {
                    "facility": "Weill Cornell Medical College",
                    "status": "ACTIVE_NOT_RECRUITING",
                    "city": "New York",
                    "state": "New York",
                    "zip": "10021",
                    "country": "United States",
                    "geoPoint": {
                        "lat": 40.71427,
                        "lon": -74.00597
                    }
                },
                {
                    "facility": "Columbia University",
                    "status": "ACTIVE_NOT_RECRUITING",
                    "city": "New York",
                    "state": "New York",
                    "zip": "10032",
                    "country": "United States",
                    "geoPoint": {
                        "lat": 40.71427,
                        "lon": -74.00597
                    }
                },
                {
                    "facility": "University of North Carolina at Chapel Hill",
                    "status": "TERMINATED",
                    "city": "Chapel Hill",
                    "state": "North Carolina",
                    "zip": "27599",
                    "country": "United States",
                    "geoPoint": {
                        "lat": 35.9132,
                        "lon": -79.05584
                    }
                },
                {
                    "facility": "Center for Liver Disease and Transplant at CMC",
                    "status": "TERMINATED",
                    "city": "Charlotte",
                    "state": "North Carolina",
                    "zip": "28204",
                    "country": "United States",
                    "geoPoint": {
                        "lat": 35.22709,
                        "lon": -80.84313
                    }
                },
                {
                    "facility": "Providence Health & Services Cancer Clinical Trials",
                    "status": "ACTIVE_NOT_RECRUITING",
                    "city": "Portland",
                    "state": "Oregon",
                    "zip": "97213",
                    "country": "United States",
                    "geoPoint": {
                        "lat": 45.52345,
                        "lon": -122.67621
                    }
                },
                {
                    "facility": "Penn State Hershey Medical Center",
                    "status": "TERMINATED",
                    "city": "Hershey",
                    "state": "Pennsylvania",
                    "zip": "17033",
                    "country": "United States",
                    "geoPoint": {
                        "lat": 40.28592,
                        "lon": -76.65025
                    }
                },
                {
                    "facility": "University of Pennsylvania",
                    "status": "RECRUITING",
                    "city": "Philadelphia",
                    "state": "Pennsylvania",
                    "zip": "19104",
                    "country": "United States",
                    "contacts": [
                        {
                            "name": "Laura Tague",
                            "role": "CONTACT",
                            "phone": "215-614-0285",
                            "email": "Laura.Tague@pennmedicine.upenn.edu"
                        }
                    ],
                    "geoPoint": {
                        "lat": 39.95233,
                        "lon": -75.16379
                    }
                },
                {
                    "facility": "Medical University of South Carolina",
                    "status": "ACTIVE_NOT_RECRUITING",
                    "city": "Charleston",
                    "state": "South Carolina",
                    "zip": "29403",
                    "country": "United States",
                    "geoPoint": {
                        "lat": 32.77657,
                        "lon": -79.93092
                    }
                },
                {
                    "facility": "Vanderbilt University Medical Center - GI Research Office",
                    "status": "ACTIVE_NOT_RECRUITING",
                    "city": "Nashville",
                    "state": "Tennessee",
                    "zip": "37212",
                    "country": "United States",
                    "geoPoint": {
                        "lat": 36.16589,
                        "lon": -86.78444
                    }
                },
                {
                    "facility": "Clinical Research Institute@ Methodist Dallas Medical Center",
                    "status": "ACTIVE_NOT_RECRUITING",
                    "city": "Dallas",
                    "state": "Texas",
                    "zip": "75203",
                    "country": "United States",
                    "geoPoint": {
                        "lat": 32.78306,
                        "lon": -96.80667
                    }
                },
                {
                    "facility": "University of Texas Southwestern Medical Center",
                    "status": "ACTIVE_NOT_RECRUITING",
                    "city": "Dallas",
                    "state": "Texas",
                    "zip": "75390-8887",
                    "country": "United States",
                    "geoPoint": {
                        "lat": 32.78306,
                        "lon": -96.80667
                    }
                },
                {
                    "facility": "Baylor Scott & White All Saints",
                    "status": "TERMINATED",
                    "city": "Fort Worth",
                    "state": "Texas",
                    "zip": "76104",
                    "country": "United States",
                    "geoPoint": {
                        "lat": 32.72541,
                        "lon": -97.32085
                    }
                },
                {
                    "facility": "Research Specialists of Texas",
                    "status": "TERMINATED",
                    "city": "Houston",
                    "state": "Texas",
                    "zip": "77030",
                    "country": "United States",
                    "geoPoint": {
                        "lat": 29.76328,
                        "lon": -95.36327
                    }
                },
                {
                    "facility": "University of Virginia",
                    "status": "TERMINATED",
                    "city": "Charlottesville",
                    "state": "Virginia",
                    "zip": "22908",
                    "country": "United States",
                    "geoPoint": {
                        "lat": 38.02931,
                        "lon": -78.47668
                    }
                },
                {
                    "facility": "Bon Secours Liver Institute of Virginia",
                    "status": "ACTIVE_NOT_RECRUITING",
                    "city": "Richmond",
                    "state": "Virginia",
                    "zip": "23226",
                    "country": "United States",
                    "geoPoint": {
                        "lat": 37.55376,
                        "lon": -77.46026
                    }
                },
                {
                    "facility": "Virginia Commonwealth University",
                    "status": "TERMINATED",
                    "city": "Richmond",
                    "state": "Virginia",
                    "zip": "23298",
                    "country": "United States",
                    "geoPoint": {
                        "lat": 37.55376,
                        "lon": -77.46026
                    }
                },
                {
                    "facility": "Harborview Medical Center",
                    "status": "TERMINATED",
                    "city": "Seattle",
                    "state": "Washington",
                    "zip": "98104",
                    "country": "United States",
                    "geoPoint": {
                        "lat": 47.60621,
                        "lon": -122.33207
                    }
                },
                {
                    "facility": "Wenatchee Valley Hospital & Clinics",
                    "status": "TERMINATED",
                    "city": "Wenatchee",
                    "state": "Washington",
                    "zip": "98801",
                    "country": "United States",
                    "geoPoint": {
                        "lat": 47.42346,
                        "lon": -120.31035
                    }
                },
                {
                    "facility": "University of Wisconsin",
                    "status": "ACTIVE_NOT_RECRUITING",
                    "city": "Madison",
                    "state": "Wisconsin",
                    "zip": "53705-2281",
                    "country": "United States",
                    "geoPoint": {
                        "lat": 43.07305,
                        "lon": -89.40123
                    }
                },
                {
                    "facility": "CHU de Nice - H\u00f4pital L'Archet 2",
                    "status": "TERMINATED",
                    "city": "Nice",
                    "country": "France",
                    "geoPoint": {
                        "lat": 43.70313,
                        "lon": 7.26608
                    }
                },
                {
                    "facility": "H\u00f4pitaux Universitaires Paris Centre",
                    "status": "TERMINATED",
                    "city": "Paris",
                    "country": "France",
                    "geoPoint": {
                        "lat": 48.85341,
                        "lon": 2.3488
                    }
                },
                {
                    "facility": "Universit\u00e4tsklinikum Aachen",
                    "status": "TERMINATED",
                    "city": "Aachen",
                    "country": "Germany",
                    "geoPoint": {
                        "lat": 50.77664,
                        "lon": 6.08342
                    }
                },
                {
                    "facility": "Charit\u00e9 - Universit\u00e4tsmedizin Berlin",
                    "status": "TERMINATED",
                    "city": "Berlin",
                    "country": "Germany",
                    "geoPoint": {
                        "lat": 52.52437,
                        "lon": 13.41053
                    }
                },
                {
                    "facility": "Universit\u00e4tsklinikum D\u00fcsseldorf",
                    "status": "RECRUITING",
                    "city": "D\u00fcsseldorf",
                    "country": "Germany",
                    "geoPoint": {
                        "lat": 51.22172,
                        "lon": 6.77616
                    }
                },
                {
                    "facility": "Universit\u00e4tsklinikum Frankfurt",
                    "status": "TERMINATED",
                    "city": "Frankfurt",
                    "country": "Germany",
                    "geoPoint": {
                        "lat": 50.11552,
                        "lon": 8.68417
                    }
                },
                {
                    "facility": "Medizinische Hochschule Hannover",
                    "status": "TERMINATED",
                    "city": "Hannover",
                    "country": "Germany",
                    "geoPoint": {
                        "lat": 52.37052,
                        "lon": 9.73322
                    }
                },
                {
                    "facility": "Universit\u00e4tsklinikum Leipzig",
                    "status": "TERMINATED",
                    "city": "Leipzig",
                    "country": "Germany",
                    "geoPoint": {
                        "lat": 51.33962,
                        "lon": 12.37129
                    }
                },
                {
                    "facility": "Universit\u00e4tsklinikum Magdeburg",
                    "status": "TERMINATED",
                    "city": "Magdeburg",
                    "country": "Germany",
                    "geoPoint": {
                        "lat": 52.12773,
                        "lon": 11.62916
                    }
                },
                {
                    "facility": "Universit\u00e4tsmedizin Mainz",
                    "status": "TERMINATED",
                    "city": "Mainz",
                    "country": "Germany",
                    "geoPoint": {
                        "lat": 49.98419,
                        "lon": 8.2791
                    }
                },
                {
                    "facility": "Fondazione IRCCS Ca' Granda Ospedale Maggiore Policlinico",
                    "status": "TERMINATED",
                    "city": "Milan",
                    "country": "Italy",
                    "geoPoint": {
                        "lat": 45.46427,
                        "lon": 9.18951
                    }
                },
                {
                    "facility": "A.O.U.P. di Palermo",
                    "status": "TERMINATED",
                    "city": "Palermo",
                    "country": "Italy",
                    "geoPoint": {
                        "lat": 38.13205,
                        "lon": 13.33561
                    }
                },
                {
                    "facility": "Humanitas Mirasole IRCCS",
                    "status": "TERMINATED",
                    "city": "Rozzano",
                    "country": "Italy",
                    "geoPoint": {
                        "lat": 45.38193,
                        "lon": 9.1559
                    }
                },
                {
                    "facility": "IRCCS \"Casa Sollievo della Sofferenza\"",
                    "status": "TERMINATED",
                    "city": "San Giovanni Rotondo",
                    "country": "Italy",
                    "geoPoint": {
                        "lat": 41.70643,
                        "lon": 15.7277
                    }
                },
                {
                    "facility": "Complejo Hospitalario Universitario A Coru\u00f1a",
                    "status": "WITHDRAWN",
                    "city": "Coru\u00f1a",
                    "country": "Spain",
                    "geoPoint": {
                        "lat": 43.37135,
                        "lon": -8.396
                    }
                },
                {
                    "facility": "Hospital Puerta de Hierro Majadahonda",
                    "status": "TERMINATED",
                    "city": "Madrid",
                    "country": "Spain",
                    "geoPoint": {
                        "lat": 40.4165,
                        "lon": -3.70256
                    }
                },
                {
                    "facility": "Cl\u00ednica Universidad de Navarra",
                    "status": "TERMINATED",
                    "city": "Pamplona",
                    "country": "Spain",
                    "geoPoint": {
                        "lat": 42.81687,
                        "lon": -1.64323
                    }
                },
                {
                    "facility": "Hospital Universitario Marques de Valdecilla",
                    "status": "TERMINATED",
                    "city": "Santander",
                    "country": "Spain",
                    "geoPoint": {
                        "lat": 43.46472,
                        "lon": -3.80444
                    }
                },
                {
                    "facility": "Hospital Universitario Virgen del Roc\u00edo",
                    "status": "TERMINATED",
                    "city": "Sevilla",
                    "country": "Spain",
                    "geoPoint": {
                        "lat": 37.38283,
                        "lon": -5.97317
                    }
                },
                {
                    "facility": "Hospital Universitario Polit\u00e8cnic La Fe",
                    "status": "TERMINATED",
                    "city": "Valencia",
                    "country": "Spain",
                    "geoPoint": {
                        "lat": 39.46975,
                        "lon": -0.37739
                    }
                }
            ]
        },
        "referencesModule": {
            "references": [
                {
                    "pmid": "33681685",
                    "type": "DERIVED",
                    "citation": "Cabrera R, Singal AG, Colombo M, Kelley RK, Lee H, Mospan AR, Meyer T, Newell P, Parikh ND, Sangro B, Reddy KR, Watkins S, Zink RC, Di Bisceglie AM. A Real-World Observational Cohort of Patients with Hepatocellular Carcinoma: Design and Rationale for TARGET-HCC. Hepatol Commun. 2020 Dec 21;5(3):538-547. doi: 10.1002/hep4.1652. eCollection 2021 Mar. Erratum In: Hepatol Commun. 2022 May;6(5):1248. doi: 10.1002/hep4.1868."
                }
            ]
        },
        "ipdSharingStatementModule": {
            "ipdSharing": "NO"
        }
    },
    "derivedSection": {
        "miscInfoModule": {
            "versionHolder": "2024-07-30"
        },
        "conditionBrowseModule": {
            "meshes": [
                {
                    "id": "D000008113",
                    "term": "Liver Neoplasms"
                },
                {
                    "id": "D000006528",
                    "term": "Carcinoma, Hepatocellular"
                }
            ],
            "ancestors": [
                {
                    "id": "D000004067",
                    "term": "Digestive System Neoplasms"
                },
                {
                    "id": "D000009371",
                    "term": "Neoplasms by Site"
                },
                {
                    "id": "D000009369",
                    "term": "Neoplasms"
                },
                {
                    "id": "D000004066",
                    "term": "Digestive System Diseases"
                },
                {
                    "id": "D000008107",
                    "term": "Liver Diseases"
                },
                {
                    "id": "D000000230",
                    "term": "Adenocarcinoma"
                },
                {
                    "id": "D000002277",
                    "term": "Carcinoma"
                },
                {
                    "id": "D000009375",
                    "term": "Neoplasms, Glandular and Epithelial"
                },
                {
                    "id": "D000009370",
                    "term": "Neoplasms by Histologic Type"
                }
            ],
            "browseLeaves": [
                {
                    "id": "M5534",
                    "name": "Carcinoma",
                    "relevance": "LOW"
                },
                {
                    "id": "M9613",
                    "name": "Carcinoma, Hepatocellular",
                    "asFound": "Hepatocellular Cancer",
                    "relevance": "HIGH"
                },
                {
                    "id": "M11113",
                    "name": "Liver Neoplasms",
                    "asFound": "Hepatocellular Cancer",
                    "relevance": "HIGH"
                },
                {
                    "id": "M7256",
                    "name": "Digestive System Neoplasms",
                    "relevance": "LOW"
                },
                {
                    "id": "M8886",
                    "name": "Gastrointestinal Neoplasms",
                    "relevance": "LOW"
                },
                {
                    "id": "M7255",
                    "name": "Digestive System Diseases",
                    "relevance": "LOW"
                },
                {
                    "id": "M8883",
                    "name": "Gastrointestinal Diseases",
                    "relevance": "LOW"
                },
                {
                    "id": "M11107",
                    "name": "Liver Diseases",
                    "relevance": "LOW"
                },
                {
                    "id": "M3585",
                    "name": "Adenocarcinoma",
                    "relevance": "LOW"
                },
                {
                    "id": "M12320",
                    "name": "Neoplasms, Glandular and Epithelial",
                    "relevance": "LOW"
                },
                {
                    "id": "M12315",
                    "name": "Neoplasms by Histologic Type",
                    "relevance": "LOW"
                }
            ],
            "browseBranches": [
                {
                    "abbrev": "BC04",
                    "name": "Neoplasms"
                },
                {
                    "abbrev": "All",
                    "name": "All Conditions"
                },
                {
                    "abbrev": "BC06",
                    "name": "Digestive System Diseases"
                }
            ]
        }
    },
    "hasResults": false
}