{
    "protocolSection": {
        "identificationModule": {
            "nctId": "NCT06190093",
            "orgStudyIdInfo": {
                "id": "ONS-5010-008"
            },
            "organization": {
                "fullName": "Outlook Therapeutics, Inc.",
                "class": "INDUSTRY"
            },
            "briefTitle": "A 3-month Study to Assess the Safety and Effectiveness of ONS-5010 in Subjects With Neovascular Age-related Macular Degeneration (AMD)",
            "officialTitle": "Safety and Effectiveness of ONS-5010 Compared to Lucentis\u00ae in Subjects With Neovascular Age-related Macular Degeneration; NORSE EIGHT",
            "therapeuticArea": [
                "Ophthalmology"
            ],
            "study": "a-month-study-to-assess-the-safety-and-effectiveness-of-ons-in-subjects-with-neovascular-age-related-macular-degeneration-amd"
        },
        "statusModule": {
            "statusVerifiedDate": "2024-07",
            "overallStatus": "RECRUITING",
            "expandedAccessInfo": {
                "hasExpandedAccess": false
            },
            "startDateStruct": {
                "date": "2024-01-24",
                "type": "ACTUAL"
            },
            "primaryCompletionDateStruct": {
                "date": "2024-09",
                "type": "ESTIMATED"
            },
            "completionDateStruct": {
                "date": "2024-10",
                "type": "ESTIMATED"
            },
            "studyFirstSubmitDate": "2023-12-19",
            "studyFirstSubmitQcDate": "2023-12-19",
            "studyFirstPostDateStruct": {
                "date": "2024-01-05",
                "type": "ACTUAL"
            },
            "lastUpdateSubmitDate": "2024-07-22",
            "lastUpdatePostDateStruct": {
                "date": "2024-07-23",
                "type": "ACTUAL"
            }
        },
        "sponsorCollaboratorsModule": {
            "responsibleParty": {
                "type": "SPONSOR"
            },
            "leadSponsor": {
                "name": "Outlook Therapeutics, Inc.",
                "class": "INDUSTRY"
            }
        },
        "oversightModule": {
            "oversightHasDmc": false,
            "isFdaRegulatedDrug": true,
            "isFdaRegulatedDevice": false
        },
        "descriptionModule": {
            "briefSummary": "Multicenter, randomized, masked, controlled study of the safety and effectiveness of intravitreally administered ONS-5010."
        },
        "conditionsModule": {
            "conditions": [
                "Neovascular Age-related Macular Degeneration",
                "Age-Related Macular Degeneration",
                "Wet Macular Degeneration"
            ]
        },
        "designModule": {
            "studyType": "INTERVENTIONAL",
            "phases": [
                "PHASE3"
            ],
            "designInfo": {
                "allocation": "RANDOMIZED",
                "interventionModel": "PARALLEL",
                "primaryPurpose": "TREATMENT",
                "maskingInfo": {
                    "masking": "TRIPLE",
                    "whoMasked": [
                        "PARTICIPANT",
                        "INVESTIGATOR",
                        "OUTCOMES_ASSESSOR"
                    ]
                }
            },
            "enrollmentInfo": {
                "count": 400,
                "type": "ESTIMATED"
            }
        },
        "armsInterventionsModule": {
            "armGroups": [
                {
                    "label": "ONS-5010 bevacizumab",
                    "type": "EXPERIMENTAL",
                    "interventionNames": [
                        "Biological: bevacizumab"
                    ]
                },
                {
                    "label": "ranibizumab",
                    "type": "ACTIVE_COMPARATOR",
                    "interventionNames": [
                        "Biological: ranibizumab"
                    ]
                }
            ],
            "interventions": [
                {
                    "type": "BIOLOGICAL",
                    "name": "bevacizumab",
                    "description": "1.25 mg, intravitreal injection",
                    "armGroupLabels": [
                        "ONS-5010 bevacizumab"
                    ],
                    "otherNames": [
                        "ONS-5010"
                    ]
                },
                {
                    "type": "BIOLOGICAL",
                    "name": "ranibizumab",
                    "description": "0.5mg, intravitreal injection",
                    "armGroupLabels": [
                        "ranibizumab"
                    ]
                }
            ]
        },
        "outcomesModule": {
            "primaryOutcomes": [
                {
                    "measure": "Evaluate the effectiveness of intravitreal injections of ONS-5010 compared to ranibizumab in preventing vision loss, as measured by the mean change in baseline best correct visual acuity (BCVA) at Week 8",
                    "description": "BCVA to be assessed as letters read using the Early Treatment Diabetic Retinopathy Study (ETDRS) charts. A positive change represents an improvement in visual acuity.",
                    "timeFrame": "Baseline, 8 weeks"
                }
            ]
        },
        "eligibilityModule": {
            "eligibilityCriteria": "Inclusion Criteria:\n\n* Active primary Subfoveal Choroidal Neovascularization lesions secondary to Age-related macular degeneration (AMD) in the study eye\n* Best corrected visual acuity of 35-75 letters read (20/32 to 20/200 Snellen equivalent)\n* Study eye must:\n* Have active leakage on Fluorescein Angiogram involving the fovea\n* Have edema involving the fovea\n* Be free of scarring, fibrosis, or atrophy involving the central foveal zone\n\nExclusion Criteria:\n\n* Previous subfoveal focal laser photocoagulation in the study eye\n* Laser photocoagulation (juxtafoveal or extrafoveal) in the study eye within 1-month preceding randomization\n* Any concurrent intraocular condition in the study eye that may require medical or surgical intervention or contribute to vision loss within 1 year\n* Active intraocular inflammation (grade trace or above) in the study eye\n* Current vitreous hemorrhage in the study eye\n* Polypoidal choroidal vasculopathy (PCV) in the study eye\n* History of idiopathic or autoimmune-associated uveitis in either eye\n* Infectious conjunctivitis, keratitis, scleritis, or endophthalmitis in either eye\n* Uncontrolled glaucoma in the study eye (defined as intraocular pressure \u226530 mmHg despite treatment with anti-glaucoma medication)\n* Premenopausal women not using adequate contraception\n* Current treatment for active systemic infection\n* Known allergy to any component of the study drug or history of allergy to fluorescein , not amenable to treatment",
            "healthyVolunteers": false,
            "sex": "ALL",
            "minimumAge": "50 Years",
            "stdAges": [
                "ADULT",
                "OLDER_ADULT"
            ]
        },
        "contactsLocationsModule": {
            "centralContacts": [
                {
                    "name": "SVP, Clinical & Regulatory Affairs",
                    "role": "CONTACT",
                    "phone": "6154232150",
                    "email": "Jenniferkissner@outlooktherapeutics.com"
                }
            ],
            "locations": [
                {
                    "facility": "Clinical Site",
                    "status": "RECRUITING",
                    "city": "Arcadia",
                    "state": "California",
                    "zip": "91006",
                    "country": "United States",
                    "geoPoint": {
                        "lat": 34.13973,
                        "lon": -118.03534
                    }
                },
                {
                    "facility": "Clinical Site",
                    "status": "RECRUITING",
                    "city": "Bakersfield",
                    "state": "California",
                    "zip": "93309",
                    "country": "United States",
                    "geoPoint": {
                        "lat": 35.37329,
                        "lon": -119.01871
                    }
                },
                {
                    "facility": "Clinical Site",
                    "status": "RECRUITING",
                    "city": "Beverly Hills",
                    "state": "California",
                    "zip": "90210",
                    "country": "United States",
                    "geoPoint": {
                        "lat": 34.07362,
                        "lon": -118.40036
                    }
                },
                {
                    "facility": "Clinical Site",
                    "status": "RECRUITING",
                    "city": "Huntington Beach",
                    "state": "California",
                    "zip": "92647",
                    "country": "United States",
                    "geoPoint": {
                        "lat": 33.6603,
                        "lon": -117.99923
                    }
                },
                {
                    "facility": "Clinical Site",
                    "status": "RECRUITING",
                    "city": "Laguna Hills",
                    "state": "California",
                    "zip": "92653",
                    "country": "United States",
                    "geoPoint": {
                        "lat": 33.61252,
                        "lon": -117.71283
                    }
                },
                {
                    "facility": "Clinical Site",
                    "status": "RECRUITING",
                    "city": "Long Beach",
                    "state": "California",
                    "zip": "90807",
                    "country": "United States",
                    "geoPoint": {
                        "lat": 33.76696,
                        "lon": -118.18923
                    }
                },
                {
                    "facility": "Clinical Site",
                    "status": "RECRUITING",
                    "city": "Modesto",
                    "state": "California",
                    "zip": "95356",
                    "country": "United States",
                    "geoPoint": {
                        "lat": 37.6391,
                        "lon": -120.99688
                    }
                },
                {
                    "facility": "Clinical Site",
                    "status": "RECRUITING",
                    "city": "Oakland",
                    "state": "California",
                    "zip": "94611",
                    "country": "United States",
                    "geoPoint": {
                        "lat": 37.80437,
                        "lon": -122.2708
                    }
                },
                {
                    "facility": "Clinical Site",
                    "status": "RECRUITING",
                    "city": "Pasadena",
                    "state": "California",
                    "zip": "91107",
                    "country": "United States",
                    "geoPoint": {
                        "lat": 34.14778,
                        "lon": -118.14452
                    }
                },
                {
                    "facility": "Clinical Site",
                    "status": "RECRUITING",
                    "city": "Poway",
                    "state": "California",
                    "zip": "92064",
                    "country": "United States",
                    "geoPoint": {
                        "lat": 32.96282,
                        "lon": -117.03586
                    }
                },
                {
                    "facility": "Clinical Site",
                    "status": "RECRUITING",
                    "city": "Sacramento",
                    "state": "California",
                    "zip": "95841",
                    "country": "United States",
                    "geoPoint": {
                        "lat": 38.58157,
                        "lon": -121.4944
                    }
                },
                {
                    "facility": "Clinical Site",
                    "status": "RECRUITING",
                    "city": "Colorado Springs",
                    "state": "Colorado",
                    "zip": "80909",
                    "country": "United States",
                    "geoPoint": {
                        "lat": 38.83388,
                        "lon": -104.82136
                    }
                },
                {
                    "facility": "Clinical Site",
                    "status": "RECRUITING",
                    "city": "Lakewood",
                    "state": "Colorado",
                    "zip": "80228",
                    "country": "United States",
                    "geoPoint": {
                        "lat": 39.70471,
                        "lon": -105.08137
                    }
                },
                {
                    "facility": "Clinical Site",
                    "status": "RECRUITING",
                    "city": "Waterford",
                    "state": "Connecticut",
                    "zip": "06385",
                    "country": "United States",
                    "geoPoint": {
                        "lat": 41.3417,
                        "lon": -72.13597
                    }
                },
                {
                    "facility": "Clinical Site",
                    "status": "RECRUITING",
                    "city": "Coral Springs",
                    "state": "Florida",
                    "zip": "33067",
                    "country": "United States",
                    "geoPoint": {
                        "lat": 26.27119,
                        "lon": -80.2706
                    }
                },
                {
                    "facility": "Clinical Site",
                    "status": "RECRUITING",
                    "city": "Fort Lauderdale",
                    "state": "Florida",
                    "zip": "33308",
                    "country": "United States",
                    "geoPoint": {
                        "lat": 26.12231,
                        "lon": -80.14338
                    }
                },
                {
                    "facility": "Clinical Site",
                    "status": "RECRUITING",
                    "city": "Jacksonville",
                    "state": "Florida",
                    "zip": "32216",
                    "country": "United States",
                    "geoPoint": {
                        "lat": 30.33218,
                        "lon": -81.65565
                    }
                },
                {
                    "facility": "Clinical Site",
                    "status": "RECRUITING",
                    "city": "Orlando",
                    "state": "Florida",
                    "zip": "32806",
                    "country": "United States",
                    "geoPoint": {
                        "lat": 28.53834,
                        "lon": -81.37924
                    }
                },
                {
                    "facility": "Clinical Site",
                    "status": "RECRUITING",
                    "city": "Stuart",
                    "state": "Florida",
                    "zip": "34994",
                    "country": "United States",
                    "geoPoint": {
                        "lat": 27.19755,
                        "lon": -80.25283
                    }
                },
                {
                    "facility": "Clinical Site",
                    "status": "RECRUITING",
                    "city": "Oak Forest",
                    "state": "Illinois",
                    "zip": "60452",
                    "country": "United States",
                    "geoPoint": {
                        "lat": 41.60281,
                        "lon": -87.74394
                    }
                },
                {
                    "facility": "Clinical Site",
                    "status": "RECRUITING",
                    "city": "Oak Park",
                    "state": "Illinois",
                    "zip": "03440",
                    "country": "United States",
                    "geoPoint": {
                        "lat": 41.88503,
                        "lon": -87.7845
                    }
                },
                {
                    "facility": "Clinical Site",
                    "status": "RECRUITING",
                    "city": "Lenexa",
                    "state": "Kansas",
                    "zip": "66215",
                    "country": "United States",
                    "geoPoint": {
                        "lat": 38.95362,
                        "lon": -94.73357
                    }
                },
                {
                    "facility": "Clinical Site",
                    "status": "RECRUITING",
                    "city": "Lexington",
                    "state": "Kentucky",
                    "zip": "40509",
                    "country": "United States",
                    "geoPoint": {
                        "lat": 37.98869,
                        "lon": -84.47772
                    }
                },
                {
                    "facility": "Clinical Site",
                    "status": "RECRUITING",
                    "city": "Hagerstown",
                    "state": "Maryland",
                    "zip": "21740",
                    "country": "United States",
                    "geoPoint": {
                        "lat": 39.64176,
                        "lon": -77.71999
                    }
                },
                {
                    "facility": "Clinical Site",
                    "status": "RECRUITING",
                    "city": "Edina",
                    "state": "Minnesota",
                    "zip": "55435",
                    "country": "United States",
                    "geoPoint": {
                        "lat": 44.88969,
                        "lon": -93.34995
                    }
                },
                {
                    "facility": "Clinical Site",
                    "status": "RECRUITING",
                    "city": "Saint Louis Park",
                    "state": "Minnesota",
                    "zip": "55416",
                    "country": "United States",
                    "geoPoint": {
                        "lat": 44.9483,
                        "lon": -93.34801
                    }
                },
                {
                    "facility": "Clinical Site",
                    "status": "RECRUITING",
                    "city": "Jackson",
                    "state": "Mississippi",
                    "zip": "39202",
                    "country": "United States",
                    "geoPoint": {
                        "lat": 32.29876,
                        "lon": -90.18481
                    }
                },
                {
                    "facility": "Clinical Site",
                    "status": "RECRUITING",
                    "city": "Teaneck",
                    "state": "New Jersey",
                    "zip": "07666",
                    "country": "United States",
                    "geoPoint": {
                        "lat": 40.8976,
                        "lon": -74.01597
                    }
                },
                {
                    "facility": "Clinical Site",
                    "status": "RECRUITING",
                    "city": "Albuquerque",
                    "state": "New Mexico",
                    "zip": "87109",
                    "country": "United States",
                    "geoPoint": {
                        "lat": 35.08449,
                        "lon": -106.65114
                    }
                },
                {
                    "facility": "Clinical Site",
                    "status": "RECRUITING",
                    "city": "Liverpool",
                    "state": "New York",
                    "zip": "13088",
                    "country": "United States",
                    "geoPoint": {
                        "lat": 43.10646,
                        "lon": -76.2177
                    }
                },
                {
                    "facility": "Clinical Site",
                    "status": "RECRUITING",
                    "city": "Oceanside",
                    "state": "New York",
                    "zip": "11572",
                    "country": "United States",
                    "geoPoint": {
                        "lat": 40.63871,
                        "lon": -73.64013
                    }
                },
                {
                    "facility": "Clinical Site",
                    "status": "RECRUITING",
                    "city": "Rochester",
                    "state": "New York",
                    "zip": "14620",
                    "country": "United States",
                    "geoPoint": {
                        "lat": 43.15478,
                        "lon": -77.61556
                    }
                },
                {
                    "facility": "Clinical Site",
                    "status": "RECRUITING",
                    "city": "Westbury",
                    "state": "New York",
                    "zip": "11590",
                    "country": "United States",
                    "geoPoint": {
                        "lat": 40.75566,
                        "lon": -73.58763
                    }
                },
                {
                    "facility": "Clinical Site",
                    "status": "RECRUITING",
                    "city": "Asheville",
                    "state": "North Carolina",
                    "zip": "28803",
                    "country": "United States",
                    "geoPoint": {
                        "lat": 35.60095,
                        "lon": -82.55402
                    }
                },
                {
                    "facility": "Clinical Site",
                    "status": "RECRUITING",
                    "city": "Hickory",
                    "state": "North Carolina",
                    "zip": "28602",
                    "country": "United States",
                    "geoPoint": {
                        "lat": 35.73319,
                        "lon": -81.3412
                    }
                },
                {
                    "facility": "Clinical Site",
                    "status": "RECRUITING",
                    "city": "Wake Forest",
                    "state": "North Carolina",
                    "zip": "27587",
                    "country": "United States",
                    "geoPoint": {
                        "lat": 35.97987,
                        "lon": -78.50972
                    }
                },
                {
                    "facility": "Clinical Site",
                    "status": "RECRUITING",
                    "city": "Winston-Salem",
                    "state": "North Carolina",
                    "zip": "27103",
                    "country": "United States",
                    "geoPoint": {
                        "lat": 36.09986,
                        "lon": -80.24422
                    }
                },
                {
                    "facility": "Clinical Site",
                    "status": "RECRUITING",
                    "city": "Edmond",
                    "state": "Oklahoma",
                    "zip": "73013",
                    "country": "United States",
                    "geoPoint": {
                        "lat": 35.65283,
                        "lon": -97.4781
                    }
                },
                {
                    "facility": "Clinical Site",
                    "status": "RECRUITING",
                    "city": "Charleston",
                    "state": "South Carolina",
                    "zip": "29414",
                    "country": "United States",
                    "geoPoint": {
                        "lat": 32.77657,
                        "lon": -79.93092
                    }
                },
                {
                    "facility": "Clinical Site",
                    "status": "RECRUITING",
                    "city": "Florence",
                    "state": "South Carolina",
                    "zip": "29501",
                    "country": "United States",
                    "geoPoint": {
                        "lat": 34.19543,
                        "lon": -79.76256
                    }
                },
                {
                    "facility": "Clinical Site",
                    "status": "RECRUITING",
                    "city": "Ladson",
                    "state": "South Carolina",
                    "zip": "29456",
                    "country": "United States",
                    "geoPoint": {
                        "lat": 32.98573,
                        "lon": -80.10981
                    }
                },
                {
                    "facility": "Clinical Site",
                    "status": "RECRUITING",
                    "city": "West Columbia",
                    "state": "South Carolina",
                    "zip": "29169",
                    "country": "United States",
                    "geoPoint": {
                        "lat": 33.99349,
                        "lon": -81.07398
                    }
                },
                {
                    "facility": "Clinical Site",
                    "status": "RECRUITING",
                    "city": "Rapid City",
                    "state": "South Dakota",
                    "zip": "57701",
                    "country": "United States",
                    "geoPoint": {
                        "lat": 44.08054,
                        "lon": -103.23101
                    }
                },
                {
                    "facility": "Clinical Site",
                    "status": "RECRUITING",
                    "city": "Germantown",
                    "state": "Tennessee",
                    "zip": "38138",
                    "country": "United States",
                    "geoPoint": {
                        "lat": 35.08676,
                        "lon": -89.81009
                    }
                },
                {
                    "facility": "Clinical Site",
                    "status": "RECRUITING",
                    "city": "Abilene",
                    "state": "Texas",
                    "zip": "79606",
                    "country": "United States",
                    "geoPoint": {
                        "lat": 32.44874,
                        "lon": -99.73314
                    }
                },
                {
                    "facility": "Clinical Site",
                    "status": "RECRUITING",
                    "city": "Arlington",
                    "state": "Texas",
                    "zip": "76012",
                    "country": "United States",
                    "geoPoint": {
                        "lat": 32.73569,
                        "lon": -97.10807
                    }
                },
                {
                    "facility": "Clinical Site",
                    "status": "RECRUITING",
                    "city": "Austin",
                    "state": "Texas",
                    "zip": "78705",
                    "country": "United States",
                    "geoPoint": {
                        "lat": 30.26715,
                        "lon": -97.74306
                    }
                },
                {
                    "facility": "Clinical Site",
                    "status": "RECRUITING",
                    "city": "Beaumont",
                    "state": "Texas",
                    "zip": "77707",
                    "country": "United States",
                    "geoPoint": {
                        "lat": 30.08605,
                        "lon": -94.10185
                    }
                },
                {
                    "facility": "Clinical Site",
                    "status": "RECRUITING",
                    "city": "Bellaire",
                    "state": "Texas",
                    "zip": "77401",
                    "country": "United States",
                    "geoPoint": {
                        "lat": 29.70579,
                        "lon": -95.45883
                    }
                },
                {
                    "facility": "Clinical Site",
                    "status": "RECRUITING",
                    "city": "Dallas",
                    "state": "Texas",
                    "zip": "75231",
                    "country": "United States",
                    "geoPoint": {
                        "lat": 32.78306,
                        "lon": -96.80667
                    }
                },
                {
                    "facility": "Clinical Site",
                    "status": "RECRUITING",
                    "city": "Round Rock",
                    "state": "Texas",
                    "zip": "78681",
                    "country": "United States",
                    "geoPoint": {
                        "lat": 30.50826,
                        "lon": -97.6789
                    }
                },
                {
                    "facility": "Clinical Site",
                    "status": "RECRUITING",
                    "city": "San Antonio",
                    "state": "Texas",
                    "zip": "78240",
                    "country": "United States",
                    "geoPoint": {
                        "lat": 29.42412,
                        "lon": -98.49363
                    }
                },
                {
                    "facility": "Clinical Site",
                    "status": "RECRUITING",
                    "city": "San Antonio",
                    "state": "Texas",
                    "zip": "78251",
                    "country": "United States",
                    "geoPoint": {
                        "lat": 29.42412,
                        "lon": -98.49363
                    }
                },
                {
                    "facility": "Clinical Site",
                    "status": "RECRUITING",
                    "city": "The Woodlands",
                    "state": "Texas",
                    "zip": "77384",
                    "country": "United States",
                    "geoPoint": {
                        "lat": 30.15799,
                        "lon": -95.48938
                    }
                },
                {
                    "facility": "Clinical Site",
                    "status": "RECRUITING",
                    "city": "Willow Park",
                    "state": "Texas",
                    "zip": "79606",
                    "country": "United States",
                    "geoPoint": {
                        "lat": 32.76263,
                        "lon": -97.65058
                    }
                },
                {
                    "facility": "Clinical Site",
                    "status": "RECRUITING",
                    "city": "Salt Lake City",
                    "state": "Utah",
                    "zip": "84107",
                    "country": "United States",
                    "geoPoint": {
                        "lat": 40.76078,
                        "lon": -111.89105
                    }
                },
                {
                    "facility": "Clinical Site",
                    "status": "RECRUITING",
                    "city": "Fairfax",
                    "state": "Virginia",
                    "zip": "22031",
                    "country": "United States",
                    "geoPoint": {
                        "lat": 38.84622,
                        "lon": -77.30637
                    }
                },
                {
                    "facility": "Clinical Site",
                    "status": "RECRUITING",
                    "city": "Lynchburg",
                    "state": "Virginia",
                    "zip": "24502",
                    "country": "United States",
                    "geoPoint": {
                        "lat": 37.41375,
                        "lon": -79.14225
                    }
                },
                {
                    "facility": "Clinical Site",
                    "status": "RECRUITING",
                    "city": "Bellevue",
                    "state": "Washington",
                    "zip": "98004",
                    "country": "United States",
                    "geoPoint": {
                        "lat": 47.61038,
                        "lon": -122.20068
                    }
                },
                {
                    "facility": "Clinical Site",
                    "status": "RECRUITING",
                    "city": "Silverdale",
                    "state": "Washington",
                    "zip": "98383",
                    "country": "United States",
                    "geoPoint": {
                        "lat": 47.64454,
                        "lon": -122.69487
                    }
                }
            ]
        }
    },
    "derivedSection": {
        "miscInfoModule": {
            "versionHolder": "2024-07-30"
        },
        "conditionBrowseModule": {
            "meshes": [
                {
                    "id": "D000008268",
                    "term": "Macular Degeneration"
                },
                {
                    "id": "D000057135",
                    "term": "Wet Macular Degeneration"
                }
            ],
            "ancestors": [
                {
                    "id": "D000012162",
                    "term": "Retinal Degeneration"
                },
                {
                    "id": "D000012164",
                    "term": "Retinal Diseases"
                },
                {
                    "id": "D000005128",
                    "term": "Eye Diseases"
                }
            ],
            "browseLeaves": [
                {
                    "id": "M11260",
                    "name": "Macular Degeneration",
                    "asFound": "Macular Degeneration",
                    "relevance": "HIGH"
                },
                {
                    "id": "M28735",
                    "name": "Wet Macular Degeneration",
                    "asFound": "Wet Macular Degeneration",
                    "relevance": "HIGH"
                },
                {
                    "id": "M14997",
                    "name": "Retinal Degeneration",
                    "relevance": "LOW"
                },
                {
                    "id": "M14999",
                    "name": "Retinal Diseases",
                    "relevance": "LOW"
                },
                {
                    "id": "M8271",
                    "name": "Eye Diseases",
                    "relevance": "LOW"
                }
            ],
            "browseBranches": [
                {
                    "abbrev": "BC11",
                    "name": "Eye Diseases"
                },
                {
                    "abbrev": "All",
                    "name": "All Conditions"
                }
            ]
        },
        "interventionBrowseModule": {
            "meshes": [
                {
                    "id": "D000068258",
                    "term": "Bevacizumab"
                },
                {
                    "id": "D000069579",
                    "term": "Ranibizumab"
                }
            ],
            "ancestors": [
                {
                    "id": "D000074322",
                    "term": "Antineoplastic Agents, Immunological"
                },
                {
                    "id": "D000000970",
                    "term": "Antineoplastic Agents"
                },
                {
                    "id": "D000020533",
                    "term": "Angiogenesis Inhibitors"
                },
                {
                    "id": "D000043924",
                    "term": "Angiogenesis Modulating Agents"
                },
                {
                    "id": "D000006133",
                    "term": "Growth Substances"
                },
                {
                    "id": "D000045505",
                    "term": "Physiological Effects of Drugs"
                },
                {
                    "id": "D000006131",
                    "term": "Growth Inhibitors"
                }
            ],
            "browseLeaves": [
                {
                    "id": "M246",
                    "name": "Bevacizumab",
                    "asFound": "Non-",
                    "relevance": "HIGH"
                },
                {
                    "id": "M472",
                    "name": "Ranibizumab",
                    "asFound": "Subcutaneous injection",
                    "relevance": "HIGH"
                },
                {
                    "id": "M1346",
                    "name": "Antineoplastic Agents, Immunological",
                    "relevance": "LOW"
                },
                {
                    "id": "M22318",
                    "name": "Angiogenesis Inhibitors",
                    "relevance": "LOW"
                },
                {
                    "id": "M9231",
                    "name": "Growth Inhibitors",
                    "relevance": "LOW"
                }
            ],
            "browseBranches": [
                {
                    "abbrev": "ANeo",
                    "name": "Antineoplastic Agents"
                },
                {
                    "abbrev": "All",
                    "name": "All Drugs and Chemicals"
                }
            ]
        }
    },
    "hasResults": false
}