{
    "protocolSection": {
        "identificationModule": {
            "nctId": "NCT05557409",
            "orgStudyIdInfo": {
                "id": "AXS-05-AD-304"
            },
            "organization": {
                "fullName": "Axsome Therapeutics, Inc.",
                "class": "INDUSTRY"
            },
            "briefTitle": "A Study to Assess the Efficacy and Safety of AXS-05 in Subjects With Alzheimer's Disease Agitation",
            "officialTitle": "ADVANCE-2: Addressing Dementia Via Agitation-Centered Evaluation 2: A Randomized, Double-blind, Placebo-controlled Trial to Assess the Efficacy and Safety of AXS-05 for the Treatment of Alzheimer's Disease Agitation",
            "acronym": "ADVANCE-2",
            "therapeuticArea": [
                "Other",
                "Neurology"
            ],
            "study": "a-study-to-assess-the-efficacy-and-safety-of-axs-in-subjects-with-alzheimer-s-disease-agitation"
        },
        "statusModule": {
            "statusVerifiedDate": "2024-04",
            "overallStatus": "RECRUITING",
            "expandedAccessInfo": {
                "hasExpandedAccess": false
            },
            "startDateStruct": {
                "date": "2022-09-06",
                "type": "ACTUAL"
            },
            "primaryCompletionDateStruct": {
                "date": "2025-06",
                "type": "ESTIMATED"
            },
            "completionDateStruct": {
                "date": "2025-06",
                "type": "ESTIMATED"
            },
            "studyFirstSubmitDate": "2022-09-23",
            "studyFirstSubmitQcDate": "2022-09-23",
            "studyFirstPostDateStruct": {
                "date": "2022-09-28",
                "type": "ACTUAL"
            },
            "lastUpdateSubmitDate": "2024-04-25",
            "lastUpdatePostDateStruct": {
                "date": "2024-04-26",
                "type": "ACTUAL"
            }
        },
        "sponsorCollaboratorsModule": {
            "responsibleParty": {
                "type": "SPONSOR"
            },
            "leadSponsor": {
                "name": "Axsome Therapeutics, Inc.",
                "class": "INDUSTRY"
            }
        },
        "oversightModule": {
            "oversightHasDmc": false,
            "isFdaRegulatedDrug": true,
            "isFdaRegulatedDevice": false
        },
        "descriptionModule": {
            "briefSummary": "This trial is a multi-center, double-blind, placebo-controlled, randomized study to evaluate the efficacy and safety of AXS-05 compared to placebo for the treatment of agitation associated with Alzheimer's disease.",
            "detailedDescription": "Eligible subjects will be randomized in a 1:1 ratio for up to 5 weeks to be treated with AXS-05 or placebo."
        },
        "conditionsModule": {
            "conditions": [
                "Agitation in Patients With Dementia of the Alzheimer's Type",
                "Alzheimer Disease",
                "Agitation"
            ],
            "keywords": [
                "AD agitation",
                "AXS-05",
                "NMDA receptor antagonist",
                "dextromethorphan",
                "bupropion",
                "Axsome",
                "ADVANCE-2"
            ]
        },
        "designModule": {
            "studyType": "INTERVENTIONAL",
            "phases": [
                "PHASE3"
            ],
            "designInfo": {
                "allocation": "RANDOMIZED",
                "interventionModel": "PARALLEL",
                "primaryPurpose": "TREATMENT",
                "maskingInfo": {
                    "masking": "TRIPLE",
                    "whoMasked": [
                        "PARTICIPANT",
                        "CARE_PROVIDER",
                        "INVESTIGATOR"
                    ]
                }
            },
            "enrollmentInfo": {
                "count": 350,
                "type": "ESTIMATED"
            }
        },
        "armsInterventionsModule": {
            "armGroups": [
                {
                    "label": "AXS-05",
                    "type": "EXPERIMENTAL",
                    "description": "Up to 5 weeks",
                    "interventionNames": [
                        "Drug: AXS-05"
                    ]
                },
                {
                    "label": "Placebo",
                    "type": "PLACEBO_COMPARATOR",
                    "description": "Up to 5 weeks",
                    "interventionNames": [
                        "Drug: Placebo"
                    ]
                }
            ],
            "interventions": [
                {
                    "type": "DRUG",
                    "name": "AXS-05",
                    "description": "AXS-05 tablets, taken twice daily",
                    "armGroupLabels": [
                        "AXS-05"
                    ]
                },
                {
                    "type": "DRUG",
                    "name": "Placebo",
                    "description": "Placebo tablets, taken twice daily",
                    "armGroupLabels": [
                        "Placebo"
                    ]
                }
            ]
        },
        "outcomesModule": {
            "primaryOutcomes": [
                {
                    "measure": "Cohen-Mansfield Agitation Inventory (CMAI)",
                    "timeFrame": "Up to 5 weeks"
                }
            ]
        },
        "eligibilityModule": {
            "eligibilityCriteria": "Inclusion Criteria:\n\n* Diagnosis of probable Alzheimer's disease (AD) based on the 2011 National Institute on Aging-Alzheimer Association (NIA-AA) criteria.\n* Diagnosis of clinically significant agitation resulting from probable AD according to the International Psychogeriatric Association (IPA) provisional definition of agitation.\n\nExclusion Criteria:\n\n* Patient has dementia predominantly of non-Alzheimer's type.\n* Unable to comply with study procedures.\n* Medically inappropriate for study participation in the opinion of the investigator.",
            "healthyVolunteers": false,
            "sex": "ALL",
            "minimumAge": "65 Years",
            "maximumAge": "90 Years",
            "stdAges": [
                "OLDER_ADULT"
            ]
        },
        "contactsLocationsModule": {
            "centralContacts": [
                {
                    "name": "Study Director",
                    "role": "CONTACT",
                    "phone": "212-332-5061",
                    "email": "ADVANCE-2@axsome.com"
                }
            ],
            "locations": [
                {
                    "facility": "Clinical Research Site",
                    "status": "RECRUITING",
                    "city": "Peoria",
                    "state": "Arizona",
                    "zip": "85381",
                    "country": "United States",
                    "geoPoint": {
                        "lat": 33.5806,
                        "lon": -112.23738
                    }
                },
                {
                    "facility": "Clinical Research Site",
                    "status": "TERMINATED",
                    "city": "Tempe",
                    "state": "Arizona",
                    "zip": "85282",
                    "country": "United States",
                    "geoPoint": {
                        "lat": 33.41477,
                        "lon": -111.90931
                    }
                },
                {
                    "facility": "Clinical Research Site",
                    "status": "RECRUITING",
                    "city": "Tucson",
                    "state": "Arizona",
                    "zip": "85710",
                    "country": "United States",
                    "geoPoint": {
                        "lat": 32.22174,
                        "lon": -110.92648
                    }
                },
                {
                    "facility": "Clinical Research Site",
                    "status": "RECRUITING",
                    "city": "Canoga Park",
                    "state": "California",
                    "zip": "91303",
                    "country": "United States",
                    "geoPoint": {
                        "lat": 34.20112,
                        "lon": -118.59814
                    }
                },
                {
                    "facility": "Clinical Research Site",
                    "status": "RECRUITING",
                    "city": "Lafayette",
                    "state": "California",
                    "zip": "94549",
                    "country": "United States",
                    "geoPoint": {
                        "lat": 37.88576,
                        "lon": -122.11802
                    }
                },
                {
                    "facility": "Clinical Research Site",
                    "status": "RECRUITING",
                    "city": "Long Beach",
                    "state": "California",
                    "zip": "90807",
                    "country": "United States",
                    "geoPoint": {
                        "lat": 33.76696,
                        "lon": -118.18923
                    }
                },
                {
                    "facility": "Clinical Research Site",
                    "status": "RECRUITING",
                    "city": "Los Alamitos",
                    "state": "California",
                    "zip": "90720",
                    "country": "United States",
                    "geoPoint": {
                        "lat": 33.80307,
                        "lon": -118.07256
                    }
                },
                {
                    "facility": "Clinical Research Site",
                    "status": "WITHDRAWN",
                    "city": "San Marcos",
                    "state": "California",
                    "zip": "92069",
                    "country": "United States",
                    "geoPoint": {
                        "lat": 33.14337,
                        "lon": -117.16614
                    }
                },
                {
                    "facility": "Clinical Research Site",
                    "status": "RECRUITING",
                    "city": "West Covina",
                    "state": "California",
                    "zip": "91790",
                    "country": "United States",
                    "geoPoint": {
                        "lat": 34.06862,
                        "lon": -117.93895
                    }
                },
                {
                    "facility": "Clinical Research Site",
                    "status": "RECRUITING",
                    "city": "Brandon",
                    "state": "Florida",
                    "zip": "33511",
                    "country": "United States",
                    "geoPoint": {
                        "lat": 27.9378,
                        "lon": -82.28592
                    }
                },
                {
                    "facility": "Clinical Research Site",
                    "status": "RECRUITING",
                    "city": "Greenacres City",
                    "state": "Florida",
                    "zip": "33467",
                    "country": "United States",
                    "geoPoint": {
                        "lat": 26.62368,
                        "lon": -80.12532
                    }
                },
                {
                    "facility": "Clinical Research Site",
                    "status": "RECRUITING",
                    "city": "Hialeah",
                    "state": "Florida",
                    "zip": "33012",
                    "country": "United States",
                    "geoPoint": {
                        "lat": 25.8576,
                        "lon": -80.27811
                    }
                },
                {
                    "facility": "Clinical Research Site",
                    "status": "RECRUITING",
                    "city": "Hollywood",
                    "state": "Florida",
                    "zip": "33024",
                    "country": "United States",
                    "geoPoint": {
                        "lat": 26.0112,
                        "lon": -80.14949
                    }
                },
                {
                    "facility": "Clinical Research Site",
                    "status": "RECRUITING",
                    "city": "Kissimmee",
                    "state": "Florida",
                    "zip": "34741",
                    "country": "United States",
                    "geoPoint": {
                        "lat": 28.30468,
                        "lon": -81.41667
                    }
                },
                {
                    "facility": "Clinical Research Site",
                    "status": "RECRUITING",
                    "city": "Miami Gardens",
                    "state": "Florida",
                    "zip": "33014",
                    "country": "United States",
                    "geoPoint": {
                        "lat": 25.94298,
                        "lon": -80.24452
                    }
                },
                {
                    "facility": "Clinical Research Site",
                    "status": "RECRUITING",
                    "city": "Miami Lakes",
                    "state": "Florida",
                    "zip": "33014",
                    "country": "United States",
                    "geoPoint": {
                        "lat": 25.90871,
                        "lon": -80.30866
                    }
                },
                {
                    "facility": "Clinical Research Site",
                    "status": "RECRUITING",
                    "city": "Miami",
                    "state": "Florida",
                    "zip": "33126",
                    "country": "United States",
                    "geoPoint": {
                        "lat": 25.77427,
                        "lon": -80.19366
                    }
                },
                {
                    "facility": "Clinical Research Site",
                    "status": "RECRUITING",
                    "city": "Miami",
                    "state": "Florida",
                    "zip": "33135",
                    "country": "United States",
                    "geoPoint": {
                        "lat": 25.77427,
                        "lon": -80.19366
                    }
                },
                {
                    "facility": "Clinical Research Site",
                    "status": "RECRUITING",
                    "city": "Miami",
                    "state": "Florida",
                    "zip": "33145",
                    "country": "United States",
                    "geoPoint": {
                        "lat": 25.77427,
                        "lon": -80.19366
                    }
                },
                {
                    "facility": "Clinical Research Site",
                    "status": "RECRUITING",
                    "city": "Miami",
                    "state": "Florida",
                    "zip": "33155",
                    "country": "United States",
                    "geoPoint": {
                        "lat": 25.77427,
                        "lon": -80.19366
                    }
                },
                {
                    "facility": "Clinical Research Site",
                    "status": "RECRUITING",
                    "city": "Miami",
                    "state": "Florida",
                    "zip": "33165",
                    "country": "United States",
                    "geoPoint": {
                        "lat": 25.77427,
                        "lon": -80.19366
                    }
                },
                {
                    "facility": "Clinical Research Site",
                    "status": "RECRUITING",
                    "city": "Miami",
                    "state": "Florida",
                    "zip": "33173",
                    "country": "United States",
                    "geoPoint": {
                        "lat": 25.77427,
                        "lon": -80.19366
                    }
                },
                {
                    "facility": "Clinical Research Site",
                    "status": "RECRUITING",
                    "city": "Miami",
                    "state": "Florida",
                    "zip": "33175",
                    "country": "United States",
                    "geoPoint": {
                        "lat": 25.77427,
                        "lon": -80.19366
                    }
                },
                {
                    "facility": "Clinical Research Site",
                    "status": "RECRUITING",
                    "city": "Orlando",
                    "state": "Florida",
                    "zip": "32807",
                    "country": "United States",
                    "geoPoint": {
                        "lat": 28.53834,
                        "lon": -81.37924
                    }
                },
                {
                    "facility": "Clinical Research Site",
                    "status": "RECRUITING",
                    "city": "Pembroke Pines",
                    "state": "Florida",
                    "zip": "33024",
                    "country": "United States",
                    "geoPoint": {
                        "lat": 26.00315,
                        "lon": -80.22394
                    }
                },
                {
                    "facility": "Clinical Research Site",
                    "status": "RECRUITING",
                    "city": "Augusta",
                    "state": "Georgia",
                    "zip": "30912",
                    "country": "United States",
                    "geoPoint": {
                        "lat": 33.47097,
                        "lon": -81.97484
                    }
                },
                {
                    "facility": "Clinical Research Site",
                    "status": "RECRUITING",
                    "city": "Columbus",
                    "state": "Georgia",
                    "zip": "31909",
                    "country": "United States",
                    "geoPoint": {
                        "lat": 32.46098,
                        "lon": -84.98771
                    }
                },
                {
                    "facility": "Clinical Research Site",
                    "status": "RECRUITING",
                    "city": "Wichita",
                    "state": "Kansas",
                    "zip": "67214",
                    "country": "United States",
                    "geoPoint": {
                        "lat": 37.69224,
                        "lon": -97.33754
                    }
                },
                {
                    "facility": "Clinical Research Site",
                    "status": "RECRUITING",
                    "city": "Marrero",
                    "state": "Louisiana",
                    "zip": "70072",
                    "country": "United States",
                    "geoPoint": {
                        "lat": 29.89937,
                        "lon": -90.10035
                    }
                },
                {
                    "facility": "Clinical Research Site",
                    "status": "RECRUITING",
                    "city": "Braintree",
                    "state": "Massachusetts",
                    "zip": "02184",
                    "country": "United States",
                    "geoPoint": {
                        "lat": 42.22232,
                        "lon": -70.99949
                    }
                },
                {
                    "facility": "Clinical Research Site",
                    "status": "WITHDRAWN",
                    "city": "Methuen",
                    "state": "Massachusetts",
                    "zip": "01844",
                    "country": "United States",
                    "geoPoint": {
                        "lat": 42.7262,
                        "lon": -71.19089
                    }
                },
                {
                    "facility": "Clinical Research Site",
                    "status": "RECRUITING",
                    "city": "Flint",
                    "state": "Michigan",
                    "zip": "48532",
                    "country": "United States",
                    "geoPoint": {
                        "lat": 43.01253,
                        "lon": -83.68746
                    }
                },
                {
                    "facility": "Clinical Research Site",
                    "status": "RECRUITING",
                    "city": "Rochester Hills",
                    "state": "Michigan",
                    "zip": "48307",
                    "country": "United States",
                    "geoPoint": {
                        "lat": 42.65837,
                        "lon": -83.14993
                    }
                },
                {
                    "facility": "Clinical Research Site",
                    "status": "RECRUITING",
                    "city": "Chesterfield",
                    "state": "Missouri",
                    "zip": "63005",
                    "country": "United States",
                    "geoPoint": {
                        "lat": 38.66311,
                        "lon": -90.57707
                    }
                },
                {
                    "facility": "Clinical Research Site",
                    "status": "RECRUITING",
                    "city": "Berlin",
                    "state": "New Jersey",
                    "zip": "08009",
                    "country": "United States",
                    "geoPoint": {
                        "lat": 39.79123,
                        "lon": -74.92905
                    }
                },
                {
                    "facility": "Clinical Research Site",
                    "status": "RECRUITING",
                    "city": "Toms River",
                    "state": "New Jersey",
                    "zip": "08755",
                    "country": "United States",
                    "geoPoint": {
                        "lat": 39.95373,
                        "lon": -74.19792
                    }
                },
                {
                    "facility": "Clinical Research Site",
                    "status": "RECRUITING",
                    "city": "Bronx",
                    "state": "New York",
                    "zip": "10466",
                    "country": "United States",
                    "geoPoint": {
                        "lat": 40.84985,
                        "lon": -73.86641
                    }
                },
                {
                    "facility": "Clinical Research Site",
                    "status": "RECRUITING",
                    "city": "Brooklyn",
                    "state": "New York",
                    "zip": "11229",
                    "country": "United States",
                    "geoPoint": {
                        "lat": 40.6501,
                        "lon": -73.94958
                    }
                },
                {
                    "facility": "Clinical Research Site",
                    "status": "RECRUITING",
                    "city": "New Windsor",
                    "state": "New York",
                    "zip": "12553",
                    "country": "United States",
                    "geoPoint": {
                        "lat": 41.47676,
                        "lon": -74.02375
                    }
                },
                {
                    "facility": "Clinical Research Site",
                    "status": "RECRUITING",
                    "city": "Staten Island",
                    "state": "New York",
                    "zip": "10312",
                    "country": "United States",
                    "geoPoint": {
                        "lat": 40.56233,
                        "lon": -74.13986
                    }
                },
                {
                    "facility": "Clinical Research Site",
                    "status": "RECRUITING",
                    "city": "Woodmere",
                    "state": "New York",
                    "zip": "11598",
                    "country": "United States",
                    "geoPoint": {
                        "lat": 40.63205,
                        "lon": -73.71263
                    }
                },
                {
                    "facility": "Clinical Research Site",
                    "status": "RECRUITING",
                    "city": "Charlotte",
                    "state": "North Carolina",
                    "zip": "28211",
                    "country": "United States",
                    "geoPoint": {
                        "lat": 35.22709,
                        "lon": -80.84313
                    }
                },
                {
                    "facility": "Clinical Research Site",
                    "status": "RECRUITING",
                    "city": "Hickory",
                    "state": "North Carolina",
                    "zip": "28601",
                    "country": "United States",
                    "geoPoint": {
                        "lat": 35.73319,
                        "lon": -81.3412
                    }
                },
                {
                    "facility": "Clinical Research Site",
                    "status": "RECRUITING",
                    "city": "Cincinnati",
                    "state": "Ohio",
                    "zip": "45242",
                    "country": "United States",
                    "geoPoint": {
                        "lat": 39.12713,
                        "lon": -84.51435
                    }
                },
                {
                    "facility": "Clinical Research Site",
                    "status": "RECRUITING",
                    "city": "Middleburg Heights",
                    "state": "Ohio",
                    "zip": "44130",
                    "country": "United States",
                    "geoPoint": {
                        "lat": 41.36144,
                        "lon": -81.81291
                    }
                },
                {
                    "facility": "Clinical Research Site",
                    "status": "RECRUITING",
                    "city": "Austin",
                    "state": "Texas",
                    "zip": "78737",
                    "country": "United States",
                    "geoPoint": {
                        "lat": 30.26715,
                        "lon": -97.74306
                    }
                },
                {
                    "facility": "Clinical Research Site",
                    "status": "RECRUITING",
                    "city": "Cypress",
                    "state": "Texas",
                    "zip": "77429",
                    "country": "United States",
                    "geoPoint": {
                        "lat": 29.96911,
                        "lon": -95.69717
                    }
                },
                {
                    "facility": "Clinical Research Site",
                    "status": "RECRUITING",
                    "city": "Mesquite",
                    "state": "Texas",
                    "zip": "75149",
                    "country": "United States",
                    "geoPoint": {
                        "lat": 32.7668,
                        "lon": -96.59916
                    }
                },
                {
                    "facility": "Clinical Research Site",
                    "status": "RECRUITING",
                    "city": "San Antonio",
                    "state": "Texas",
                    "zip": "78229",
                    "country": "United States",
                    "geoPoint": {
                        "lat": 29.42412,
                        "lon": -98.49363
                    }
                },
                {
                    "facility": "Clinical Research Site",
                    "status": "RECRUITING",
                    "city": "Sugar Land",
                    "state": "Texas",
                    "zip": "77478",
                    "country": "United States",
                    "geoPoint": {
                        "lat": 29.61968,
                        "lon": -95.63495
                    }
                },
                {
                    "facility": "Clinical Research Site",
                    "status": "RECRUITING",
                    "city": "Arlington",
                    "state": "Virginia",
                    "zip": "22205",
                    "country": "United States",
                    "geoPoint": {
                        "lat": 38.88101,
                        "lon": -77.10428
                    }
                },
                {
                    "facility": "Clinical Research Site",
                    "status": "RECRUITING",
                    "city": "Bayamon",
                    "zip": "00961",
                    "country": "Puerto Rico",
                    "geoPoint": {
                        "lat": 18.39856,
                        "lon": -66.15572
                    }
                },
                {
                    "facility": "Clinical Research Site",
                    "status": "RECRUITING",
                    "city": "San Juan",
                    "zip": "00918",
                    "country": "Puerto Rico",
                    "geoPoint": {
                        "lat": 18.46633,
                        "lon": -66.10572
                    }
                }
            ]
        },
        "referencesModule": {
            "seeAlsoLinks": [
                {
                    "label": "ADVANCE-2 Study Website",
                    "url": "http://alzheimers-study.com"
                },
                {
                    "label": "Axsome Therapeutics Website",
                    "url": "http://axsome.com/"
                }
            ]
        },
        "ipdSharingStatementModule": {
            "ipdSharing": "NO"
        }
    },
    "derivedSection": {
        "miscInfoModule": {
            "versionHolder": "2024-07-30"
        },
        "conditionBrowseModule": {
            "meshes": [
                {
                    "id": "D000000544",
                    "term": "Alzheimer Disease"
                },
                {
                    "id": "D000003704",
                    "term": "Dementia"
                },
                {
                    "id": "D000011595",
                    "term": "Psychomotor Agitation"
                }
            ],
            "ancestors": [
                {
                    "id": "D000001927",
                    "term": "Brain Diseases"
                },
                {
                    "id": "D000002493",
                    "term": "Central Nervous System Diseases"
                },
                {
                    "id": "D000009422",
                    "term": "Nervous System Diseases"
                },
                {
                    "id": "D000024801",
                    "term": "Tauopathies"
                },
                {
                    "id": "D000019636",
                    "term": "Neurodegenerative Diseases"
                },
                {
                    "id": "D000019965",
                    "term": "Neurocognitive Disorders"
                },
                {
                    "id": "D000001523",
                    "term": "Mental Disorders"
                },
                {
                    "id": "D000020820",
                    "term": "Dyskinesias"
                },
                {
                    "id": "D000009461",
                    "term": "Neurologic Manifestations"
                },
                {
                    "id": "D000011596",
                    "term": "Psychomotor Disorders"
                },
                {
                    "id": "D000019954",
                    "term": "Neurobehavioral Manifestations"
                },
                {
                    "id": "D000096762",
                    "term": "Aberrant Motor Behavior in Dementia"
                },
                {
                    "id": "D000001526",
                    "term": "Behavioral Symptoms"
                }
            ],
            "browseLeaves": [
                {
                    "id": "M3885",
                    "name": "Alzheimer Disease",
                    "asFound": "Alzheimer's Disease",
                    "relevance": "HIGH"
                },
                {
                    "id": "M6904",
                    "name": "Dementia",
                    "asFound": "Dementia",
                    "relevance": "HIGH"
                },
                {
                    "id": "M14452",
                    "name": "Psychomotor Agitation",
                    "asFound": "Agitation",
                    "relevance": "HIGH"
                },
                {
                    "id": "M5204",
                    "name": "Brain Diseases",
                    "relevance": "LOW"
                },
                {
                    "id": "M5742",
                    "name": "Central Nervous System Diseases",
                    "relevance": "LOW"
                },
                {
                    "id": "M23002",
                    "name": "Tauopathies",
                    "relevance": "LOW"
                },
                {
                    "id": "M21558",
                    "name": "Neurodegenerative Diseases",
                    "relevance": "LOW"
                },
                {
                    "id": "M21836",
                    "name": "Neurocognitive Disorders",
                    "relevance": "LOW"
                },
                {
                    "id": "M4815",
                    "name": "Mental Disorders",
                    "relevance": "LOW"
                },
                {
                    "id": "M14473",
                    "name": "Psychotic Disorders",
                    "relevance": "LOW"
                },
                {
                    "id": "M22574",
                    "name": "Dyskinesias",
                    "relevance": "LOW"
                },
                {
                    "id": "M12404",
                    "name": "Neurologic Manifestations",
                    "relevance": "LOW"
                },
                {
                    "id": "M14453",
                    "name": "Psychomotor Disorders",
                    "relevance": "LOW"
                },
                {
                    "id": "M21826",
                    "name": "Neurobehavioral Manifestations",
                    "relevance": "LOW"
                },
                {
                    "id": "M3259",
                    "name": "Aberrant Motor Behavior in Dementia",
                    "relevance": "LOW"
                },
                {
                    "id": "M4818",
                    "name": "Behavioral Symptoms",
                    "relevance": "LOW"
                },
                {
                    "id": "T2192",
                    "name": "Familial Alzheimer Disease",
                    "asFound": "Alzheimer's Disease",
                    "relevance": "HIGH"
                }
            ],
            "browseBranches": [
                {
                    "abbrev": "BC10",
                    "name": "Nervous System Diseases"
                },
                {
                    "abbrev": "BXM",
                    "name": "Behaviors and Mental Disorders"
                },
                {
                    "abbrev": "All",
                    "name": "All Conditions"
                },
                {
                    "abbrev": "BC23",
                    "name": "Symptoms and General Pathology"
                },
                {
                    "abbrev": "Rare",
                    "name": "Rare Diseases"
                }
            ]
        },
        "interventionBrowseModule": {
            "browseLeaves": [
                {
                    "id": "M351583",
                    "name": "Levomethorphan",
                    "relevance": "LOW"
                },
                {
                    "id": "M7110",
                    "name": "Dextromethorphan",
                    "relevance": "LOW"
                },
                {
                    "id": "M19013",
                    "name": "Bupropion",
                    "relevance": "LOW"
                }
            ],
            "browseBranches": [
                {
                    "abbrev": "Analg",
                    "name": "Analgesics"
                },
                {
                    "abbrev": "CNSDep",
                    "name": "Central Nervous System Depressants"
                },
                {
                    "abbrev": "All",
                    "name": "All Drugs and Chemicals"
                },
                {
                    "abbrev": "AnTuAg",
                    "name": "Antitussive Agents"
                },
                {
                    "abbrev": "Resp",
                    "name": "Respiratory System Agents"
                },
                {
                    "abbrev": "PsychDr",
                    "name": "Psychotropic Drugs"
                }
            ]
        }
    },
    "hasResults": false
}