{
    "protocolSection": {
        "identificationModule": {
            "nctId": "NCT05878769",
            "orgStudyIdInfo": {
                "id": "GB43374"
            },
            "organization": {
                "fullName": "Hoffmann-La Roche",
                "class": "INDUSTRY"
            },
            "briefTitle": "A Study to Evaluate the Long-Term Safety of Astegolimab in Participants With Chronic Obstructive Pulmonary Disease (COPD)",
            "officialTitle": "A Phase III Open-Label Extension Study to Evaluate the Long-Term Safety of Astegolimab in Patients With Chronic Obstructive Pulmonary Disease",
            "therapeuticArea": [
                "Respiratory"
            ],
            "study": "a-study-to-evaluate-the-long-term-safety-of-astegolimab-in-participants-with-chronic-obstructive-pulmonary-disease-copd"
        },
        "statusModule": {
            "statusVerifiedDate": "2024-07",
            "overallStatus": "RECRUITING",
            "expandedAccessInfo": {
                "hasExpandedAccess": false
            },
            "startDateStruct": {
                "date": "2023-06-28",
                "type": "ACTUAL"
            },
            "primaryCompletionDateStruct": {
                "date": "2027-06-30",
                "type": "ESTIMATED"
            },
            "completionDateStruct": {
                "date": "2027-06-30",
                "type": "ESTIMATED"
            },
            "studyFirstSubmitDate": "2023-05-19",
            "studyFirstSubmitQcDate": "2023-05-19",
            "studyFirstPostDateStruct": {
                "date": "2023-05-26",
                "type": "ACTUAL"
            },
            "lastUpdateSubmitDate": "2024-07-04",
            "lastUpdatePostDateStruct": {
                "date": "2024-07-08",
                "type": "ACTUAL"
            }
        },
        "sponsorCollaboratorsModule": {
            "responsibleParty": {
                "type": "SPONSOR"
            },
            "leadSponsor": {
                "name": "Hoffmann-La Roche",
                "class": "INDUSTRY"
            }
        },
        "oversightModule": {
            "oversightHasDmc": true,
            "isFdaRegulatedDrug": true,
            "isFdaRegulatedDevice": false
        },
        "descriptionModule": {
            "briefSummary": "The purpose of this study is to assess the long-term safety and to explore the efficacy of astegolimab in participants with chronic obstructive pulmonary disease (COPD) who have completed the 52-week placebo-controlled treatment period in parent studies GB43311 or GB44332."
        },
        "conditionsModule": {
            "conditions": [
                "Chronic Obstructive Pulmonary Disease"
            ],
            "keywords": [
                "chronic obstructive pulmonary disease, COPD"
            ]
        },
        "designModule": {
            "studyType": "INTERVENTIONAL",
            "phases": [
                "PHASE3"
            ],
            "designInfo": {
                "allocation": "NA",
                "interventionModel": "SINGLE_GROUP",
                "primaryPurpose": "TREATMENT",
                "maskingInfo": {
                    "masking": "NONE"
                }
            },
            "enrollmentInfo": {
                "count": 2000,
                "type": "ESTIMATED"
            }
        },
        "armsInterventionsModule": {
            "armGroups": [
                {
                    "label": "Open-Label Extension",
                    "type": "EXPERIMENTAL",
                    "description": "Eligible participants from parent studies GB43311 and GB44332 will receive subcutaneous (SC) astegolimab every 2 weeks (Q2W) until the end of the study",
                    "interventionNames": [
                        "Drug: Astegolimab"
                    ]
                }
            ],
            "interventions": [
                {
                    "type": "DRUG",
                    "name": "Astegolimab",
                    "description": "Participants will receive SC astegolimab Q2W",
                    "armGroupLabels": [
                        "Open-Label Extension"
                    ]
                }
            ]
        },
        "outcomesModule": {
            "primaryOutcomes": [
                {
                    "measure": "Incidence of all adverse events (AEs)",
                    "timeFrame": "Up to 12 weeks after last dose of study treatment"
                }
            ]
        },
        "eligibilityModule": {
            "eligibilityCriteria": "Inclusion Criteria:\n\n* Completion of the 52-week treatment period in either parent GB43311 or GB44332\n\nExclusion Criteria:\n\n* Withdrawal of consent and/or premature discontinuation from parent study\n* Any permanent discontinuation of study drug in parent study\n* Significant non-compliance in the parent study, specifically defined as missing scheduled visits, per investigator's judgment\n* Any new diagnosis of asthma according to the Global Initiative for Asthma guidelines or other accepted guidelines since enrolling in the parent study\n* Any new clinically significant pulmonary disease other than COPD (e.g., pulmonary fibrosis, sarcoidosis, chronic pulmonary embolism or primary pulmonary hypertension, alpha-1-antitrypsin deficiency) since enrolling in the parent study\n* Any new unstable cardiac disease, myocardial infarction, or New York Heart Association Class III or IV heart failure since enrolling in the parent study",
            "healthyVolunteers": false,
            "sex": "ALL",
            "minimumAge": "40 Years",
            "maximumAge": "90 Years",
            "stdAges": [
                "ADULT",
                "OLDER_ADULT"
            ]
        },
        "contactsLocationsModule": {
            "centralContacts": [
                {
                    "name": "Reference Study ID Number: GB43374 https://forpatients.roche.com/",
                    "role": "CONTACT",
                    "phone": "888-662-6728",
                    "email": "global-roche-genentech-trials@gene.com"
                }
            ],
            "overallOfficials": [
                {
                    "name": "Clinical Trials",
                    "affiliation": "Hoffmann-La Roche",
                    "role": "STUDY_DIRECTOR"
                }
            ],
            "locations": [
                {
                    "facility": "SEC Clinical Research LLC - Dothan 2 - ClinEdge - PPDS",
                    "status": "RECRUITING",
                    "city": "Dothan",
                    "state": "Alabama",
                    "zip": "36305",
                    "country": "United States",
                    "geoPoint": {
                        "lat": 31.22323,
                        "lon": -85.39049
                    }
                },
                {
                    "facility": "Jasper Summit Research LLC",
                    "status": "RECRUITING",
                    "city": "Jasper",
                    "state": "Alabama",
                    "zip": "35501",
                    "country": "United States",
                    "geoPoint": {
                        "lat": 33.83122,
                        "lon": -87.27751
                    }
                },
                {
                    "facility": "Pulmonary Associates of Mobile PC",
                    "status": "RECRUITING",
                    "city": "Mobile",
                    "state": "Alabama",
                    "zip": "36608-3135",
                    "country": "United States",
                    "geoPoint": {
                        "lat": 30.69436,
                        "lon": -88.04305
                    }
                },
                {
                    "facility": "CARE Clinical Research",
                    "status": "WITHDRAWN",
                    "city": "Banning",
                    "state": "California",
                    "zip": "92220",
                    "country": "United States",
                    "geoPoint": {
                        "lat": 33.92557,
                        "lon": -116.87641
                    }
                },
                {
                    "facility": "Cadena Care Institute, LLC",
                    "status": "RECRUITING",
                    "city": "Poway",
                    "state": "California",
                    "zip": "92064-2021",
                    "country": "United States",
                    "geoPoint": {
                        "lat": 32.96282,
                        "lon": -117.03586
                    }
                },
                {
                    "facility": "Inst. of Healthcare Assessment, Inc.",
                    "status": "RECRUITING",
                    "city": "San Diego",
                    "state": "California",
                    "zip": "92120",
                    "country": "United States",
                    "geoPoint": {
                        "lat": 32.71533,
                        "lon": -117.15726
                    }
                },
                {
                    "facility": "Allianz Research Institute Inc",
                    "status": "WITHDRAWN",
                    "city": "Westminster",
                    "state": "California",
                    "zip": "92683",
                    "country": "United States",
                    "geoPoint": {
                        "lat": 33.75918,
                        "lon": -118.00673
                    }
                },
                {
                    "facility": "St Francis Medical Institute ClinEdge PPDS",
                    "status": "RECRUITING",
                    "city": "Clearwater",
                    "state": "Florida",
                    "zip": "33765",
                    "country": "United States",
                    "geoPoint": {
                        "lat": 27.96585,
                        "lon": -82.8001
                    }
                },
                {
                    "facility": "Finlay Medical Research Corporation",
                    "status": "RECRUITING",
                    "city": "Greenacres City",
                    "state": "Florida",
                    "zip": "33467-2979",
                    "country": "United States",
                    "geoPoint": {
                        "lat": 26.62368,
                        "lon": -80.12532
                    }
                },
                {
                    "facility": "Flourish Research - Leesburg - PPDS",
                    "status": "RECRUITING",
                    "city": "Leesburg",
                    "state": "Florida",
                    "zip": "34748-5077",
                    "country": "United States",
                    "geoPoint": {
                        "lat": 28.81082,
                        "lon": -81.87786
                    }
                },
                {
                    "facility": "Pulmonary Specialists of the Palm Beaches",
                    "status": "RECRUITING",
                    "city": "Loxahatchee Groves",
                    "state": "Florida",
                    "zip": "33470-9206",
                    "country": "United States",
                    "geoPoint": {
                        "lat": 26.68368,
                        "lon": -80.27977
                    }
                },
                {
                    "facility": "San Marcus Research Clinic Inc.",
                    "status": "RECRUITING",
                    "city": "Miami",
                    "state": "Florida",
                    "zip": "33014",
                    "country": "United States",
                    "geoPoint": {
                        "lat": 25.77427,
                        "lon": -80.19366
                    }
                },
                {
                    "facility": "Florida Institute for Clinical Research, LLC",
                    "status": "RECRUITING",
                    "city": "Orlando",
                    "state": "Florida",
                    "zip": "32822",
                    "country": "United States",
                    "geoPoint": {
                        "lat": 28.53834,
                        "lon": -81.37924
                    }
                },
                {
                    "facility": "Medisphere Medical Research Center, Llc",
                    "status": "WITHDRAWN",
                    "city": "Evansville",
                    "state": "Indiana",
                    "zip": "47714",
                    "country": "United States",
                    "geoPoint": {
                        "lat": 37.97476,
                        "lon": -87.55585
                    }
                },
                {
                    "facility": "Exordia Medical Research, Inc.",
                    "status": "RECRUITING",
                    "city": "Stow",
                    "state": "Massachusetts",
                    "zip": "01775-1205",
                    "country": "United States",
                    "geoPoint": {
                        "lat": 42.43704,
                        "lon": -71.50562
                    }
                },
                {
                    "facility": "Northern Pines Health Center PC",
                    "status": "WITHDRAWN",
                    "city": "Buckley",
                    "state": "Michigan",
                    "zip": "49620",
                    "country": "United States",
                    "geoPoint": {
                        "lat": 44.50445,
                        "lon": -85.67701
                    }
                },
                {
                    "facility": "Flushing Road Internal Medicine and Pediatrics - F",
                    "status": "RECRUITING",
                    "city": "Flint",
                    "state": "Michigan",
                    "zip": "48504-4730",
                    "country": "United States",
                    "geoPoint": {
                        "lat": 43.01253,
                        "lon": -83.68746
                    }
                },
                {
                    "facility": "Revive Research Institute",
                    "status": "RECRUITING",
                    "city": "Lathrup Village",
                    "state": "Michigan",
                    "zip": "48076",
                    "country": "United States",
                    "geoPoint": {
                        "lat": 42.49642,
                        "lon": -83.22271
                    }
                },
                {
                    "facility": "Oakland Medical Research",
                    "status": "RECRUITING",
                    "city": "Troy",
                    "state": "Michigan",
                    "zip": "48085",
                    "country": "United States",
                    "geoPoint": {
                        "lat": 42.60559,
                        "lon": -83.14993
                    }
                },
                {
                    "facility": "Hannibal Regional Healthcare System HRMG Hannibal",
                    "status": "ACTIVE_NOT_RECRUITING",
                    "city": "Hannibal",
                    "state": "Missouri",
                    "zip": "63401-6890",
                    "country": "United States",
                    "geoPoint": {
                        "lat": 39.70838,
                        "lon": -91.35848
                    }
                },
                {
                    "facility": "Midwest Chest Consultants",
                    "status": "RECRUITING",
                    "city": "Saint Charles",
                    "state": "Missouri",
                    "zip": "63301",
                    "country": "United States",
                    "geoPoint": {
                        "lat": 38.78394,
                        "lon": -90.48123
                    }
                },
                {
                    "facility": "Midwest Clinical Research LLC",
                    "status": "RECRUITING",
                    "city": "Saint Louis",
                    "state": "Missouri",
                    "zip": "63141",
                    "country": "United States",
                    "geoPoint": {
                        "lat": 38.62727,
                        "lon": -90.19789
                    }
                },
                {
                    "facility": "Sierra Clinical Research - ClinEdge - PPDS",
                    "status": "RECRUITING",
                    "city": "Las Vegas",
                    "state": "Nevada",
                    "zip": "89106-4159",
                    "country": "United States",
                    "geoPoint": {
                        "lat": 36.17497,
                        "lon": -115.13722
                    }
                },
                {
                    "facility": "American Health Research Inc.",
                    "status": "RECRUITING",
                    "city": "Charlotte",
                    "state": "North Carolina",
                    "zip": "28277",
                    "country": "United States",
                    "geoPoint": {
                        "lat": 35.22709,
                        "lon": -80.84313
                    }
                },
                {
                    "facility": "Clinical Research of Gastonia",
                    "status": "RECRUITING",
                    "city": "Gastonia",
                    "state": "North Carolina",
                    "zip": "28054",
                    "country": "United States",
                    "geoPoint": {
                        "lat": 35.26208,
                        "lon": -81.1873
                    }
                },
                {
                    "facility": "Carolina Research Center",
                    "status": "RECRUITING",
                    "city": "Shelby",
                    "state": "North Carolina",
                    "zip": "28150-3803",
                    "country": "United States",
                    "geoPoint": {
                        "lat": 35.29235,
                        "lon": -81.53565
                    }
                },
                {
                    "facility": "Southeastern Research Center",
                    "status": "RECRUITING",
                    "city": "Winston-Salem",
                    "state": "North Carolina",
                    "zip": "27103-4029",
                    "country": "United States",
                    "geoPoint": {
                        "lat": 36.09986,
                        "lon": -80.24422
                    }
                },
                {
                    "facility": "OK Clinical Research",
                    "status": "RECRUITING",
                    "city": "Edmond",
                    "state": "Oklahoma",
                    "zip": "73034",
                    "country": "United States",
                    "geoPoint": {
                        "lat": 35.65283,
                        "lon": -97.4781
                    }
                },
                {
                    "facility": "Temple University Hospital",
                    "status": "RECRUITING",
                    "city": "Philadelphia",
                    "state": "Pennsylvania",
                    "zip": "19140",
                    "country": "United States",
                    "geoPoint": {
                        "lat": 39.95233,
                        "lon": -75.16379
                    }
                },
                {
                    "facility": "Velocity Clinical Research - Gaffney - PPDS",
                    "status": "RECRUITING",
                    "city": "Gaffney",
                    "state": "South Carolina",
                    "zip": "29340-4737",
                    "country": "United States",
                    "geoPoint": {
                        "lat": 35.07179,
                        "lon": -81.64982
                    }
                },
                {
                    "facility": "Lowcountry Lung and Critical Care",
                    "status": "RECRUITING",
                    "city": "North Charleston",
                    "state": "South Carolina",
                    "zip": "29406",
                    "country": "United States",
                    "geoPoint": {
                        "lat": 32.85462,
                        "lon": -79.97481
                    }
                },
                {
                    "facility": "Clinical Research of Rock Hill",
                    "status": "RECRUITING",
                    "city": "Rock Hill",
                    "state": "South Carolina",
                    "zip": "29732",
                    "country": "United States",
                    "geoPoint": {
                        "lat": 34.92487,
                        "lon": -81.02508
                    }
                },
                {
                    "facility": "Velocity Clinical Research Spartanburg PPDS",
                    "status": "WITHDRAWN",
                    "city": "Spartanburg",
                    "state": "South Carolina",
                    "zip": "29303-4225",
                    "country": "United States",
                    "geoPoint": {
                        "lat": 34.94957,
                        "lon": -81.93205
                    }
                },
                {
                    "facility": "South Texas Medical Research Institute, Inc., dba TTS Research ? ClinEdge ? PPDS",
                    "status": "RECRUITING",
                    "city": "Boerne",
                    "state": "Texas",
                    "zip": "78006-1993",
                    "country": "United States",
                    "geoPoint": {
                        "lat": 29.79466,
                        "lon": -98.73197
                    }
                },
                {
                    "facility": "Corsicana Medical Research",
                    "status": "RECRUITING",
                    "city": "Corsicana",
                    "state": "Texas",
                    "zip": "75110-2471",
                    "country": "United States",
                    "geoPoint": {
                        "lat": 32.09543,
                        "lon": -96.46887
                    }
                },
                {
                    "facility": "Baylor College of Medicine",
                    "status": "RECRUITING",
                    "city": "Houston",
                    "state": "Texas",
                    "zip": "77030",
                    "country": "United States",
                    "geoPoint": {
                        "lat": 29.76328,
                        "lon": -95.36327
                    }
                },
                {
                    "facility": "Sherman Clinical Research - ClinEdge - PPDS",
                    "status": "RECRUITING",
                    "city": "Sherman",
                    "state": "Texas",
                    "zip": "75092",
                    "country": "United States",
                    "geoPoint": {
                        "lat": 33.63566,
                        "lon": -96.60888
                    }
                },
                {
                    "facility": "Instituto de Investigaciones Clinicas-Mar del Plata",
                    "status": "RECRUITING",
                    "city": "Buenos Aires",
                    "zip": "B7600FZN",
                    "country": "Argentina",
                    "geoPoint": {
                        "lat": -34.61315,
                        "lon": -58.37723
                    }
                },
                {
                    "facility": "Fundacion Cidea",
                    "status": "RECRUITING",
                    "city": "Buenos Aires",
                    "zip": "C1121ABE",
                    "country": "Argentina",
                    "geoPoint": {
                        "lat": -34.61315,
                        "lon": -58.37723
                    }
                },
                {
                    "facility": "Centro M\u00e9dico Dra de Salvo",
                    "status": "RECRUITING",
                    "city": "Buenos Aires",
                    "zip": "C1426ABP",
                    "country": "Argentina",
                    "geoPoint": {
                        "lat": -34.61315,
                        "lon": -58.37723
                    }
                },
                {
                    "facility": "CARE - Centro de Alergia y Enfermedades Respiratorias",
                    "status": "RECRUITING",
                    "city": "Caba",
                    "zip": "C1414AIF",
                    "country": "Argentina",
                    "geoPoint": {
                        "lat": -34.61315,
                        "lon": -58.37723
                    }
                },
                {
                    "facility": "Centro de Investigaciones Cl\u00ednicas Belgrano",
                    "status": "RECRUITING",
                    "city": "Ciudad Autonoma Buenos Aires",
                    "zip": "C1425AZB",
                    "country": "Argentina",
                    "geoPoint": {
                        "lat": -34.61315,
                        "lon": -58.37723
                    }
                },
                {
                    "facility": "Instituto de Medicina Respiratoria, IMeR; Clinic/Outpatient Facility",
                    "status": "RECRUITING",
                    "city": "C\u00f3rdoba",
                    "zip": "X5003DCE",
                    "country": "Argentina",
                    "geoPoint": {
                        "lat": -31.4135,
                        "lon": -64.18105
                    }
                },
                {
                    "facility": "Centro de Especialidades Medicas Lobos",
                    "status": "RECRUITING",
                    "city": "Lobos",
                    "zip": "B7240AAN",
                    "country": "Argentina",
                    "geoPoint": {
                        "lat": -35.18286,
                        "lon": -59.08975
                    }
                },
                {
                    "facility": "Centro de Investigaciones Medicas Mar Del Plata",
                    "status": "RECRUITING",
                    "city": "Mar Del Plata",
                    "zip": "B7600FYK",
                    "country": "Argentina",
                    "geoPoint": {
                        "lat": -38.00228,
                        "lon": -57.55754
                    }
                },
                {
                    "facility": "Instituto Ave Pulmo",
                    "status": "RECRUITING",
                    "city": "Mar Del Plata",
                    "zip": "B7602DCK",
                    "country": "Argentina",
                    "geoPoint": {
                        "lat": -38.00228,
                        "lon": -57.55754
                    }
                },
                {
                    "facility": "INSARES",
                    "status": "RECRUITING",
                    "city": "Mendoza, Mendoza City",
                    "zip": "M5500CCG",
                    "country": "Argentina"
                },
                {
                    "facility": "Fundacion Scherbovsky",
                    "status": "RECRUITING",
                    "city": "Mendoza",
                    "zip": "M5500AYB",
                    "country": "Argentina",
                    "geoPoint": {
                        "lat": -32.89084,
                        "lon": -68.82717
                    }
                },
                {
                    "facility": "Centro Respiratorio Quilmes",
                    "status": "RECRUITING",
                    "city": "Quilmes",
                    "zip": "B1878FNR",
                    "country": "Argentina",
                    "geoPoint": {
                        "lat": -34.72904,
                        "lon": -58.26374
                    }
                },
                {
                    "facility": "Instituto Medico Fundacion Grupo Colaborativo Rosario Investigacion y Prevencion Medica",
                    "status": "RECRUITING",
                    "city": "Rosario",
                    "zip": "2002",
                    "country": "Argentina",
                    "geoPoint": {
                        "lat": -32.94682,
                        "lon": -60.63932
                    }
                },
                {
                    "facility": "Centro Medico IPAM",
                    "status": "RECRUITING",
                    "city": "Rosario",
                    "zip": "S2013SBK",
                    "country": "Argentina",
                    "geoPoint": {
                        "lat": -32.94682,
                        "lon": -60.63932
                    }
                },
                {
                    "facility": "Centro M\u00e9dico Respire",
                    "status": "RECRUITING",
                    "city": "San Fernando",
                    "zip": "B1646EBJ",
                    "country": "Argentina"
                },
                {
                    "facility": "Instituto De Patologias Respiratorias",
                    "status": "RECRUITING",
                    "city": "San Miguel de Tucuman",
                    "zip": "T4000IAJ",
                    "country": "Argentina",
                    "geoPoint": {
                        "lat": -26.82414,
                        "lon": -65.2226
                    }
                },
                {
                    "facility": "Centro Integral de Medicina Respiratoria (CIMER)",
                    "status": "RECRUITING",
                    "city": "San Miguel de Tucum\u00e1n",
                    "zip": "T4000CHE",
                    "country": "Argentina",
                    "geoPoint": {
                        "lat": -26.82414,
                        "lon": -65.2226
                    }
                },
                {
                    "facility": "Instituto De Enfermedades Respiratorias E Investigacion Medica",
                    "status": "RECRUITING",
                    "city": "Villa Vatteone",
                    "zip": "B1853AIK",
                    "country": "Argentina"
                },
                {
                    "facility": "Flinders Medical Centre",
                    "status": "RECRUITING",
                    "city": "Bedford Park",
                    "state": "South Australia",
                    "zip": "5042",
                    "country": "Australia",
                    "geoPoint": {
                        "lat": -35.03333,
                        "lon": 138.56667
                    }
                },
                {
                    "facility": "Box Hill Hospital",
                    "status": "RECRUITING",
                    "city": "Box Hill",
                    "state": "Victoria",
                    "zip": "3128",
                    "country": "Australia",
                    "geoPoint": {
                        "lat": -37.81887,
                        "lon": 145.12545
                    }
                },
                {
                    "facility": "TrialsWest Pty Ltd",
                    "status": "RECRUITING",
                    "city": "Spearwood",
                    "state": "Western Australia",
                    "zip": "6163",
                    "country": "Australia",
                    "geoPoint": {
                        "lat": -32.10534,
                        "lon": 115.77797
                    }
                },
                {
                    "facility": "Antwerp University Hospital",
                    "status": "RECRUITING",
                    "city": "Edegem",
                    "zip": "2650",
                    "country": "Belgium",
                    "geoPoint": {
                        "lat": 51.15662,
                        "lon": 4.44504
                    }
                },
                {
                    "facility": "Private Practice Dr Jean Benoit Martinot",
                    "status": "RECRUITING",
                    "city": "Erpent",
                    "zip": "5101",
                    "country": "Belgium",
                    "geoPoint": {
                        "lat": 50.45116,
                        "lon": 4.90557
                    }
                },
                {
                    "facility": "UZ Leuven",
                    "status": "RECRUITING",
                    "city": "Leuven",
                    "zip": "3000",
                    "country": "Belgium",
                    "geoPoint": {
                        "lat": 50.87959,
                        "lon": 4.70093
                    }
                },
                {
                    "facility": "AZ Sint-Maarten",
                    "status": "RECRUITING",
                    "city": "Mechelen",
                    "zip": "2800",
                    "country": "Belgium",
                    "geoPoint": {
                        "lat": 51.02574,
                        "lon": 4.47762
                    }
                },
                {
                    "facility": "AZ Delta",
                    "status": "RECRUITING",
                    "city": "Roeselare",
                    "zip": "8800",
                    "country": "Belgium",
                    "geoPoint": {
                        "lat": 50.94653,
                        "lon": 3.12269
                    }
                },
                {
                    "facility": "Office of Marc De Meulemeester",
                    "status": "RECRUITING",
                    "city": "Thuin",
                    "zip": "6534",
                    "country": "Belgium",
                    "geoPoint": {
                        "lat": 50.33933,
                        "lon": 4.28604
                    }
                },
                {
                    "facility": "CHU UCl Namur asbl - Site Godinne",
                    "status": "RECRUITING",
                    "city": "Yoir",
                    "zip": "5530",
                    "country": "Belgium"
                },
                {
                    "facility": "Medical Centre \"Asklepii\", OOD",
                    "status": "RECRUITING",
                    "city": "Dupnitsa",
                    "zip": "2600",
                    "country": "Bulgaria",
                    "geoPoint": {
                        "lat": 42.26667,
                        "lon": 23.11667
                    }
                },
                {
                    "facility": "Specialized Hospital for Active Treatment of Pneumophthisiatric Diseases - Haskovo EOOD",
                    "status": "RECRUITING",
                    "city": "Haskovo",
                    "zip": "6300",
                    "country": "Bulgaria",
                    "geoPoint": {
                        "lat": 41.93415,
                        "lon": 25.55557
                    }
                },
                {
                    "facility": "Medical Center Leo Clinic EOOD, branch Lovech",
                    "status": "RECRUITING",
                    "city": "Lovech",
                    "zip": "5500",
                    "country": "Bulgaria",
                    "geoPoint": {
                        "lat": 43.13333,
                        "lon": 24.71667
                    }
                },
                {
                    "facility": "MEDICAL CENTER HERA EOOD; Office of Pulmonology and Phtisiatrics",
                    "status": "RECRUITING",
                    "city": "Montana",
                    "zip": "3400",
                    "country": "Bulgaria",
                    "geoPoint": {
                        "lat": 43.4125,
                        "lon": 23.225
                    }
                },
                {
                    "facility": "Specialized Hospital for Active Treatment of Pneumophthisiatric Diseases-Dr.Nikola Penchev-Paza",
                    "status": "RECRUITING",
                    "city": "Pazardzhik",
                    "zip": "4400",
                    "country": "Bulgaria",
                    "geoPoint": {
                        "lat": 42.2,
                        "lon": 24.33333
                    }
                },
                {
                    "facility": "Specialized Hospital for Active Treatment of Pulmonary Diseases- Pernik EOOD",
                    "status": "RECRUITING",
                    "city": "Pernik",
                    "zip": "2300",
                    "country": "Bulgaria",
                    "geoPoint": {
                        "lat": 42.6,
                        "lon": 23.03333
                    }
                },
                {
                    "facility": "Medical center Medconsult Pleven OOD",
                    "status": "RECRUITING",
                    "city": "Pleven",
                    "zip": "5800",
                    "country": "Bulgaria",
                    "geoPoint": {
                        "lat": 43.41667,
                        "lon": 24.61667
                    }
                },
                {
                    "facility": "University Multiprofile Hospital for Active Treatment Sveti Georgi EAD",
                    "status": "ACTIVE_NOT_RECRUITING",
                    "city": "Plovdiv",
                    "zip": "4002",
                    "country": "Bulgaria",
                    "geoPoint": {
                        "lat": 42.15,
                        "lon": 24.75
                    }
                },
                {
                    "facility": "Medical center Unimed EOOD",
                    "status": "RECRUITING",
                    "city": "Plovdiv",
                    "zip": "4023",
                    "country": "Bulgaria",
                    "geoPoint": {
                        "lat": 42.15,
                        "lon": 24.75
                    }
                },
                {
                    "facility": "University Multiprofile Hospital for Active Treatment and Emergency Medicine N. I. Pirogov EAD",
                    "status": "ACTIVE_NOT_RECRUITING",
                    "city": "Sofia",
                    "zip": "1606",
                    "country": "Bulgaria",
                    "geoPoint": {
                        "lat": 42.69751,
                        "lon": 23.32415
                    }
                },
                {
                    "facility": "Medical Center New rehabilitation center EOOD",
                    "status": "RECRUITING",
                    "city": "Stara Zagora",
                    "zip": "6000",
                    "country": "Bulgaria",
                    "geoPoint": {
                        "lat": 42.43278,
                        "lon": 25.64194
                    }
                },
                {
                    "facility": "Specialized Hospital for Active Treatment of Pneumophthisiatric Diseases-Vratsa",
                    "status": "RECRUITING",
                    "city": "Vratsa",
                    "zip": "3000",
                    "country": "Bulgaria",
                    "geoPoint": {
                        "lat": 43.21,
                        "lon": 23.5625
                    }
                },
                {
                    "facility": "Dynamic Drug Advancement Ltd.",
                    "status": "RECRUITING",
                    "city": "Ajax",
                    "state": "Ontario",
                    "zip": "L1S 2J5",
                    "country": "Canada",
                    "geoPoint": {
                        "lat": 43.85012,
                        "lon": -79.03288
                    }
                },
                {
                    "facility": "Burlington Lung Clinic",
                    "status": "RECRUITING",
                    "city": "Burlington",
                    "state": "Ontario",
                    "zip": "L7N 3V2",
                    "country": "Canada",
                    "geoPoint": {
                        "lat": 43.38621,
                        "lon": -79.83713
                    }
                },
                {
                    "facility": "Dr Anil Dhar Professional Medicine Corporation",
                    "status": "RECRUITING",
                    "city": "Windsor",
                    "state": "Ontario",
                    "zip": "N8X 5A6",
                    "country": "Canada",
                    "geoPoint": {
                        "lat": 42.30008,
                        "lon": -83.01654
                    }
                },
                {
                    "facility": "Clinique de pneumologie et du sommeil de Lanaudiere",
                    "status": "RECRUITING",
                    "city": "Saint-Charles-Borromee",
                    "state": "Quebec",
                    "zip": "J6E 2B4",
                    "country": "Canada",
                    "geoPoint": {
                        "lat": 46.05007,
                        "lon": -73.46586
                    }
                },
                {
                    "facility": "Sociedad M\u00e9dica SyG SpA",
                    "status": "RECRUITING",
                    "city": "Providencia",
                    "zip": "7500000",
                    "country": "Chile",
                    "geoPoint": {
                        "lat": -33.43107,
                        "lon": -70.60454
                    }
                },
                {
                    "facility": "Enroll SpA - PPDS",
                    "status": "RECRUITING",
                    "city": "Providencia",
                    "zip": "7500587",
                    "country": "Chile",
                    "geoPoint": {
                        "lat": -33.43107,
                        "lon": -70.60454
                    }
                },
                {
                    "facility": "Centro Internacional de Estudios Cl\u00ednicos (CIEC)",
                    "status": "RECRUITING",
                    "city": "Recoleta",
                    "zip": "8420000",
                    "country": "Chile",
                    "geoPoint": {
                        "lat": -30.50052,
                        "lon": -71.15042
                    }
                },
                {
                    "facility": "Centro de Investigaciones Medicas Respiratorias CIMER",
                    "status": "RECRUITING",
                    "city": "Santiago",
                    "zip": "7500692",
                    "country": "Chile",
                    "geoPoint": {
                        "lat": -33.45694,
                        "lon": -70.64827
                    }
                },
                {
                    "facility": "Centro de Estudios Clinicos",
                    "status": "RECRUITING",
                    "city": "Santiago",
                    "zip": "7501126",
                    "country": "Chile",
                    "geoPoint": {
                        "lat": -33.45694,
                        "lon": -70.64827
                    }
                },
                {
                    "facility": "Hospital Carlos Van Buren",
                    "status": "RECRUITING",
                    "city": "Valparaiso",
                    "zip": "2340000",
                    "country": "Chile",
                    "geoPoint": {
                        "lat": -33.03932,
                        "lon": -71.62725
                    }
                },
                {
                    "facility": "MediTrial s.r.o.",
                    "status": "RECRUITING",
                    "city": "Jind?ich?v Hradec",
                    "zip": "377 01",
                    "country": "Czechia"
                },
                {
                    "facility": "Plicni Ambulance Kralupy nad Vltavou",
                    "status": "RECRUITING",
                    "city": "Kralupy nad Vltavou",
                    "zip": "278 01",
                    "country": "Czechia",
                    "geoPoint": {
                        "lat": 50.24107,
                        "lon": 14.31149
                    }
                },
                {
                    "facility": "KASMED s.r.o.",
                    "status": "RECRUITING",
                    "city": "Tabor",
                    "zip": "390 01",
                    "country": "Czechia",
                    "geoPoint": {
                        "lat": 49.41441,
                        "lon": 14.6578
                    }
                },
                {
                    "facility": "Aalborg Universitetshospital",
                    "status": "RECRUITING",
                    "city": "Aalborg",
                    "zip": "9100",
                    "country": "Denmark",
                    "geoPoint": {
                        "lat": 57.048,
                        "lon": 9.9187
                    }
                },
                {
                    "facility": "Gentofte Hospital",
                    "status": "RECRUITING",
                    "city": "Hellerup",
                    "zip": "2900",
                    "country": "Denmark",
                    "geoPoint": {
                        "lat": 55.73204,
                        "lon": 12.57093
                    }
                },
                {
                    "facility": "Hvidovre Hospital",
                    "status": "RECRUITING",
                    "city": "Hvidovre",
                    "zip": "DK-2650",
                    "country": "Denmark",
                    "geoPoint": {
                        "lat": 55.65719,
                        "lon": 12.47364
                    }
                },
                {
                    "facility": "H\u00f4pital de La Croix Rousse",
                    "status": "RECRUITING",
                    "city": "Lyon",
                    "zip": "69004",
                    "country": "France",
                    "geoPoint": {
                        "lat": 45.74848,
                        "lon": 4.84669
                    }
                },
                {
                    "facility": "Hopital Saint Joseph - Marseille",
                    "status": "RECRUITING",
                    "city": "Marseille",
                    "zip": "13008",
                    "country": "France",
                    "geoPoint": {
                        "lat": 43.29551,
                        "lon": 5.38958
                    }
                },
                {
                    "facility": "Hopital Pasteur II",
                    "status": "RECRUITING",
                    "city": "Nice",
                    "zip": "06001",
                    "country": "France",
                    "geoPoint": {
                        "lat": 43.70313,
                        "lon": 7.26608
                    }
                },
                {
                    "facility": "Zentrum fuer Pneumologie, Onkologie und Schlafmedizin am Diako",
                    "status": "RECRUITING",
                    "city": "Augsburg",
                    "zip": "86150",
                    "country": "Germany",
                    "geoPoint": {
                        "lat": 48.37154,
                        "lon": 10.89851
                    }
                },
                {
                    "facility": "Gemeinschaftspraxis fuer Herz und Lunge am Bruderw",
                    "status": "RECRUITING",
                    "city": "Bamberg",
                    "zip": "96049",
                    "country": "Germany",
                    "geoPoint": {
                        "lat": 49.89873,
                        "lon": 10.90067
                    }
                },
                {
                    "facility": "MECS Research GmbH",
                    "status": "RECRUITING",
                    "city": "Berlin",
                    "zip": "12203",
                    "country": "Germany",
                    "geoPoint": {
                        "lat": 52.52437,
                        "lon": 13.41053
                    }
                },
                {
                    "facility": "Clinical Studies Pankow",
                    "status": "RECRUITING",
                    "city": "Berlin",
                    "zip": "13187",
                    "country": "Germany",
                    "geoPoint": {
                        "lat": 52.52437,
                        "lon": 13.41053
                    }
                },
                {
                    "facility": "MVZ Jung GbR - Deggingen",
                    "status": "RECRUITING",
                    "city": "Deggingen",
                    "zip": "73326",
                    "country": "Germany",
                    "geoPoint": {
                        "lat": 48.5971,
                        "lon": 9.71891
                    }
                },
                {
                    "facility": "Medizentrum Essen Borbeck",
                    "status": "RECRUITING",
                    "city": "Essen",
                    "zip": "45355",
                    "country": "Germany",
                    "geoPoint": {
                        "lat": 51.45657,
                        "lon": 7.01228
                    }
                },
                {
                    "facility": "Praxis Dr med Claus Keller",
                    "status": "RECRUITING",
                    "city": "Frankfurt am Main",
                    "zip": "60389",
                    "country": "Germany",
                    "geoPoint": {
                        "lat": 50.11552,
                        "lon": 8.68417
                    }
                },
                {
                    "facility": "KPPK Studienzentrum Kroker-Schmidt",
                    "status": "RECRUITING",
                    "city": "Koblenz",
                    "zip": "56068",
                    "country": "Germany",
                    "geoPoint": {
                        "lat": 50.35357,
                        "lon": 7.57883
                    }
                },
                {
                    "facility": "Asklepios MVZ Bayern GmbH",
                    "status": "RECRUITING",
                    "city": "Landsberg",
                    "zip": "86899",
                    "country": "Germany",
                    "geoPoint": {
                        "lat": 51.52698,
                        "lon": 12.16076
                    }
                },
                {
                    "facility": "Salvus-Klinische Studien GmbH",
                    "status": "RECRUITING",
                    "city": "Leipzig",
                    "zip": "04207",
                    "country": "Germany",
                    "geoPoint": {
                        "lat": 51.33962,
                        "lon": 12.37129
                    }
                },
                {
                    "facility": "IKF Pneumologie Mainz",
                    "status": "RECRUITING",
                    "city": "Mainz",
                    "zip": "55128",
                    "country": "Germany",
                    "geoPoint": {
                        "lat": 49.98419,
                        "lon": 8.2791
                    }
                },
                {
                    "facility": "Praxis f\u00fcr Pneumologie Dr. Silke Mronga & Dr. Lukas Jerrentrup",
                    "status": "RECRUITING",
                    "city": "Marburg",
                    "zip": "35037",
                    "country": "Germany",
                    "geoPoint": {
                        "lat": 50.80904,
                        "lon": 8.77069
                    }
                },
                {
                    "facility": "Studienzentrum Dr Med Schlenska",
                    "status": "RECRUITING",
                    "city": "Peine",
                    "zip": "31224",
                    "country": "Germany",
                    "geoPoint": {
                        "lat": 52.31928,
                        "lon": 10.2352
                    }
                },
                {
                    "facility": "Barzilai Medical Center",
                    "status": "RECRUITING",
                    "city": "Ashkelon",
                    "zip": "7830604",
                    "country": "Israel",
                    "geoPoint": {
                        "lat": 31.66926,
                        "lon": 34.57149
                    }
                },
                {
                    "facility": "Shaare Zedek Medical Center",
                    "status": "RECRUITING",
                    "city": "Jerusalem",
                    "zip": "9103102",
                    "country": "Israel",
                    "geoPoint": {
                        "lat": 31.76904,
                        "lon": 35.21633
                    }
                },
                {
                    "facility": "Rabin Medical Center",
                    "status": "RECRUITING",
                    "city": "Petach Tiqwa",
                    "zip": "4941492",
                    "country": "Israel",
                    "geoPoint": {
                        "lat": 32.08707,
                        "lon": 34.88747
                    }
                },
                {
                    "facility": "Sheba Medical Center - PPDS",
                    "status": "RECRUITING",
                    "city": "Ramat Gan",
                    "zip": "5266202",
                    "country": "Israel",
                    "geoPoint": {
                        "lat": 32.08227,
                        "lon": 34.81065
                    }
                },
                {
                    "facility": "Kaplan Medical Center",
                    "status": "RECRUITING",
                    "city": "Rehovot",
                    "zip": "7610001",
                    "country": "Israel",
                    "geoPoint": {
                        "lat": 31.89421,
                        "lon": 34.81199
                    }
                },
                {
                    "facility": "Tel Aviv Sourasky Medical Center PPDS",
                    "status": "RECRUITING",
                    "city": "Tel Aviv-Yafo",
                    "zip": "6423906",
                    "country": "Israel",
                    "geoPoint": {
                        "lat": 32.08088,
                        "lon": 34.78057
                    }
                },
                {
                    "facility": "Catholic Univ. of Incheon St.Mary's Hospital",
                    "status": "RECRUITING",
                    "city": "Incheon",
                    "zip": "21431",
                    "country": "Korea, Republic of",
                    "geoPoint": {
                        "lat": 37.45646,
                        "lon": 126.70515
                    }
                },
                {
                    "facility": "Chonbuk National University Hospital",
                    "status": "RECRUITING",
                    "city": "Jeollabuk-do",
                    "zip": "54907",
                    "country": "Korea, Republic of"
                },
                {
                    "facility": "Korea University Anam Hospital",
                    "status": "RECRUITING",
                    "city": "Seoul",
                    "zip": "02841",
                    "country": "Korea, Republic of",
                    "geoPoint": {
                        "lat": 37.566,
                        "lon": 126.9784
                    }
                },
                {
                    "facility": "Konkuk University Medical Center",
                    "status": "RECRUITING",
                    "city": "Seoul",
                    "zip": "05030",
                    "country": "Korea, Republic of",
                    "geoPoint": {
                        "lat": 37.566,
                        "lon": 126.9784
                    }
                },
                {
                    "facility": "Centro de Investigacion y Atencion Integral Durango CIAID",
                    "status": "WITHDRAWN",
                    "city": "Victoria de Durango",
                    "state": "Durango",
                    "zip": "34080",
                    "country": "Mexico",
                    "geoPoint": {
                        "lat": 24.02032,
                        "lon": -104.65756
                    }
                },
                {
                    "facility": "CICUM San Miguel",
                    "status": "ACTIVE_NOT_RECRUITING",
                    "city": "Americana",
                    "state": "Jalisco",
                    "zip": "44160",
                    "country": "Mexico"
                },
                {
                    "facility": "Instituto Jalisciense de Investigacion Clinica S.A. de C.V.",
                    "status": "ACTIVE_NOT_RECRUITING",
                    "city": "Santa Cecilia",
                    "state": "Jalisco",
                    "zip": "44700",
                    "country": "Mexico"
                },
                {
                    "facility": "Unidad Medica de Occidente",
                    "status": "RECRUITING",
                    "city": "Santa Elena Alcalde",
                    "state": "Jalisco",
                    "zip": "44220",
                    "country": "Mexico"
                },
                {
                    "facility": "Unidad de Investigacion Clinica En Medicina (Udicem) S.C.",
                    "status": "RECRUITING",
                    "city": "Monterrey",
                    "state": "Nuevo LEON",
                    "zip": "64718",
                    "country": "Mexico",
                    "geoPoint": {
                        "lat": 25.67507,
                        "lon": -100.31847
                    }
                },
                {
                    "facility": "Amphia Ziekenhuis",
                    "status": "RECRUITING",
                    "city": "Breda",
                    "zip": "4818 CK",
                    "country": "Netherlands",
                    "geoPoint": {
                        "lat": 51.58656,
                        "lon": 4.77596
                    }
                },
                {
                    "facility": "Catharina Hospital; Apotheek",
                    "status": "RECRUITING",
                    "city": "Eindhoven",
                    "zip": "5623 EJ",
                    "country": "Netherlands",
                    "geoPoint": {
                        "lat": 51.44083,
                        "lon": 5.47778
                    }
                },
                {
                    "facility": "Dijklander Ziekenhuis - loc Hoorn",
                    "status": "RECRUITING",
                    "city": "Hoorn",
                    "zip": "1624 NP",
                    "country": "Netherlands",
                    "geoPoint": {
                        "lat": 52.6425,
                        "lon": 5.05978
                    }
                },
                {
                    "facility": "NZ Respiratory & Sleep Institute",
                    "status": "RECRUITING",
                    "city": "Auckland",
                    "zip": "1051",
                    "country": "New Zealand",
                    "geoPoint": {
                        "lat": -36.84853,
                        "lon": 174.76349
                    }
                },
                {
                    "facility": "Aotearoa Clinical Trials Trust",
                    "status": "RECRUITING",
                    "city": "Auckland",
                    "zip": "2025",
                    "country": "New Zealand",
                    "geoPoint": {
                        "lat": -36.84853,
                        "lon": 174.76349
                    }
                },
                {
                    "facility": "Canterbury Respiratory Research Group",
                    "status": "RECRUITING",
                    "city": "Christchurch",
                    "zip": "8011",
                    "country": "New Zealand",
                    "geoPoint": {
                        "lat": -43.53333,
                        "lon": 172.63333
                    }
                },
                {
                    "facility": "Centrum Medyczne Bydgoszcz- PRATIA - PPDS",
                    "status": "RECRUITING",
                    "city": "Bydgoszcz",
                    "zip": "85-796",
                    "country": "Poland",
                    "geoPoint": {
                        "lat": 53.1235,
                        "lon": 18.00762
                    }
                },
                {
                    "facility": "Indywidualna Specjalistyczna Praktyka Lekarska lek.",
                    "status": "RECRUITING",
                    "city": "Kielce",
                    "zip": "25-751",
                    "country": "Poland",
                    "geoPoint": {
                        "lat": 50.87033,
                        "lon": 20.62752
                    }
                },
                {
                    "facility": "Centrum Medyczne ALL-MED",
                    "status": "RECRUITING",
                    "city": "Krakow",
                    "zip": "30-033",
                    "country": "Poland",
                    "geoPoint": {
                        "lat": 50.06143,
                        "lon": 19.93658
                    }
                },
                {
                    "facility": "Diamond Clinic",
                    "status": "RECRUITING",
                    "city": "Krak\u00f3w",
                    "zip": "31-209",
                    "country": "Poland",
                    "geoPoint": {
                        "lat": 50.06143,
                        "lon": 19.93658
                    }
                },
                {
                    "facility": "Niepubliczny Zaklad Opieki Zdrowotnej Centrum Medyczne ProMiMed sp z o.o. sp.k.",
                    "status": "RECRUITING",
                    "city": "Krak\u00f3w",
                    "zip": "31-637",
                    "country": "Poland",
                    "geoPoint": {
                        "lat": 50.06143,
                        "lon": 19.93658
                    }
                },
                {
                    "facility": "ETG Lublin",
                    "status": "RECRUITING",
                    "city": "Lublin",
                    "zip": "20-412",
                    "country": "Poland",
                    "geoPoint": {
                        "lat": 51.25,
                        "lon": 22.56667
                    }
                },
                {
                    "facility": "ETG Lodz",
                    "status": "RECRUITING",
                    "city": "L\u00f3dz",
                    "zip": "90-302",
                    "country": "Poland",
                    "geoPoint": {
                        "lat": 51.75,
                        "lon": 19.46667
                    }
                },
                {
                    "facility": "Twoja Przychodnia Centrum Medyczne Nowa Sol",
                    "status": "RECRUITING",
                    "city": "Nowa S\u00f3l",
                    "zip": "67-100",
                    "country": "Poland",
                    "geoPoint": {
                        "lat": 51.80333,
                        "lon": 15.71702
                    }
                },
                {
                    "facility": "Ostrowieckie Centrum Medyczne Spolka Cywilna Anna Olec-Cudzik; Krzysztof Cudzik",
                    "status": "ACTIVE_NOT_RECRUITING",
                    "city": "Ostrowiec Swietokrzysk",
                    "zip": "27-400",
                    "country": "Poland"
                },
                {
                    "facility": "Centrum Alergologii Teresa Hofman",
                    "status": "RECRUITING",
                    "city": "Poznan",
                    "zip": "60-214",
                    "country": "Poland",
                    "geoPoint": {
                        "lat": 52.40692,
                        "lon": 16.92993
                    }
                },
                {
                    "facility": "EMED Centrum Uslug Medycznych Ewa Smialek",
                    "status": "RECRUITING",
                    "city": "Rzesz\u00f3w",
                    "zip": "35-205",
                    "country": "Poland",
                    "geoPoint": {
                        "lat": 50.04132,
                        "lon": 21.99901
                    }
                },
                {
                    "facility": "ETG Siedlce",
                    "status": "RECRUITING",
                    "city": "Siedlce",
                    "zip": "08-110",
                    "country": "Poland",
                    "geoPoint": {
                        "lat": 52.16772,
                        "lon": 22.29006
                    }
                },
                {
                    "facility": "PULMAG Grzegorz Gasior Marzena Kociolek Spolka Cywilna",
                    "status": "RECRUITING",
                    "city": "Sosnowiec",
                    "zip": "41-200",
                    "country": "Poland",
                    "geoPoint": {
                        "lat": 50.28682,
                        "lon": 19.10385
                    }
                },
                {
                    "facility": "ETG Neuroscience Sp. z o.o.",
                    "status": "WITHDRAWN",
                    "city": "Warszawa",
                    "zip": "02-677",
                    "country": "Poland",
                    "geoPoint": {
                        "lat": 52.22977,
                        "lon": 21.01178
                    }
                },
                {
                    "facility": "Dobrostan Gabinety Lekarskie",
                    "status": "RECRUITING",
                    "city": "Wroclaw",
                    "zip": "53-301",
                    "country": "Poland",
                    "geoPoint": {
                        "lat": 51.1,
                        "lon": 17.03333
                    }
                },
                {
                    "facility": "Neomed Out-Patient Treatment and Diagnosis Medical Center SRL",
                    "status": "RECRUITING",
                    "city": "Brasov",
                    "zip": "500283",
                    "country": "Romania",
                    "geoPoint": {
                        "lat": 45.64861,
                        "lon": 25.60613
                    }
                },
                {
                    "facility": "Dr. Victor Babes Foundation",
                    "status": "RECRUITING",
                    "city": "Bucharest",
                    "zip": "030301",
                    "country": "Romania",
                    "geoPoint": {
                        "lat": 44.43225,
                        "lon": 26.10626
                    }
                },
                {
                    "facility": "Leon Daniello Pneumophthisiology Clinical Hospital",
                    "status": "RECRUITING",
                    "city": "Cluj-Napoca",
                    "zip": "400371",
                    "country": "Romania",
                    "geoPoint": {
                        "lat": 46.76667,
                        "lon": 23.6
                    }
                },
                {
                    "facility": "Sf. Ioan cel Nou Emergency County Hospital",
                    "status": "ACTIVE_NOT_RECRUITING",
                    "city": "Suceava",
                    "zip": "720224",
                    "country": "Romania",
                    "geoPoint": {
                        "lat": 47.63333,
                        "lon": 26.25
                    }
                },
                {
                    "facility": "University of Cape Town Lung Institute; Lung Clinical Research",
                    "status": "RECRUITING",
                    "city": "Cape Town",
                    "zip": "7700",
                    "country": "South Africa",
                    "geoPoint": {
                        "lat": -33.92584,
                        "lon": 18.42322
                    }
                },
                {
                    "facility": "Clinical Trial Systems",
                    "status": "RECRUITING",
                    "city": "City Of Tshwane",
                    "zip": "0186",
                    "country": "South Africa"
                },
                {
                    "facility": "Dr A.C Wilhase practice-Reimed",
                    "status": "RECRUITING",
                    "city": "Ekurhuleni",
                    "zip": "1459",
                    "country": "South Africa"
                },
                {
                    "facility": "Lakeview Hospital",
                    "status": "RECRUITING",
                    "city": "Ekurhuleni",
                    "zip": "1501",
                    "country": "South Africa"
                },
                {
                    "facility": "Langeberg Clinical Trials",
                    "status": "RECRUITING",
                    "city": "Kraaifontein",
                    "zip": "7570",
                    "country": "South Africa",
                    "geoPoint": {
                        "lat": -33.84808,
                        "lon": 18.71723
                    }
                },
                {
                    "facility": "Hospital de Merida",
                    "status": "RECRUITING",
                    "city": "Merida",
                    "state": "Badajoz",
                    "zip": "06800",
                    "country": "Spain",
                    "geoPoint": {
                        "lat": 38.91611,
                        "lon": -6.34366
                    }
                },
                {
                    "facility": "Hospital Universitario Marques de Valdecilla",
                    "status": "RECRUITING",
                    "city": "Santander",
                    "state": "Cantabria",
                    "zip": "39008",
                    "country": "Spain",
                    "geoPoint": {
                        "lat": 43.46472,
                        "lon": -3.80444
                    }
                },
                {
                    "facility": "CHUS H Clinico U de Santiago",
                    "status": "RECRUITING",
                    "city": "Santiago de Compostela",
                    "state": "LA Coru\u00f1a",
                    "zip": "15706",
                    "country": "Spain",
                    "geoPoint": {
                        "lat": 42.88052,
                        "lon": -8.54569
                    }
                },
                {
                    "facility": "Hospital de San Pedro de Alcantara",
                    "status": "WITHDRAWN",
                    "city": "Caceres",
                    "zip": "10003",
                    "country": "Spain",
                    "geoPoint": {
                        "lat": 39.47649,
                        "lon": -6.37224
                    }
                },
                {
                    "facility": "Hospital Universitario Virgen de Las Nieves",
                    "status": "RECRUITING",
                    "city": "Granada",
                    "zip": "18014",
                    "country": "Spain",
                    "geoPoint": {
                        "lat": 37.18817,
                        "lon": -3.60667
                    }
                },
                {
                    "facility": "Hospital Clinico San Carlos",
                    "status": "WITHDRAWN",
                    "city": "Madrid",
                    "zip": "28040",
                    "country": "Spain",
                    "geoPoint": {
                        "lat": 40.4165,
                        "lon": -3.70256
                    }
                },
                {
                    "facility": "Hospital General Universitario Gregorio Maranon",
                    "status": "RECRUITING",
                    "city": "Madrid",
                    "zip": "28040",
                    "country": "Spain",
                    "geoPoint": {
                        "lat": 40.4165,
                        "lon": -3.70256
                    }
                },
                {
                    "facility": "Hospital Universitario Fundacion Jimenez Diaz.",
                    "status": "RECRUITING",
                    "city": "Madrid",
                    "zip": "28040",
                    "country": "Spain",
                    "geoPoint": {
                        "lat": 40.4165,
                        "lon": -3.70256
                    }
                },
                {
                    "facility": "Hospital Universitario Virgen de la Victoria",
                    "status": "RECRUITING",
                    "city": "Malaga",
                    "zip": "29010",
                    "country": "Spain",
                    "geoPoint": {
                        "lat": 36.72016,
                        "lon": -4.42034
                    }
                },
                {
                    "facility": "Fysikalisk Medicin i Stockholm AB",
                    "status": "RECRUITING",
                    "city": "Liding\u00f6",
                    "zip": "181 61",
                    "country": "Sweden",
                    "geoPoint": {
                        "lat": 59.36667,
                        "lon": 18.13333
                    }
                },
                {
                    "facility": "PharmaSite",
                    "status": "RECRUITING",
                    "city": "Malm\u00f6",
                    "zip": "211 52",
                    "country": "Sweden",
                    "geoPoint": {
                        "lat": 55.60587,
                        "lon": 13.00073
                    }
                },
                {
                    "facility": "ProbarE i Stockholm AB",
                    "status": "RECRUITING",
                    "city": "Stockholm",
                    "zip": "SE-17145",
                    "country": "Sweden",
                    "geoPoint": {
                        "lat": 59.33258,
                        "lon": 18.0649
                    }
                },
                {
                    "facility": "Bradford Royal Infirmary",
                    "status": "RECRUITING",
                    "city": "Bradford",
                    "zip": "BD9 6RJ",
                    "country": "United Kingdom",
                    "geoPoint": {
                        "lat": 53.79391,
                        "lon": -1.75206
                    }
                },
                {
                    "facility": "Glenfield Hospital",
                    "status": "RECRUITING",
                    "city": "Leicester",
                    "zip": "LE3 9QP",
                    "country": "United Kingdom",
                    "geoPoint": {
                        "lat": 52.6386,
                        "lon": -1.13169
                    }
                }
            ]
        },
        "ipdSharingStatementModule": {
            "ipdSharing": "YES",
            "description": "Qualified researchers may request access to individual patient level data through the clinical study data request platform (www.vivli.org). Further details on Roche's criteria for eligible studies are available here (https://vivli.org/ourmember/roche/). For further details on Roche's Global Policy on the Sharing of Clinical Information and how to request access to related clinical study documents, see here (https://www.roche.com/research_and_development/who_we_are_how_we_work/clinical_trials/our_commitment_to_data_sharing.htm)."
        }
    },
    "derivedSection": {
        "miscInfoModule": {
            "versionHolder": "2024-07-30"
        },
        "conditionBrowseModule": {
            "meshes": [
                {
                    "id": "D000008171",
                    "term": "Lung Diseases"
                },
                {
                    "id": "D000008173",
                    "term": "Lung Diseases, Obstructive"
                },
                {
                    "id": "D000029424",
                    "term": "Pulmonary Disease, Chronic Obstructive"
                }
            ],
            "ancestors": [
                {
                    "id": "D000012140",
                    "term": "Respiratory Tract Diseases"
                },
                {
                    "id": "D000002908",
                    "term": "Chronic Disease"
                },
                {
                    "id": "D000020969",
                    "term": "Disease Attributes"
                },
                {
                    "id": "D000010335",
                    "term": "Pathologic Processes"
                }
            ],
            "browseLeaves": [
                {
                    "id": "M11168",
                    "name": "Lung Diseases",
                    "asFound": "Pulmonary Disease",
                    "relevance": "HIGH"
                },
                {
                    "id": "M11170",
                    "name": "Lung Diseases, Obstructive",
                    "asFound": "Obstructive Pulmonary Disease",
                    "relevance": "HIGH"
                },
                {
                    "id": "M23449",
                    "name": "Pulmonary Disease, Chronic Obstructive",
                    "asFound": "Chronic Obstructive Pulmonary Disease",
                    "relevance": "HIGH"
                },
                {
                    "id": "M14977",
                    "name": "Respiratory Tract Diseases",
                    "relevance": "LOW"
                },
                {
                    "id": "M6147",
                    "name": "Chronic Disease",
                    "relevance": "LOW"
                },
                {
                    "id": "M22700",
                    "name": "Disease Attributes",
                    "relevance": "LOW"
                },
                {
                    "id": "T1303",
                    "name": "Chronic Graft Versus Host Disease",
                    "asFound": "Chronic",
                    "relevance": "HIGH"
                }
            ],
            "browseBranches": [
                {
                    "abbrev": "BC08",
                    "name": "Respiratory Tract (Lung and Bronchial) Diseases"
                },
                {
                    "abbrev": "All",
                    "name": "All Conditions"
                },
                {
                    "abbrev": "BC23",
                    "name": "Symptoms and General Pathology"
                },
                {
                    "abbrev": "Rare",
                    "name": "Rare Diseases"
                }
            ]
        },
        "interventionBrowseModule": {
            "meshes": [
                {
                    "id": "C000711667",
                    "term": "Astegolimab"
                }
            ],
            "ancestors": [
                {
                    "id": "D000079424",
                    "term": "Tumor Necrosis Factor Inhibitors"
                },
                {
                    "id": "D000000893",
                    "term": "Anti-Inflammatory Agents"
                },
                {
                    "id": "D000000998",
                    "term": "Antiviral Agents"
                },
                {
                    "id": "D000000890",
                    "term": "Anti-Infective Agents"
                }
            ],
            "browseLeaves": [
                {
                    "id": "M340778",
                    "name": "Astegolimab",
                    "asFound": "Full weight bearing",
                    "relevance": "HIGH"
                },
                {
                    "id": "M2052",
                    "name": "Tumor Necrosis Factor Inhibitors",
                    "relevance": "LOW"
                },
                {
                    "id": "M4217",
                    "name": "Anti-Inflammatory Agents",
                    "relevance": "LOW"
                },
                {
                    "id": "M4314",
                    "name": "Antiviral Agents",
                    "relevance": "LOW"
                },
                {
                    "id": "M4214",
                    "name": "Anti-Infective Agents",
                    "relevance": "LOW"
                }
            ],
            "browseBranches": [
                {
                    "abbrev": "Infe",
                    "name": "Anti-Infective Agents"
                },
                {
                    "abbrev": "Infl",
                    "name": "Anti-Inflammatory Agents"
                },
                {
                    "abbrev": "All",
                    "name": "All Drugs and Chemicals"
                }
            ]
        }
    },
    "hasResults": false
}