{
    "protocolSection": {
        "identificationModule": {
            "nctId": "NCT05926349",
            "orgStudyIdInfo": {
                "id": "D9604C00001"
            },
            "organization": {
                "fullName": "AstraZeneca",
                "class": "INDUSTRY"
            },
            "briefTitle": "A Study of Andexanet Alfa in Patients Requiring Urgent Surgery or Procedure",
            "officialTitle": "A Randomized Study of Andexanet Alfa Compared to Usual Care in Patients Receiving a Factor Xa Inhibitor Who Require Urgent Surgery or Procedure (ANNEXA-RS)",
            "acronym": "ANNEXA-RS",
            "therapeuticArea": [
                "Other"
            ],
            "study": "a-study-of-andexanet-alfa-in-patients-requiring-urgent-surgery-or-procedure"
        },
        "statusModule": {
            "statusVerifiedDate": "2023-09",
            "overallStatus": "NOT_YET_RECRUITING",
            "expandedAccessInfo": {
                "hasExpandedAccess": false
            },
            "startDateStruct": {
                "date": "2023-10-20",
                "type": "ESTIMATED"
            },
            "primaryCompletionDateStruct": {
                "date": "2026-11-24",
                "type": "ESTIMATED"
            },
            "completionDateStruct": {
                "date": "2026-11-24",
                "type": "ESTIMATED"
            },
            "studyFirstSubmitDate": "2023-06-09",
            "studyFirstSubmitQcDate": "2023-06-21",
            "studyFirstPostDateStruct": {
                "date": "2023-07-03",
                "type": "ACTUAL"
            },
            "lastUpdateSubmitDate": "2023-09-06",
            "lastUpdatePostDateStruct": {
                "date": "2023-09-07",
                "type": "ACTUAL"
            }
        },
        "sponsorCollaboratorsModule": {
            "responsibleParty": {
                "type": "SPONSOR"
            },
            "leadSponsor": {
                "name": "AstraZeneca",
                "class": "INDUSTRY"
            }
        },
        "oversightModule": {
            "oversightHasDmc": true,
            "isFdaRegulatedDrug": true,
            "isFdaRegulatedDevice": false
        },
        "descriptionModule": {
            "briefSummary": "The study will aim to find out if the drug andexanet alfa is safe and effective in preventing major bleeding during urgent surgery or invasive procedures. The study will compare the use of andexanet alfa to the usual care given at the study center.",
            "detailedDescription": "This study will be an open-label, randomised, controlled, prospective, multicenter study. The study will include patients requiring urgent surgery or procedure that needs to be performed within 15 hours of the last dose of blood-thinning drug (direct oral activated Factor X (FXa) inhibitor).\n\nThe study will comprise of the following periods:\n\n* Screening, followed by surgery or procedure and study intervention.\n* Follow-up period: there will be four follow-up visits over a duration of approximately 30 days.\n* Follow-up visit for patients with positive anti-andexanet alfa antibody test: patients with a positive anti-andexanet alfa antibody response at day 30 will have a follow-up anti-andexanet alfa antibody test approximately 120 days post-surgery or procedure.\n\nPatients will be randomised in the ratio of 1:1 to receive either andexanet alfa or usual care."
        },
        "conditionsModule": {
            "conditions": [
                "Urgent Surgery"
            ],
            "keywords": [
                "Andexanet alfa",
                "Blood Thinners"
            ]
        },
        "designModule": {
            "studyType": "INTERVENTIONAL",
            "phases": [
                "PHASE3"
            ],
            "designInfo": {
                "allocation": "RANDOMIZED",
                "interventionModel": "PARALLEL",
                "primaryPurpose": "TREATMENT",
                "maskingInfo": {
                    "masking": "NONE"
                }
            },
            "enrollmentInfo": {
                "count": 800,
                "type": "ESTIMATED"
            }
        },
        "armsInterventionsModule": {
            "armGroups": [
                {
                    "label": "Andexanet Alfa Group",
                    "type": "EXPERIMENTAL",
                    "description": "Patients will receive andexanet alfa as IV bolus followed by an infusion.",
                    "interventionNames": [
                        "Drug: Andexanet alfa"
                    ]
                },
                {
                    "label": "Usual Care Group",
                    "type": "ACTIVE_COMPARATOR",
                    "description": "Patients will receive treatment based on the Investigator's discretion, according to regional, local/institutional guidelines or practices.",
                    "interventionNames": [
                        "Drug: Usual Care"
                    ]
                }
            ],
            "interventions": [
                {
                    "type": "DRUG",
                    "name": "Andexanet alfa",
                    "description": "Andexanet is a recombinant version of human FXa",
                    "armGroupLabels": [
                        "Andexanet Alfa Group"
                    ],
                    "otherNames": [
                        "Andexxa\u00ae, Ondexxya\u00ae"
                    ]
                },
                {
                    "type": "DRUG",
                    "name": "Usual Care",
                    "description": "As per the label of the chosen usual care product(s) and/or usual care standards.",
                    "armGroupLabels": [
                        "Usual Care Group"
                    ]
                }
            ]
        },
        "outcomesModule": {
            "primaryOutcomes": [
                {
                    "measure": "Number of patients achieving effective intraoperative hemostasis",
                    "description": "Intraoperative hemostasis will be assessed according to the categories as per 4-point hemostasis scale: Excellent - Normal hemostasis, Good - Mildly abnormal hemostasis (eg. slight oozing from surgical wounds), Moderate - Moderate abnormality in intraprocedural hemostasis (eg. controllable bleeding), Poor - Severe hemostatic abnormality (eg. severe refractory hemorrhage). Hemostasis will be considered to be effective if the intraoperative hemostasis category is 'excellent' or 'good', and ineffective if the intraoperative hemostasis category is 'moderate' or 'poor'.",
                    "timeFrame": "From start to the end of surgery or procedure on Day 0"
                }
            ],
            "secondaryOutcomes": [
                {
                    "measure": "Change from Baseline in anti-FXa activity measured through blood samples",
                    "description": "The ability of andexanet alfa to rapidly reverse the anticoagulation effect of FXa inhibitors by reduction of anti-FXa activity when compared to usual care.",
                    "timeFrame": "Baseline to start of surgery or procedure"
                },
                {
                    "measure": "Change from Baseline in anti-FXa activity measured through blood samples",
                    "description": "The ability of andexanet alfa to sustainably reverse the anticoagulation effect of FXa inhibitors by reduction of anti-FXa activity when compared to usual care at two hours post start of surgery or procedure will be assessed.",
                    "timeFrame": "Baseline to two hours post start of surgery or procedure"
                }
            ],
            "otherOutcomes": [
                {
                    "measure": "Number of patients with adverse events",
                    "description": "Safety and tolerability will be evaluated in terms of adverse events and serious adverse events.",
                    "timeFrame": "Screening (Day -1 to Day 0) until follow-up visit (Day 30 or Day 120)"
                }
            ]
        },
        "eligibilityModule": {
            "eligibilityCriteria": "Inclusion Criteria:\n\n* The patient requires, in the opinion of the Investigator, urgent surgery or procedure and requires reversal of direct oral FXa inhibition.\n* The patient requires urgent surgery or procedure within 12 hours of informed consent.\n* The patient requires urgent surgery or procedure that is expected to be associated with a high risk of bleeding or bleeding to occur into a critical organ.\n* The patient has taken an oral FXa inhibitor (such as apixaban, rivaroxaban, or edoxaban) within 15 hours or more, prior to start of surgery or procedure.\n* Female patients of childbearing potential must have a negative pregnancy test at Screening.\n* Willingness to use highly effective methods of contraception (for male and female patients who are fertile).\n\nExclusion Criteria:\n\n* The patient requires surgeries or procedures that have a very low chance of causing significant, uncontrollable bleeding, such as small skin procedures, cataract surgery, and minor dental procedures.\n* The patient has acute life-threatening bleeding at the time of Screening.\n* The patient will undergo a surgery or procedure which will require the use of heparin.\n* Patient who is not expected to live for more than three months due to other health problems or has specifically requested not to be resuscitated if their heart stops beating.\n* Prior to screening, the patient had either experienced low platelet count due to heparin use with or without blood clots or had a genetic condition that affects blood clotting.\n* Patient has acute decompensated heart failure, cardiogenic shock, sepsis, or septic shock at the time of Screening.\n* Patient has history of heparin-induced thrombocytopenia (with or without thrombosis) or inherited coagulopathy (eg, anti-thrombin III deficiency, anti-phospholipid antibody syndrome, protein C/S deficiency, Factor V Leiden) at the time of Screening.\n* Previously diagnosed with a bleeding disorder (eg, platelet function disorder, hemophilia, Von Willebrand disease, or coagulation factor deficiency).\n* Prior known hypersensitivity to andexanet alfa.\n* Use of andexanet alfa 30 days prior to Screening.\n* Patient diagnosed with dementia.\n* Any prohibited medication as determined in the study.",
            "healthyVolunteers": false,
            "sex": "ALL",
            "minimumAge": "18 Years",
            "maximumAge": "130 Years",
            "stdAges": [
                "ADULT",
                "OLDER_ADULT"
            ]
        },
        "contactsLocationsModule": {
            "centralContacts": [
                {
                    "name": "AstraZeneca Clinical Study Information Center",
                    "role": "CONTACT",
                    "phone": "1-877-240-9479",
                    "email": "information.center@astrazeneca.com"
                }
            ],
            "locations": [
                {
                    "facility": "Research Site",
                    "city": "Chandler",
                    "state": "Arizona",
                    "zip": "85224",
                    "country": "United States",
                    "geoPoint": {
                        "lat": 33.30616,
                        "lon": -111.84125
                    }
                },
                {
                    "facility": "Research Site",
                    "city": "Aurora",
                    "state": "Colorado",
                    "zip": "80012",
                    "country": "United States",
                    "geoPoint": {
                        "lat": 39.72943,
                        "lon": -104.83192
                    }
                },
                {
                    "facility": "Research Site",
                    "city": "Washington",
                    "state": "District of Columbia",
                    "zip": "20010",
                    "country": "United States",
                    "geoPoint": {
                        "lat": 38.89511,
                        "lon": -77.03637
                    }
                },
                {
                    "facility": "Research Site",
                    "city": "Jacksonville",
                    "state": "Florida",
                    "zip": "32209",
                    "country": "United States",
                    "geoPoint": {
                        "lat": 30.33218,
                        "lon": -81.65565
                    }
                },
                {
                    "facility": "Research Site",
                    "city": "Saint Cloud",
                    "state": "Florida",
                    "zip": "34769",
                    "country": "United States",
                    "geoPoint": {
                        "lat": 28.2489,
                        "lon": -81.28118
                    }
                },
                {
                    "facility": "Research Site",
                    "city": "Columbus",
                    "state": "Ohio",
                    "zip": "43210",
                    "country": "United States",
                    "geoPoint": {
                        "lat": 39.96118,
                        "lon": -82.99879
                    }
                },
                {
                    "facility": "Research Site",
                    "city": "Tulsa",
                    "state": "Oklahoma",
                    "zip": "74104",
                    "country": "United States",
                    "geoPoint": {
                        "lat": 36.15398,
                        "lon": -95.99277
                    }
                },
                {
                    "facility": "Research Site",
                    "city": "Knoxville",
                    "state": "Tennessee",
                    "zip": "37920",
                    "country": "United States",
                    "geoPoint": {
                        "lat": 35.96064,
                        "lon": -83.92074
                    }
                },
                {
                    "facility": "Research Site",
                    "city": "Buenos Aires",
                    "zip": "1425",
                    "country": "Argentina",
                    "geoPoint": {
                        "lat": -34.61315,
                        "lon": -58.37723
                    }
                },
                {
                    "facility": "Research Site",
                    "city": "C\u00f3rdoba",
                    "zip": "X5000AOQ",
                    "country": "Argentina",
                    "geoPoint": {
                        "lat": -31.4135,
                        "lon": -64.18105
                    }
                },
                {
                    "facility": "Research Site",
                    "city": "Mar del Plata",
                    "zip": "B7602CBM",
                    "country": "Argentina",
                    "geoPoint": {
                        "lat": -38.00228,
                        "lon": -57.55754
                    }
                },
                {
                    "facility": "Research Site",
                    "city": "Quilmes",
                    "zip": "B1878GEG",
                    "country": "Argentina",
                    "geoPoint": {
                        "lat": -34.72904,
                        "lon": -58.26374
                    }
                },
                {
                    "facility": "Research Site",
                    "city": "Adelaide",
                    "zip": "5000",
                    "country": "Australia",
                    "geoPoint": {
                        "lat": -34.92866,
                        "lon": 138.59863
                    }
                },
                {
                    "facility": "Research Site",
                    "city": "Concord",
                    "zip": "2139",
                    "country": "Australia",
                    "geoPoint": {
                        "lat": -33.84722,
                        "lon": 151.10381
                    }
                },
                {
                    "facility": "Research Site",
                    "city": "Epping",
                    "zip": "3076",
                    "country": "Australia",
                    "geoPoint": {
                        "lat": -37.65,
                        "lon": 145.03333
                    }
                },
                {
                    "facility": "Research Site",
                    "city": "Fitzroy",
                    "zip": "3065",
                    "country": "Australia",
                    "geoPoint": {
                        "lat": -37.79839,
                        "lon": 144.97833
                    }
                },
                {
                    "facility": "Research Site",
                    "city": "Garran",
                    "zip": "2605",
                    "country": "Australia",
                    "geoPoint": {
                        "lat": -35.34206,
                        "lon": 149.10846
                    }
                },
                {
                    "facility": "Research Site",
                    "city": "Melbourne",
                    "zip": "3004",
                    "country": "Australia",
                    "geoPoint": {
                        "lat": -37.814,
                        "lon": 144.96332
                    }
                },
                {
                    "facility": "Research Site",
                    "city": "New Lambton Heights",
                    "zip": "2305",
                    "country": "Australia",
                    "geoPoint": {
                        "lat": -32.92466,
                        "lon": 151.69364
                    }
                },
                {
                    "facility": "Research Site",
                    "city": "Sydney",
                    "zip": "NSW 2145",
                    "country": "Australia",
                    "geoPoint": {
                        "lat": -33.86785,
                        "lon": 151.20732
                    }
                },
                {
                    "facility": "Research Site",
                    "city": "Graz",
                    "zip": "8036",
                    "country": "Austria",
                    "geoPoint": {
                        "lat": 47.06667,
                        "lon": 15.45
                    }
                },
                {
                    "facility": "Research Site",
                    "city": "Aalst",
                    "zip": "9300",
                    "country": "Belgium",
                    "geoPoint": {
                        "lat": 50.93604,
                        "lon": 4.0355
                    }
                },
                {
                    "facility": "Research Site",
                    "city": "Ghent",
                    "zip": "9000",
                    "country": "Belgium",
                    "geoPoint": {
                        "lat": 51.05,
                        "lon": 3.71667
                    }
                },
                {
                    "facility": "Research Site",
                    "city": "Kortrijk",
                    "zip": "8500",
                    "country": "Belgium",
                    "geoPoint": {
                        "lat": 50.82803,
                        "lon": 3.26487
                    }
                },
                {
                    "facility": "Research Site",
                    "city": "Leuven",
                    "zip": "3000",
                    "country": "Belgium",
                    "geoPoint": {
                        "lat": 50.87959,
                        "lon": 4.70093
                    }
                },
                {
                    "facility": "Research Site",
                    "city": "Florianopolis",
                    "zip": "88015-231",
                    "country": "Brazil",
                    "geoPoint": {
                        "lat": -27.59667,
                        "lon": -48.54917
                    }
                },
                {
                    "facility": "Research Site",
                    "city": "Ribeir\u00e3o Preto",
                    "zip": "14048-900",
                    "country": "Brazil",
                    "geoPoint": {
                        "lat": -21.1775,
                        "lon": -47.81028
                    }
                },
                {
                    "facility": "Research Site",
                    "city": "Salvador",
                    "zip": "40170-130",
                    "country": "Brazil",
                    "geoPoint": {
                        "lat": -12.97111,
                        "lon": -38.51083
                    }
                },
                {
                    "facility": "Research Site",
                    "city": "Sao Paulo",
                    "zip": "05403-000",
                    "country": "Brazil",
                    "geoPoint": {
                        "lat": -23.5475,
                        "lon": -46.63611
                    }
                },
                {
                    "facility": "Research Site",
                    "city": "Lom",
                    "zip": "3600",
                    "country": "Bulgaria",
                    "geoPoint": {
                        "lat": 43.81389,
                        "lon": 23.23611
                    }
                },
                {
                    "facility": "Research Site",
                    "city": "Plovdiv",
                    "zip": "4002",
                    "country": "Bulgaria",
                    "geoPoint": {
                        "lat": 42.15,
                        "lon": 24.75
                    }
                },
                {
                    "facility": "Research Site",
                    "city": "Sofia",
                    "zip": "1336",
                    "country": "Bulgaria",
                    "geoPoint": {
                        "lat": 42.69751,
                        "lon": 23.32415
                    }
                },
                {
                    "facility": "Research Site",
                    "city": "Sofia",
                    "zip": "1431",
                    "country": "Bulgaria",
                    "geoPoint": {
                        "lat": 42.69751,
                        "lon": 23.32415
                    }
                },
                {
                    "facility": "Research Site",
                    "city": "Sofia",
                    "zip": "1527",
                    "country": "Bulgaria",
                    "geoPoint": {
                        "lat": 42.69751,
                        "lon": 23.32415
                    }
                },
                {
                    "facility": "Research Site",
                    "city": "Sofia",
                    "zip": "1606",
                    "country": "Bulgaria",
                    "geoPoint": {
                        "lat": 42.69751,
                        "lon": 23.32415
                    }
                },
                {
                    "facility": "Research Site",
                    "city": "Montreal",
                    "state": "Quebec",
                    "zip": "H1T 2M4",
                    "country": "Canada",
                    "geoPoint": {
                        "lat": 45.50884,
                        "lon": -73.58781
                    }
                },
                {
                    "facility": "Research Site",
                    "city": "Beijing",
                    "zip": "100037",
                    "country": "China",
                    "geoPoint": {
                        "lat": 39.9075,
                        "lon": 116.39723
                    }
                },
                {
                    "facility": "Research Site",
                    "city": "Beijing",
                    "zip": "100044",
                    "country": "China",
                    "geoPoint": {
                        "lat": 39.9075,
                        "lon": 116.39723
                    }
                },
                {
                    "facility": "Research Site",
                    "city": "Haerbin",
                    "zip": "150001",
                    "country": "China",
                    "geoPoint": {
                        "lat": 31.8696,
                        "lon": 101.742
                    }
                },
                {
                    "facility": "Research Site",
                    "city": "Hangzhou",
                    "zip": "310014",
                    "country": "China",
                    "geoPoint": {
                        "lat": 30.29365,
                        "lon": 120.16142
                    }
                },
                {
                    "facility": "Research Site",
                    "city": "Wuhan",
                    "zip": "430060",
                    "country": "China",
                    "geoPoint": {
                        "lat": 30.58333,
                        "lon": 114.26667
                    }
                },
                {
                    "facility": "Research Site",
                    "city": "Brno",
                    "zip": "625 00",
                    "country": "Czechia",
                    "geoPoint": {
                        "lat": 49.19522,
                        "lon": 16.60796
                    }
                },
                {
                    "facility": "Research Site",
                    "city": "Prague",
                    "zip": "12808",
                    "country": "Czechia",
                    "geoPoint": {
                        "lat": 50.08804,
                        "lon": 14.42076
                    }
                },
                {
                    "facility": "Research Site",
                    "city": "Praha 10",
                    "zip": "10034",
                    "country": "Czechia",
                    "geoPoint": {
                        "lat": 50.08804,
                        "lon": 14.42076
                    }
                },
                {
                    "facility": "Research Site",
                    "city": "Usti nad Labem",
                    "zip": "40113",
                    "country": "Czechia",
                    "geoPoint": {
                        "lat": 50.6607,
                        "lon": 14.03227
                    }
                },
                {
                    "facility": "Research Site",
                    "city": "K\u00f8benhavn NV",
                    "zip": "2400",
                    "country": "Denmark",
                    "geoPoint": {
                        "lat": 55.67594,
                        "lon": 12.56553
                    }
                },
                {
                    "facility": "Research Site",
                    "city": "Tallinn",
                    "zip": "13419",
                    "country": "Estonia",
                    "geoPoint": {
                        "lat": 59.43696,
                        "lon": 24.75353
                    }
                },
                {
                    "facility": "Research Site",
                    "city": "Helsinki",
                    "zip": "00290",
                    "country": "Finland",
                    "geoPoint": {
                        "lat": 60.16952,
                        "lon": 24.93545
                    }
                },
                {
                    "facility": "Research Site",
                    "city": "Tampere",
                    "zip": "FI-33521",
                    "country": "Finland",
                    "geoPoint": {
                        "lat": 61.49911,
                        "lon": 23.78712
                    }
                },
                {
                    "facility": "Research Site",
                    "city": "Nantes cedex 1",
                    "zip": "44093",
                    "country": "France",
                    "geoPoint": {
                        "lat": 47.21725,
                        "lon": -1.55336
                    }
                },
                {
                    "facility": "Research Site",
                    "city": "Nimes",
                    "zip": "30006 Cedex 4",
                    "country": "France",
                    "geoPoint": {
                        "lat": 43.83333,
                        "lon": 4.35
                    }
                },
                {
                    "facility": "Research Site",
                    "city": "Tbilisi",
                    "zip": "0112",
                    "country": "Georgia",
                    "geoPoint": {
                        "lat": 41.69411,
                        "lon": 44.83368
                    }
                },
                {
                    "facility": "Research Site",
                    "city": "Tbilisi",
                    "zip": "0159",
                    "country": "Georgia",
                    "geoPoint": {
                        "lat": 41.69411,
                        "lon": 44.83368
                    }
                },
                {
                    "facility": "Research Site",
                    "city": "Aachen",
                    "zip": "52074",
                    "country": "Germany",
                    "geoPoint": {
                        "lat": 50.77664,
                        "lon": 6.08342
                    }
                },
                {
                    "facility": "Research Site",
                    "city": "Dresden",
                    "zip": "01307",
                    "country": "Germany",
                    "geoPoint": {
                        "lat": 51.05089,
                        "lon": 13.73832
                    }
                },
                {
                    "facility": "Research Site",
                    "city": "L\u00fcbeck",
                    "zip": "23538",
                    "country": "Germany",
                    "geoPoint": {
                        "lat": 53.86893,
                        "lon": 10.68729
                    }
                },
                {
                    "facility": "Research Site",
                    "city": "Mainz",
                    "zip": "55131",
                    "country": "Germany",
                    "geoPoint": {
                        "lat": 49.98419,
                        "lon": 8.2791
                    }
                },
                {
                    "facility": "Research Site",
                    "city": "Murnau",
                    "zip": "82418",
                    "country": "Germany"
                },
                {
                    "facility": "Research Site",
                    "city": "Rostock",
                    "zip": "18057",
                    "country": "Germany",
                    "geoPoint": {
                        "lat": 54.0887,
                        "lon": 12.14049
                    }
                },
                {
                    "facility": "Research Site",
                    "city": "Athens",
                    "zip": "15126",
                    "country": "Greece",
                    "geoPoint": {
                        "lat": 37.97945,
                        "lon": 23.71622
                    }
                },
                {
                    "facility": "Research Site",
                    "city": "Thessaloniki",
                    "zip": "54642",
                    "country": "Greece",
                    "geoPoint": {
                        "lat": 40.64361,
                        "lon": 22.93086
                    }
                },
                {
                    "facility": "Research Site",
                    "city": "Budapest",
                    "zip": "1083",
                    "country": "Hungary",
                    "geoPoint": {
                        "lat": 47.49801,
                        "lon": 19.03991
                    }
                },
                {
                    "facility": "Research Site",
                    "city": "P\u00e9cs",
                    "zip": "7624",
                    "country": "Hungary",
                    "geoPoint": {
                        "lat": 46.08333,
                        "lon": 18.23333
                    }
                },
                {
                    "facility": "Research Site",
                    "city": "Sz\u00e9kesfeh\u00e9rv\u00e1r",
                    "zip": "8000",
                    "country": "Hungary",
                    "geoPoint": {
                        "lat": 47.18995,
                        "lon": 18.41034
                    }
                },
                {
                    "facility": "Research Site",
                    "city": "Zalaegerszeg",
                    "zip": "8900",
                    "country": "Hungary",
                    "geoPoint": {
                        "lat": 46.84,
                        "lon": 16.84389
                    }
                },
                {
                    "facility": "Research Site",
                    "city": "Ashdod",
                    "zip": "7747629",
                    "country": "Israel",
                    "geoPoint": {
                        "lat": 31.79211,
                        "lon": 34.64967
                    }
                },
                {
                    "facility": "Research Site",
                    "city": "Jerusalem",
                    "zip": "91031",
                    "country": "Israel",
                    "geoPoint": {
                        "lat": 31.76904,
                        "lon": 35.21633
                    }
                },
                {
                    "facility": "Research Site",
                    "city": "Petah Tikva",
                    "zip": "49372",
                    "country": "Israel",
                    "geoPoint": {
                        "lat": 32.08707,
                        "lon": 34.88747
                    }
                },
                {
                    "facility": "Research Site",
                    "city": "Tel-Aviv",
                    "zip": "6423906",
                    "country": "Israel",
                    "geoPoint": {
                        "lat": 32.08088,
                        "lon": 34.78057
                    }
                },
                {
                    "facility": "Research Site",
                    "city": "Alessandria",
                    "zip": "15100",
                    "country": "Italy",
                    "geoPoint": {
                        "lat": 44.90924,
                        "lon": 8.61007
                    }
                },
                {
                    "facility": "Research Site",
                    "city": "Catania",
                    "zip": "95123",
                    "country": "Italy",
                    "geoPoint": {
                        "lat": 37.49223,
                        "lon": 15.07041
                    }
                },
                {
                    "facility": "Research Site",
                    "city": "Milano",
                    "zip": "20142",
                    "country": "Italy",
                    "geoPoint": {
                        "lat": 45.46427,
                        "lon": 9.18951
                    }
                },
                {
                    "facility": "Research Site",
                    "city": "Parma",
                    "zip": "43126",
                    "country": "Italy",
                    "geoPoint": {
                        "lat": 44.79935,
                        "lon": 10.32618
                    }
                },
                {
                    "facility": "Research Site",
                    "city": "Pisa",
                    "zip": "56124",
                    "country": "Italy",
                    "geoPoint": {
                        "lat": 43.70853,
                        "lon": 10.4036
                    }
                },
                {
                    "facility": "Research Site",
                    "city": "Roma",
                    "zip": "00168",
                    "country": "Italy",
                    "geoPoint": {
                        "lat": 41.89193,
                        "lon": 12.51133
                    }
                },
                {
                    "facility": "Research Site",
                    "city": "Varese",
                    "zip": "21100",
                    "country": "Italy",
                    "geoPoint": {
                        "lat": 45.82058,
                        "lon": 8.82511
                    }
                },
                {
                    "facility": "Research Site",
                    "city": "Bunkyo-ku",
                    "zip": "113-8603",
                    "country": "Japan",
                    "geoPoint": {
                        "lat": 35.37517,
                        "lon": 139.92991
                    }
                },
                {
                    "facility": "Research Site",
                    "city": "Hiroshima-shi",
                    "zip": "734-8551",
                    "country": "Japan",
                    "geoPoint": {
                        "lat": 34.4,
                        "lon": 132.45
                    }
                },
                {
                    "facility": "Research Site",
                    "city": "Kashihara-shi",
                    "zip": "634-8522",
                    "country": "Japan",
                    "geoPoint": {
                        "lat": 34.50896,
                        "lon": 135.7929
                    }
                },
                {
                    "facility": "Research Site",
                    "city": "Kawasaki-shi",
                    "zip": "216-8511",
                    "country": "Japan",
                    "geoPoint": {
                        "lat": 35.52056,
                        "lon": 139.71722
                    }
                },
                {
                    "facility": "Research Site",
                    "city": "Kumamoto-shi",
                    "zip": "860-0008",
                    "country": "Japan",
                    "geoPoint": {
                        "lat": 32.80589,
                        "lon": 130.69182
                    }
                },
                {
                    "facility": "Research Site",
                    "city": "Kumamoto-shi",
                    "zip": "861-8520",
                    "country": "Japan",
                    "geoPoint": {
                        "lat": 32.80589,
                        "lon": 130.69182
                    }
                },
                {
                    "facility": "Research Site",
                    "city": "Kurume",
                    "zip": "830-8543",
                    "country": "Japan",
                    "geoPoint": {
                        "lat": 33.31667,
                        "lon": 130.51667
                    }
                },
                {
                    "facility": "Research Site",
                    "city": "Sakai-shi",
                    "zip": "593-8304",
                    "country": "Japan",
                    "geoPoint": {
                        "lat": 34.58333,
                        "lon": 135.46667
                    }
                },
                {
                    "facility": "Research Site",
                    "city": "Sendai-shi",
                    "zip": "980-8574",
                    "country": "Japan",
                    "geoPoint": {
                        "lat": 38.26667,
                        "lon": 140.86667
                    }
                },
                {
                    "facility": "Research Site",
                    "city": "Daegu",
                    "zip": "42472",
                    "country": "Korea, Republic of",
                    "geoPoint": {
                        "lat": 35.87028,
                        "lon": 128.59111
                    }
                },
                {
                    "facility": "Research Site",
                    "city": "Kuala Lumpur",
                    "zip": "50586",
                    "country": "Malaysia",
                    "geoPoint": {
                        "lat": 3.1412,
                        "lon": 101.68653
                    }
                },
                {
                    "facility": "Research Site",
                    "city": "Kuantan",
                    "zip": "25200",
                    "country": "Malaysia",
                    "geoPoint": {
                        "lat": 3.8077,
                        "lon": 103.326
                    }
                },
                {
                    "facility": "Research Site",
                    "city": "Aguascalientes",
                    "zip": "20230",
                    "country": "Mexico",
                    "geoPoint": {
                        "lat": 21.88234,
                        "lon": -102.28259
                    }
                },
                {
                    "facility": "Research Site",
                    "city": "Nuevo Leon",
                    "zip": "66278",
                    "country": "Mexico"
                },
                {
                    "facility": "Research Site",
                    "city": "San Luis R\u00edo Colorado",
                    "zip": "83448",
                    "country": "Mexico",
                    "geoPoint": {
                        "lat": 32.45612,
                        "lon": -114.77186
                    }
                },
                {
                    "facility": "Research Site",
                    "city": "Auckland",
                    "zip": "2025",
                    "country": "New Zealand",
                    "geoPoint": {
                        "lat": -36.84853,
                        "lon": 174.76349
                    }
                },
                {
                    "facility": "Research Site",
                    "city": "Krak\u00f3w",
                    "zip": "31-826",
                    "country": "Poland",
                    "geoPoint": {
                        "lat": 50.06143,
                        "lon": 19.93658
                    }
                },
                {
                    "facility": "Research Site",
                    "city": "Lublin",
                    "zip": "20-954",
                    "country": "Poland",
                    "geoPoint": {
                        "lat": 51.25,
                        "lon": 22.56667
                    }
                },
                {
                    "facility": "Research Site",
                    "city": "Szczecin",
                    "zip": "71-252",
                    "country": "Poland",
                    "geoPoint": {
                        "lat": 53.42894,
                        "lon": 14.55302
                    }
                },
                {
                    "facility": "Research Site",
                    "city": "\u0141\u00f3d\u017a",
                    "zip": "92-213",
                    "country": "Poland",
                    "geoPoint": {
                        "lat": 51.75,
                        "lon": 19.46667
                    }
                },
                {
                    "facility": "Research Site",
                    "city": "Amadora",
                    "zip": "2720-276",
                    "country": "Portugal",
                    "geoPoint": {
                        "lat": 38.75382,
                        "lon": -9.23083
                    }
                },
                {
                    "facility": "Research Site",
                    "city": "Lisboa",
                    "zip": "1649-035",
                    "country": "Portugal",
                    "geoPoint": {
                        "lat": 38.71667,
                        "lon": -9.13333
                    }
                },
                {
                    "facility": "Research Site",
                    "city": "Porto",
                    "zip": "4099-001",
                    "country": "Portugal",
                    "geoPoint": {
                        "lat": 41.14961,
                        "lon": -8.61099
                    }
                },
                {
                    "facility": "Research Site",
                    "city": "Bucuresti",
                    "zip": "022328",
                    "country": "Romania",
                    "geoPoint": {
                        "lat": 44.42802,
                        "lon": 26.09665
                    }
                },
                {
                    "facility": "Research Site",
                    "city": "Bucuresti",
                    "zip": "22328",
                    "country": "Romania",
                    "geoPoint": {
                        "lat": 44.42802,
                        "lon": 26.09665
                    }
                },
                {
                    "facility": "Research Site",
                    "city": "Timisoara",
                    "zip": "300723",
                    "country": "Romania",
                    "geoPoint": {
                        "lat": 45.75372,
                        "lon": 21.22571
                    }
                },
                {
                    "facility": "Research Site",
                    "city": "Kragujevac",
                    "zip": "34000",
                    "country": "Serbia",
                    "geoPoint": {
                        "lat": 44.01667,
                        "lon": 20.91667
                    }
                },
                {
                    "facility": "Research Site",
                    "city": "Nis",
                    "zip": "18000",
                    "country": "Serbia",
                    "geoPoint": {
                        "lat": 43.32472,
                        "lon": 21.90333
                    }
                },
                {
                    "facility": "Research Site",
                    "city": "Novi Sad",
                    "zip": "21000",
                    "country": "Serbia",
                    "geoPoint": {
                        "lat": 45.25167,
                        "lon": 19.83694
                    }
                },
                {
                    "facility": "Research Site",
                    "city": "Sremska Kamenica",
                    "zip": "21204",
                    "country": "Serbia",
                    "geoPoint": {
                        "lat": 45.22158,
                        "lon": 19.84367
                    }
                },
                {
                    "facility": "Research Site",
                    "city": "Singapore",
                    "zip": "119074",
                    "country": "Singapore",
                    "geoPoint": {
                        "lat": 1.28967,
                        "lon": 103.85007
                    }
                },
                {
                    "facility": "Research Site",
                    "city": "Singapore",
                    "zip": "308433",
                    "country": "Singapore",
                    "geoPoint": {
                        "lat": 1.28967,
                        "lon": 103.85007
                    }
                },
                {
                    "facility": "Research Site",
                    "city": "Bratislava",
                    "zip": "833 01",
                    "country": "Slovakia",
                    "geoPoint": {
                        "lat": 48.14816,
                        "lon": 17.10674
                    }
                },
                {
                    "facility": "Research Site",
                    "city": "Celje",
                    "zip": "3000",
                    "country": "Slovenia",
                    "geoPoint": {
                        "lat": 46.23092,
                        "lon": 15.26044
                    }
                },
                {
                    "facility": "Research Site",
                    "city": "Barcelona",
                    "zip": "08036",
                    "country": "Spain",
                    "geoPoint": {
                        "lat": 41.38879,
                        "lon": 2.15899
                    }
                },
                {
                    "facility": "Research Site",
                    "city": "Elche",
                    "zip": "03293",
                    "country": "Spain",
                    "geoPoint": {
                        "lat": 38.26218,
                        "lon": -0.70107
                    }
                },
                {
                    "facility": "Research Site",
                    "city": "L'Hospitalet de Llobregat",
                    "zip": "08907",
                    "country": "Spain",
                    "geoPoint": {
                        "lat": 41.35967,
                        "lon": 2.10028
                    }
                },
                {
                    "facility": "Research Site",
                    "city": "Madrid",
                    "zip": "28031",
                    "country": "Spain",
                    "geoPoint": {
                        "lat": 40.4165,
                        "lon": -3.70256
                    }
                },
                {
                    "facility": "Research Site",
                    "city": "Marbella (M\u00e1laga)",
                    "zip": "29600",
                    "country": "Spain"
                },
                {
                    "facility": "Research Site",
                    "city": "Sevilla",
                    "zip": "41009",
                    "country": "Spain",
                    "geoPoint": {
                        "lat": 37.38283,
                        "lon": -5.97317
                    }
                },
                {
                    "facility": "Research Site",
                    "city": "Sevilla",
                    "zip": "41013",
                    "country": "Spain",
                    "geoPoint": {
                        "lat": 37.38283,
                        "lon": -5.97317
                    }
                },
                {
                    "facility": "Research Site",
                    "city": "Valencia",
                    "zip": "46010",
                    "country": "Spain",
                    "geoPoint": {
                        "lat": 39.46975,
                        "lon": -0.37739
                    }
                },
                {
                    "facility": "Research Site",
                    "city": "Valencia",
                    "zip": "46015",
                    "country": "Spain",
                    "geoPoint": {
                        "lat": 39.46975,
                        "lon": -0.37739
                    }
                },
                {
                    "facility": "Research Site",
                    "city": "Valencia",
                    "zip": "46026",
                    "country": "Spain",
                    "geoPoint": {
                        "lat": 39.46975,
                        "lon": -0.37739
                    }
                },
                {
                    "facility": "Research Site",
                    "city": "Zurich",
                    "zip": "8091",
                    "country": "Switzerland",
                    "geoPoint": {
                        "lat": 47.36667,
                        "lon": 8.54999
                    }
                },
                {
                    "facility": "Research Site",
                    "city": "Tainan",
                    "zip": "704",
                    "country": "Taiwan",
                    "geoPoint": {
                        "lat": 22.99083,
                        "lon": 120.21333
                    }
                },
                {
                    "facility": "Research Site",
                    "city": "London",
                    "zip": "EC1A 7BE",
                    "country": "United Kingdom",
                    "geoPoint": {
                        "lat": 51.50853,
                        "lon": -0.12574
                    }
                }
            ]
        },
        "ipdSharingStatementModule": {
            "ipdSharing": "YES",
            "description": "Qualified researchers can request access to anonymized individual patient-level data from AstraZeneca group of companies sponsored clinical trials via the request portal. All requests will be evaluated as per the AZ disclosure commitment:\n\nhttps://astrazenecagrouptrials.pharmacm.com /ST/Submission/Disclosure.\n\nYes, indicates that AZ are accepting requests for IPD, but this does not mean all requests will be shared.",
            "infoTypes": [
                "STUDY_PROTOCOL"
            ],
            "timeFrame": "AstraZeneca will meet or exceed data availability as per the commitments made to the EFPIA Pharma Data Sharing Principles. For details of our timelines, please refer to our disclosure commitment at:\n\nhttps://astrazenecagrouptrials.pharmacm.com /ST/Submission/Disclosure.",
            "accessCriteria": "When a request has been approved AstraZeneca will provide access to the de-identified individual patientlevel data in an approved sponsored tool. Signed Data Sharing Agreement (non-negotiable contract for data accessors) must be in place before accessing requested information. Additionally, all users will need to accept the terms and conditions of the SAS MSE to gain access. For additional details, please review the Disclosure Statements at:\n\nhttps://astrazenecagrouptrials.pharmacm.com /ST/Submission/Disclosure.",
            "url": "https://astrazenecagroup-dt.pharmacm.com/DT/Home"
        }
    },
    "derivedSection": {
        "miscInfoModule": {
            "versionHolder": "2024-07-30"
        },
        "interventionBrowseModule": {
            "browseLeaves": [
                {
                    "id": "M4244",
                    "name": "Anticoagulants",
                    "relevance": "LOW"
                },
                {
                    "id": "M30513",
                    "name": "Factor Xa Inhibitors",
                    "relevance": "LOW"
                }
            ],
            "browseBranches": [
                {
                    "abbrev": "AnCoag",
                    "name": "Anticoagulants"
                },
                {
                    "abbrev": "All",
                    "name": "All Drugs and Chemicals"
                }
            ]
        }
    },
    "hasResults": false
}