{
    "protocolSection": {
        "identificationModule": {
            "nctId": "NCT05972044",
            "orgStudyIdInfo": {
                "id": "SOL-ADHD-301"
            },
            "organization": {
                "fullName": "Axsome Therapeutics, Inc.",
                "class": "INDUSTRY"
            },
            "briefTitle": "A Study to Access the Efficacy and Safety of Solriamfetol in Subjects With ADHD (FOCUS)",
            "officialTitle": "A Phase 3, Randomized, Double-blind, Placebo-controlled Trial of Solriamfetol in Adults",
            "therapeuticArea": [
                "Other"
            ],
            "study": "a-study-to-access-the-efficacy-and-safety-of-solriamfetol-in-subjects-with-adhd-focus"
        },
        "statusModule": {
            "statusVerifiedDate": "2024-04",
            "overallStatus": "RECRUITING",
            "expandedAccessInfo": {
                "hasExpandedAccess": false
            },
            "startDateStruct": {
                "date": "2023-07-06",
                "type": "ACTUAL"
            },
            "primaryCompletionDateStruct": {
                "date": "2024-12",
                "type": "ESTIMATED"
            },
            "completionDateStruct": {
                "date": "2024-12",
                "type": "ESTIMATED"
            },
            "studyFirstSubmitDate": "2023-07-25",
            "studyFirstSubmitQcDate": "2023-07-25",
            "studyFirstPostDateStruct": {
                "date": "2023-08-02",
                "type": "ACTUAL"
            },
            "lastUpdateSubmitDate": "2024-04-25",
            "lastUpdatePostDateStruct": {
                "date": "2024-04-26",
                "type": "ACTUAL"
            }
        },
        "sponsorCollaboratorsModule": {
            "responsibleParty": {
                "type": "SPONSOR"
            },
            "leadSponsor": {
                "name": "Axsome Therapeutics, Inc.",
                "class": "INDUSTRY"
            }
        },
        "oversightModule": {
            "oversightHasDmc": false,
            "isFdaRegulatedDrug": true,
            "isFdaRegulatedDevice": false
        },
        "descriptionModule": {
            "briefSummary": "FOCUS (Forward Treatment of Attention Deficit and Hyperactivity Using Solriamfetol) is a Phase 3, multi-center, randomized, double-blind, placebo-controlled, parallel- group trial to assess the efficacy and safety of solriamfetol in adults with ADHD.",
            "detailedDescription": "Eligible subjects must have a primary diagnosis of ADHD based on the Diagnostic and Statistical Manual of Mental Disorders Fifth Edition (DSM-5) criteria. Subjects will be randomized in a 1:1:1 ratio to be treated with solriamfetol 150 mg, solriamfetol 300 mg, or placebo, once daily for 6 weeks."
        },
        "conditionsModule": {
            "conditions": [
                "ADHD"
            ],
            "keywords": [
                "Attention deficit hyperactivity disorder",
                "ADHD",
                "Solriamfetol",
                "Sunosi",
                "Axsome",
                "Non-stimulant therapy",
                "Dopamine norepinephrine reuptake inhibitor"
            ]
        },
        "designModule": {
            "studyType": "INTERVENTIONAL",
            "phases": [
                "PHASE3"
            ],
            "designInfo": {
                "allocation": "RANDOMIZED",
                "interventionModel": "PARALLEL",
                "primaryPurpose": "TREATMENT",
                "maskingInfo": {
                    "masking": "DOUBLE",
                    "whoMasked": [
                        "PARTICIPANT",
                        "INVESTIGATOR"
                    ]
                }
            },
            "enrollmentInfo": {
                "count": 450,
                "type": "ESTIMATED"
            }
        },
        "armsInterventionsModule": {
            "armGroups": [
                {
                    "label": "Solriamfetol 150 mg",
                    "type": "EXPERIMENTAL",
                    "description": "Up to 6 weeks",
                    "interventionNames": [
                        "Drug: Solriamfetol 150 mg"
                    ]
                },
                {
                    "label": "Solriamfetol 300 mg",
                    "type": "EXPERIMENTAL",
                    "description": "Up to 6 weeks",
                    "interventionNames": [
                        "Drug: Solriamfetol 300 mg"
                    ]
                },
                {
                    "label": "Placebo",
                    "type": "PLACEBO_COMPARATOR",
                    "description": "Up to 6 weeks",
                    "interventionNames": [
                        "Drug: Placebo"
                    ]
                }
            ],
            "interventions": [
                {
                    "type": "DRUG",
                    "name": "Solriamfetol 150 mg",
                    "description": "Solriamfetol tablets, taken once daily",
                    "armGroupLabels": [
                        "Solriamfetol 150 mg"
                    ]
                },
                {
                    "type": "DRUG",
                    "name": "Solriamfetol 300 mg",
                    "description": "Solriamfetol tablets, taken once daily",
                    "armGroupLabels": [
                        "Solriamfetol 300 mg"
                    ]
                },
                {
                    "type": "DRUG",
                    "name": "Placebo",
                    "description": "Placebo tablets, taken once daily",
                    "armGroupLabels": [
                        "Placebo"
                    ]
                }
            ]
        },
        "outcomesModule": {
            "primaryOutcomes": [
                {
                    "measure": "Change from Baseline to Week 6 in the AISRS total score",
                    "description": "Adult ADHD Investigator Symptom Report Scale (AISRS)",
                    "timeFrame": "6 weeks"
                }
            ]
        },
        "eligibilityModule": {
            "eligibilityCriteria": "Inclusion Criteria:\n\n* Primary diagnosis of ADHD according to DSM-5 criteria.\n* Provides written informed consent to participate in the study before the conduct of any study procedures.\n* Male or female, aged 18 to 55 inclusive.\n\nExclusion Criteria:\n\n* Prior exposure to solriamfetol/Sunosi, through either a clinical study or prescription.\n* Unable to comply with study procedures.\n* Medically inappropriate for study participation in the opinion of the investigator.",
            "healthyVolunteers": false,
            "sex": "ALL",
            "minimumAge": "18 Years",
            "maximumAge": "55 Years",
            "stdAges": [
                "ADULT"
            ]
        },
        "contactsLocationsModule": {
            "centralContacts": [
                {
                    "name": "Study Director",
                    "role": "CONTACT",
                    "phone": "212-332-5061",
                    "email": "cstreicher@axsome.com"
                }
            ],
            "locations": [
                {
                    "facility": "Clinical Research Site",
                    "status": "RECRUITING",
                    "city": "Encino",
                    "state": "California",
                    "zip": "91316",
                    "country": "United States",
                    "geoPoint": {
                        "lat": 34.15917,
                        "lon": -118.50119
                    }
                },
                {
                    "facility": "Clinical Research Site",
                    "status": "RECRUITING",
                    "city": "Garden Grove",
                    "state": "California",
                    "zip": "92845",
                    "country": "United States",
                    "geoPoint": {
                        "lat": 33.77391,
                        "lon": -117.94145
                    }
                },
                {
                    "facility": "Clinical Research Site",
                    "status": "RECRUITING",
                    "city": "Lafayette",
                    "state": "California",
                    "zip": "94549",
                    "country": "United States",
                    "geoPoint": {
                        "lat": 37.88576,
                        "lon": -122.11802
                    }
                },
                {
                    "facility": "Clinical Research Site",
                    "status": "RECRUITING",
                    "city": "Riverside",
                    "state": "California",
                    "zip": "92506",
                    "country": "United States",
                    "geoPoint": {
                        "lat": 33.95335,
                        "lon": -117.39616
                    }
                },
                {
                    "facility": "Clinical Research Site",
                    "status": "RECRUITING",
                    "city": "Santa Ana",
                    "state": "California",
                    "zip": "92705",
                    "country": "United States",
                    "geoPoint": {
                        "lat": 33.74557,
                        "lon": -117.86783
                    }
                },
                {
                    "facility": "Clinical Research Site",
                    "status": "RECRUITING",
                    "city": "Sherman Oaks",
                    "state": "California",
                    "zip": "91403",
                    "country": "United States",
                    "geoPoint": {
                        "lat": 34.15112,
                        "lon": -118.44925
                    }
                },
                {
                    "facility": "Clinical Research Site",
                    "status": "RECRUITING",
                    "city": "Torrance",
                    "state": "California",
                    "zip": "90504",
                    "country": "United States",
                    "geoPoint": {
                        "lat": 33.83585,
                        "lon": -118.34063
                    }
                },
                {
                    "facility": "Clinical Research Site",
                    "status": "RECRUITING",
                    "city": "Colorado Springs",
                    "state": "Colorado",
                    "zip": "80910",
                    "country": "United States",
                    "geoPoint": {
                        "lat": 38.83388,
                        "lon": -104.82136
                    }
                },
                {
                    "facility": "Clinical Research Site",
                    "status": "RECRUITING",
                    "city": "Gainesville",
                    "state": "Florida",
                    "zip": "32607",
                    "country": "United States",
                    "geoPoint": {
                        "lat": 29.65163,
                        "lon": -82.32483
                    }
                },
                {
                    "facility": "Clinical Research Site",
                    "status": "RECRUITING",
                    "city": "Jacksonville",
                    "state": "Florida",
                    "zip": "32256",
                    "country": "United States",
                    "geoPoint": {
                        "lat": 30.33218,
                        "lon": -81.65565
                    }
                },
                {
                    "facility": "Clinical Research Site",
                    "status": "RECRUITING",
                    "city": "Miami Lakes",
                    "state": "Florida",
                    "zip": "33016",
                    "country": "United States",
                    "geoPoint": {
                        "lat": 25.90871,
                        "lon": -80.30866
                    }
                },
                {
                    "facility": "Clinical Research Site",
                    "status": "RECRUITING",
                    "city": "Orlando",
                    "state": "Florida",
                    "zip": "32801",
                    "country": "United States",
                    "geoPoint": {
                        "lat": 28.53834,
                        "lon": -81.37924
                    }
                },
                {
                    "facility": "Clinical Research Site",
                    "status": "RECRUITING",
                    "city": "Orlando",
                    "state": "Florida",
                    "zip": "32806",
                    "country": "United States",
                    "geoPoint": {
                        "lat": 28.53834,
                        "lon": -81.37924
                    }
                },
                {
                    "facility": "Clinical Research Site",
                    "status": "RECRUITING",
                    "city": "Palm Bay",
                    "state": "Florida",
                    "zip": "32905",
                    "country": "United States",
                    "geoPoint": {
                        "lat": 28.03446,
                        "lon": -80.58866
                    }
                },
                {
                    "facility": "Clinical Research Site",
                    "status": "RECRUITING",
                    "city": "Alpharetta",
                    "state": "Georgia",
                    "zip": "30022",
                    "country": "United States",
                    "geoPoint": {
                        "lat": 34.07538,
                        "lon": -84.29409
                    }
                },
                {
                    "facility": "Clinical Research Site",
                    "status": "RECRUITING",
                    "city": "Atlanta",
                    "state": "Georgia",
                    "zip": "30328",
                    "country": "United States",
                    "geoPoint": {
                        "lat": 33.749,
                        "lon": -84.38798
                    }
                },
                {
                    "facility": "Clinical Research Site",
                    "status": "RECRUITING",
                    "city": "Atlanta",
                    "state": "Georgia",
                    "zip": "30331",
                    "country": "United States",
                    "geoPoint": {
                        "lat": 33.749,
                        "lon": -84.38798
                    }
                },
                {
                    "facility": "Clinical Research Site",
                    "status": "RECRUITING",
                    "city": "Marietta",
                    "state": "Georgia",
                    "zip": "30060",
                    "country": "United States",
                    "geoPoint": {
                        "lat": 33.9526,
                        "lon": -84.54993
                    }
                },
                {
                    "facility": "Clinical Research Site",
                    "status": "RECRUITING",
                    "city": "Overland Park",
                    "state": "Kansas",
                    "zip": "66210",
                    "country": "United States",
                    "geoPoint": {
                        "lat": 38.98223,
                        "lon": -94.67079
                    }
                },
                {
                    "facility": "Clinical Research Site",
                    "status": "RECRUITING",
                    "city": "Boston",
                    "state": "Massachusetts",
                    "zip": "02131",
                    "country": "United States",
                    "geoPoint": {
                        "lat": 42.35843,
                        "lon": -71.05977
                    }
                },
                {
                    "facility": "Clinical Research Site",
                    "status": "RECRUITING",
                    "city": "Saint Charles",
                    "state": "Missouri",
                    "zip": "63304",
                    "country": "United States",
                    "geoPoint": {
                        "lat": 38.78394,
                        "lon": -90.48123
                    }
                },
                {
                    "facility": "Clinical Research Site",
                    "status": "RECRUITING",
                    "city": "Las Vegas",
                    "state": "Nevada",
                    "zip": "89102",
                    "country": "United States",
                    "geoPoint": {
                        "lat": 36.17497,
                        "lon": -115.13722
                    }
                },
                {
                    "facility": "Clinical Research Site",
                    "status": "RECRUITING",
                    "city": "Las Vegas",
                    "state": "Nevada",
                    "zip": "89128",
                    "country": "United States",
                    "geoPoint": {
                        "lat": 36.17497,
                        "lon": -115.13722
                    }
                },
                {
                    "facility": "Clinical Research Site",
                    "status": "RECRUITING",
                    "city": "Berlin",
                    "state": "New Jersey",
                    "zip": "08009",
                    "country": "United States",
                    "geoPoint": {
                        "lat": 39.79123,
                        "lon": -74.92905
                    }
                },
                {
                    "facility": "Clinical Research Site",
                    "status": "RECRUITING",
                    "city": "Cherry Hill",
                    "state": "New Jersey",
                    "zip": "08002",
                    "country": "United States",
                    "geoPoint": {
                        "lat": 39.93484,
                        "lon": -75.03073
                    }
                },
                {
                    "facility": "Clinical Research Site",
                    "status": "RECRUITING",
                    "city": "Mount Kisco",
                    "state": "New York",
                    "zip": "10549",
                    "country": "United States",
                    "geoPoint": {
                        "lat": 41.20426,
                        "lon": -73.72708
                    }
                },
                {
                    "facility": "Clinical Research Site",
                    "status": "RECRUITING",
                    "city": "New York",
                    "state": "New York",
                    "zip": "10128",
                    "country": "United States",
                    "geoPoint": {
                        "lat": 40.71427,
                        "lon": -74.00597
                    }
                },
                {
                    "facility": "Clinical Research Site",
                    "status": "RECRUITING",
                    "city": "Hickory",
                    "state": "North Carolina",
                    "zip": "28601",
                    "country": "United States",
                    "geoPoint": {
                        "lat": 35.73319,
                        "lon": -81.3412
                    }
                },
                {
                    "facility": "Clinical Research Site",
                    "status": "RECRUITING",
                    "city": "Raleigh",
                    "state": "North Carolina",
                    "zip": "27609",
                    "country": "United States",
                    "geoPoint": {
                        "lat": 35.7721,
                        "lon": -78.63861
                    }
                },
                {
                    "facility": "Clinical Research Site",
                    "status": "RECRUITING",
                    "city": "Cincinnati",
                    "state": "Ohio",
                    "zip": "45219",
                    "country": "United States",
                    "geoPoint": {
                        "lat": 39.12713,
                        "lon": -84.51435
                    }
                },
                {
                    "facility": "Clinical Research Site",
                    "status": "RECRUITING",
                    "city": "Kettering",
                    "state": "Ohio",
                    "zip": "45439",
                    "country": "United States",
                    "geoPoint": {
                        "lat": 39.6895,
                        "lon": -84.16883
                    }
                },
                {
                    "facility": "Clinical Research Site",
                    "status": "RECRUITING",
                    "city": "Oklahoma City",
                    "state": "Oklahoma",
                    "zip": "73118",
                    "country": "United States",
                    "geoPoint": {
                        "lat": 35.46756,
                        "lon": -97.51643
                    }
                },
                {
                    "facility": "Clinical Research Site",
                    "status": "RECRUITING",
                    "city": "Media",
                    "state": "Pennsylvania",
                    "zip": "19063",
                    "country": "United States",
                    "geoPoint": {
                        "lat": 39.91678,
                        "lon": -75.38769
                    }
                },
                {
                    "facility": "Clinical Research Site",
                    "status": "RECRUITING",
                    "city": "North Charleston",
                    "state": "South Carolina",
                    "zip": "29405",
                    "country": "United States",
                    "geoPoint": {
                        "lat": 32.85462,
                        "lon": -79.97481
                    }
                },
                {
                    "facility": "Clinical Research Site",
                    "status": "RECRUITING",
                    "city": "Memphis",
                    "state": "Tennessee",
                    "zip": "38119",
                    "country": "United States",
                    "geoPoint": {
                        "lat": 35.14953,
                        "lon": -90.04898
                    }
                },
                {
                    "facility": "Clinical Research Site",
                    "status": "RECRUITING",
                    "city": "Austin",
                    "state": "Texas",
                    "zip": "78737",
                    "country": "United States",
                    "geoPoint": {
                        "lat": 30.26715,
                        "lon": -97.74306
                    }
                },
                {
                    "facility": "Clinical Research Site",
                    "status": "RECRUITING",
                    "city": "Bellaire",
                    "state": "Texas",
                    "zip": "77401",
                    "country": "United States",
                    "geoPoint": {
                        "lat": 29.70579,
                        "lon": -95.45883
                    }
                },
                {
                    "facility": "Clinical Research Site",
                    "status": "RECRUITING",
                    "city": "Dallas",
                    "state": "Texas",
                    "zip": "75231",
                    "country": "United States",
                    "geoPoint": {
                        "lat": 32.78306,
                        "lon": -96.80667
                    }
                },
                {
                    "facility": "Clinical Research Site",
                    "status": "RECRUITING",
                    "city": "Dallas",
                    "state": "Texas",
                    "zip": "75243",
                    "country": "United States",
                    "geoPoint": {
                        "lat": 32.78306,
                        "lon": -96.80667
                    }
                },
                {
                    "facility": "Clinical Research Site",
                    "status": "RECRUITING",
                    "city": "San Antonio",
                    "state": "Texas",
                    "zip": "78229",
                    "country": "United States",
                    "geoPoint": {
                        "lat": 29.42412,
                        "lon": -98.49363
                    }
                },
                {
                    "facility": "Clinical Research Site",
                    "status": "RECRUITING",
                    "city": "Draper",
                    "state": "Utah",
                    "zip": "84020",
                    "country": "United States",
                    "geoPoint": {
                        "lat": 40.52467,
                        "lon": -111.86382
                    }
                },
                {
                    "facility": "Clinical Research Site",
                    "status": "RECRUITING",
                    "city": "Everett",
                    "state": "Washington",
                    "zip": "98201",
                    "country": "United States",
                    "geoPoint": {
                        "lat": 47.97898,
                        "lon": -122.20208
                    }
                }
            ]
        },
        "referencesModule": {
            "seeAlsoLinks": [
                {
                    "label": "Axsome Therapeutics Website",
                    "url": "http://www.axsome.com"
                }
            ]
        },
        "ipdSharingStatementModule": {
            "ipdSharing": "NO"
        }
    },
    "derivedSection": {
        "miscInfoModule": {
            "versionHolder": "2024-07-30"
        },
        "conditionBrowseModule": {
            "browseLeaves": [
                {
                    "id": "M9999",
                    "name": "Hyperkinesis",
                    "relevance": "LOW"
                },
                {
                    "id": "M4594",
                    "name": "Attention Deficit Disorder with Hyperactivity",
                    "relevance": "LOW"
                }
            ],
            "browseBranches": [
                {
                    "abbrev": "BC10",
                    "name": "Nervous System Diseases"
                },
                {
                    "abbrev": "BC23",
                    "name": "Symptoms and General Pathology"
                },
                {
                    "abbrev": "All",
                    "name": "All Conditions"
                },
                {
                    "abbrev": "BXM",
                    "name": "Behaviors and Mental Disorders"
                }
            ]
        },
        "interventionBrowseModule": {
            "browseLeaves": [
                {
                    "id": "M12575",
                    "name": "Norepinephrine",
                    "relevance": "LOW"
                },
                {
                    "id": "M7473",
                    "name": "Dopamine",
                    "relevance": "LOW"
                }
            ],
            "browseBranches": [
                {
                    "abbrev": "VaCoAg",
                    "name": "Vasoconstrictor Agents"
                },
                {
                    "abbrev": "All",
                    "name": "All Drugs and Chemicals"
                },
                {
                    "abbrev": "CaAg",
                    "name": "Cardiotonic Agents"
                }
            ]
        }
    },
    "hasResults": false
}