{
    "protocolSection": {
        "identificationModule": {
            "nctId": "NCT05869773",
            "orgStudyIdInfo": {
                "id": "JZP258-406"
            },
            "organization": {
                "fullName": "Jazz Pharmaceuticals",
                "class": "INDUSTRY"
            },
            "briefTitle": "A Switch Study From High-Sodium Oxybate to XYWAV to Evaluate Changes in Blood Pressure in Participants With Narcolepsy",
            "officialTitle": "An Open-Label, Multicenter Switch Study Evaluating Changes in Blood Pressure in Participants With Narcolepsy Switching From High-Sodium Oxybate to XYWAV",
            "therapeuticArea": [
                "Other"
            ],
            "study": "a-switch-study-from-high-sodium-oxybate-to-xywav-to-evaluate-changes-in-blood-pressure-in-participants-with-narcolepsy"
        },
        "statusModule": {
            "statusVerifiedDate": "2024-06",
            "overallStatus": "RECRUITING",
            "expandedAccessInfo": {
                "hasExpandedAccess": false
            },
            "startDateStruct": {
                "date": "2023-06-26",
                "type": "ACTUAL"
            },
            "primaryCompletionDateStruct": {
                "date": "2025-06-01",
                "type": "ESTIMATED"
            },
            "completionDateStruct": {
                "date": "2025-07-01",
                "type": "ESTIMATED"
            },
            "studyFirstSubmitDate": "2023-05-12",
            "studyFirstSubmitQcDate": "2023-05-12",
            "studyFirstPostDateStruct": {
                "date": "2023-05-22",
                "type": "ACTUAL"
            },
            "lastUpdateSubmitDate": "2024-06-18",
            "lastUpdatePostDateStruct": {
                "date": "2024-06-21",
                "type": "ACTUAL"
            }
        },
        "sponsorCollaboratorsModule": {
            "responsibleParty": {
                "type": "SPONSOR"
            },
            "leadSponsor": {
                "name": "Jazz Pharmaceuticals",
                "class": "INDUSTRY"
            }
        },
        "oversightModule": {
            "isFdaRegulatedDrug": true,
            "isFdaRegulatedDevice": false
        },
        "descriptionModule": {
            "briefSummary": "The aim of this study is to quantify the change in blood pressure when participants with narcolepsy treated with high-sodium oxybate are transitioned to XYWAV, a low-sodium oxybate. The results of this study may provide health care providers (HCPs), patients, and payers with important new information regarding BP changes related to differences in sodium content between available oxybates for the treatment of narcolepsy."
        },
        "conditionsModule": {
            "conditions": [
                "Narcolepsy"
            ],
            "keywords": [
                "Narcolepsy Type 1",
                "Narcolepsy Type 2",
                "XYWAV",
                "JZP258",
                "Oxybate"
            ]
        },
        "designModule": {
            "studyType": "INTERVENTIONAL",
            "phases": [
                "PHASE4"
            ],
            "designInfo": {
                "allocation": "NA",
                "interventionModel": "SINGLE_GROUP",
                "primaryPurpose": "TREATMENT",
                "maskingInfo": {
                    "masking": "NONE"
                }
            },
            "enrollmentInfo": {
                "count": 89,
                "type": "ESTIMATED"
            }
        },
        "armsInterventionsModule": {
            "armGroups": [
                {
                    "label": "JZP258",
                    "type": "EXPERIMENTAL",
                    "description": "Participants will receive 6 to 9 grams per night of JZP258 (XYWAV) for 6 consecutive weeks.",
                    "interventionNames": [
                        "Drug: JZP258"
                    ]
                }
            ],
            "interventions": [
                {
                    "type": "DRUG",
                    "name": "JZP258",
                    "description": "0.5 g/ml calcium, magnesium, potassium, and sodium oxybates oral solution",
                    "armGroupLabels": [
                        "JZP258"
                    ],
                    "otherNames": [
                        "XYWAV"
                    ]
                }
            ]
        },
        "outcomesModule": {
            "primaryOutcomes": [
                {
                    "measure": "Change from baseline to End of Treatment (EOT) Visit on the 24-hour average Systolic Blood Pressure (SBP) in mmHg",
                    "timeFrame": "Baseline, Up to 6 weeks"
                }
            ],
            "secondaryOutcomes": [
                {
                    "measure": "Change from baseline to EOT Visit on the daytime average SBP in mmHg",
                    "timeFrame": "Baseline, Up to 6 weeks"
                },
                {
                    "measure": "Change from baseline to EOT Visit on the seated resting average SBP in mmHg",
                    "timeFrame": "Baseline, Up to 6 weeks"
                },
                {
                    "measure": "Change from baseline to EOT Visit on the nighttime average SBP in mmHg",
                    "timeFrame": "Baseline, Up to 6 weeks"
                }
            ]
        },
        "eligibilityModule": {
            "eligibilityCriteria": "Key Inclusion Criteria:\n\n* Participants must be 18 to 70 years of age inclusive, at the time of signing the informed consent.\n* Participants have a documented diagnosis of Type 1 or Type 2 narcolepsy that meets International Classification of Sleep Disorders (ICSD)-3 or Diagnostic and Statistical Manual of Mental Disorders (DSM)-5 criteria.\n* Participants must have been receiving a dose of high-sodium oxybate (eg, XYREM) of 6 to 9 g/night (inclusive) for a minimum of 6 consecutive weeks prior to screening.\n* If currently treated with stimulants and/or alerting agents or other medications known to affect BP, participant must have been taking the same dosing regimen for at least 2 months prior to screening and agree to take the same dose throughout the study.\n* If currently taking stable doses of antihypertensive therapies, participant must maintain these treatments at the same dose throughout the study unless otherwise advised by their medical care\n* Participant is male or female. A female participant is eligible to participate if she is not pregnant or breastfeeding, if she is a woman of nonchildbearing potential or is a woman of childbearing potential and using a contraceptive method that is highly effective.\n\nKey Exclusion Criteria:\n\n* History or presence of any acutely unstable medical condition, behavioral or psychiatric disorder (including active suicidal ideation), or surgical history that could affect the safety of the participant or interfere with study assessments or the ability of the participant to complete the study based on the judgment of the investigator.\n* Presence of significant cardiovascular disease.",
            "healthyVolunteers": false,
            "sex": "ALL",
            "minimumAge": "18 Years",
            "maximumAge": "70 Years",
            "stdAges": [
                "ADULT",
                "OLDER_ADULT"
            ]
        },
        "contactsLocationsModule": {
            "centralContacts": [
                {
                    "name": "Clinical Trial Disclosure & Transparency",
                    "role": "CONTACT",
                    "phone": "215-832-3750",
                    "email": "ClinicalTrialDisclosure@JazzPharma.com"
                }
            ],
            "locations": [
                {
                    "facility": "University of Arizona",
                    "status": "TERMINATED",
                    "city": "Tucson",
                    "state": "Arizona",
                    "zip": "85721",
                    "country": "United States",
                    "geoPoint": {
                        "lat": 32.22174,
                        "lon": -110.92648
                    }
                },
                {
                    "facility": "Science 37",
                    "status": "RECRUITING",
                    "city": "Culver City",
                    "state": "California",
                    "zip": "90230",
                    "country": "United States",
                    "geoPoint": {
                        "lat": 34.02112,
                        "lon": -118.39647
                    }
                },
                {
                    "facility": "M3 Wake Research",
                    "status": "RECRUITING",
                    "city": "Encino",
                    "state": "California",
                    "zip": "91436",
                    "country": "United States",
                    "geoPoint": {
                        "lat": 34.15917,
                        "lon": -118.50119
                    }
                },
                {
                    "facility": "Long Beach Research Institute",
                    "status": "RECRUITING",
                    "city": "Lakewood",
                    "state": "California",
                    "zip": "90805",
                    "country": "United States",
                    "geoPoint": {
                        "lat": 33.85363,
                        "lon": -118.13396
                    }
                },
                {
                    "facility": "Stanford School of Medicine",
                    "status": "RECRUITING",
                    "city": "Redwood City",
                    "state": "California",
                    "zip": "94063",
                    "country": "United States",
                    "geoPoint": {
                        "lat": 37.48522,
                        "lon": -122.23635
                    }
                },
                {
                    "facility": "Rady Children's Hospital",
                    "status": "NOT_YET_RECRUITING",
                    "city": "San Diego",
                    "state": "California",
                    "zip": "92123",
                    "country": "United States",
                    "geoPoint": {
                        "lat": 32.71533,
                        "lon": -117.15726
                    }
                },
                {
                    "facility": "TriValley Sleep Center",
                    "status": "RECRUITING",
                    "city": "San Ramon",
                    "state": "California",
                    "zip": "94583",
                    "country": "United States",
                    "geoPoint": {
                        "lat": 37.77993,
                        "lon": -121.97802
                    }
                },
                {
                    "facility": "SDS Clinical Trials, Inc.",
                    "status": "RECRUITING",
                    "city": "Santa Ana",
                    "state": "California",
                    "zip": "92705",
                    "country": "United States",
                    "geoPoint": {
                        "lat": 33.74557,
                        "lon": -117.86783
                    }
                },
                {
                    "facility": "FWD Clinical Research",
                    "status": "RECRUITING",
                    "city": "Boca Raton",
                    "state": "Florida",
                    "zip": "33486",
                    "country": "United States",
                    "geoPoint": {
                        "lat": 26.3669,
                        "lon": -80.13033
                    }
                },
                {
                    "facility": "Meris Clinical Research, LLC",
                    "status": "RECRUITING",
                    "city": "Brandon",
                    "state": "Florida",
                    "zip": "33511",
                    "country": "United States",
                    "geoPoint": {
                        "lat": 27.9378,
                        "lon": -82.28592
                    }
                },
                {
                    "facility": "Nova Research Institute LLC",
                    "status": "WITHDRAWN",
                    "city": "Miami",
                    "state": "Florida",
                    "zip": "33125",
                    "country": "United States",
                    "geoPoint": {
                        "lat": 25.77427,
                        "lon": -80.19366
                    }
                },
                {
                    "facility": "Ocean Wellness Center",
                    "status": "RECRUITING",
                    "city": "Miami",
                    "state": "Florida",
                    "zip": "33169",
                    "country": "United States",
                    "geoPoint": {
                        "lat": 25.77427,
                        "lon": -80.19366
                    }
                },
                {
                    "facility": "Serenity Research Center LLC",
                    "status": "RECRUITING",
                    "city": "Miami",
                    "state": "Florida",
                    "zip": "33176",
                    "country": "United States",
                    "geoPoint": {
                        "lat": 25.77427,
                        "lon": -80.19366
                    }
                },
                {
                    "facility": "Florida Pediatric Research Institute, LLC",
                    "status": "RECRUITING",
                    "city": "Orlando",
                    "state": "Florida",
                    "zip": "32804",
                    "country": "United States",
                    "geoPoint": {
                        "lat": 28.53834,
                        "lon": -81.37924
                    }
                },
                {
                    "facility": "Sleep Practitioners, LLC",
                    "status": "RECRUITING",
                    "city": "Macon",
                    "state": "Georgia",
                    "zip": "31210",
                    "country": "United States",
                    "geoPoint": {
                        "lat": 32.84069,
                        "lon": -83.6324
                    }
                },
                {
                    "facility": "Saltzer Medical Group",
                    "status": "TERMINATED",
                    "city": "Nampa",
                    "state": "Idaho",
                    "zip": "83686",
                    "country": "United States",
                    "geoPoint": {
                        "lat": 43.54072,
                        "lon": -116.56346
                    }
                },
                {
                    "facility": "University of Louisville",
                    "status": "NOT_YET_RECRUITING",
                    "city": "Louisville",
                    "state": "Kentucky",
                    "zip": "40202",
                    "country": "United States",
                    "geoPoint": {
                        "lat": 38.25424,
                        "lon": -85.75941
                    }
                },
                {
                    "facility": "University of Maryland Medical Center",
                    "status": "TERMINATED",
                    "city": "Baltimore",
                    "state": "Maryland",
                    "zip": "21201",
                    "country": "United States",
                    "geoPoint": {
                        "lat": 39.29038,
                        "lon": -76.61219
                    }
                },
                {
                    "facility": "Neurocare, Inc",
                    "status": "RECRUITING",
                    "city": "Newton",
                    "state": "Massachusetts",
                    "zip": "02459",
                    "country": "United States",
                    "geoPoint": {
                        "lat": 42.33704,
                        "lon": -71.20922
                    }
                },
                {
                    "facility": "Sparrow Health System",
                    "status": "RECRUITING",
                    "city": "Lansing",
                    "state": "Michigan",
                    "zip": "48911",
                    "country": "United States",
                    "geoPoint": {
                        "lat": 42.73253,
                        "lon": -84.55553
                    }
                },
                {
                    "facility": "Bryan Medical Center",
                    "status": "RECRUITING",
                    "city": "Lincoln",
                    "state": "Nebraska",
                    "zip": "68506",
                    "country": "United States",
                    "geoPoint": {
                        "lat": 40.8,
                        "lon": -96.66696
                    }
                },
                {
                    "facility": "Henderson Clinical Trials LLC",
                    "status": "RECRUITING",
                    "city": "Henderson",
                    "state": "Nevada",
                    "zip": "89052",
                    "country": "United States",
                    "geoPoint": {
                        "lat": 36.0397,
                        "lon": -114.98194
                    }
                },
                {
                    "facility": "M3 Wake Research, Inc.",
                    "status": "WITHDRAWN",
                    "city": "Las Vegas",
                    "state": "Nevada",
                    "zip": "89106",
                    "country": "United States",
                    "geoPoint": {
                        "lat": 36.17497,
                        "lon": -115.13722
                    }
                },
                {
                    "facility": "Advanced Respiratory and Sleep Medicine, PLLC",
                    "status": "RECRUITING",
                    "city": "Huntersville",
                    "state": "North Carolina",
                    "zip": "28078",
                    "country": "United States",
                    "geoPoint": {
                        "lat": 35.41069,
                        "lon": -80.84285
                    }
                },
                {
                    "facility": "M3 Wake Research, Inc.",
                    "status": "RECRUITING",
                    "city": "Raleigh",
                    "state": "North Carolina",
                    "zip": "27612",
                    "country": "United States",
                    "geoPoint": {
                        "lat": 35.7721,
                        "lon": -78.63861
                    }
                },
                {
                    "facility": "Intrepid Research, LLC",
                    "status": "RECRUITING",
                    "city": "Cincinnati",
                    "state": "Ohio",
                    "zip": "45245",
                    "country": "United States",
                    "geoPoint": {
                        "lat": 39.12713,
                        "lon": -84.51435
                    }
                },
                {
                    "facility": "University Hospitals Cleveland Medical Center",
                    "status": "RECRUITING",
                    "city": "Cleveland",
                    "state": "Ohio",
                    "zip": "44106",
                    "country": "United States",
                    "geoPoint": {
                        "lat": 41.4995,
                        "lon": -81.69541
                    }
                },
                {
                    "facility": "Metro Health Medical Center",
                    "status": "NOT_YET_RECRUITING",
                    "city": "Cleveland",
                    "state": "Ohio",
                    "zip": "44109",
                    "country": "United States",
                    "geoPoint": {
                        "lat": 41.4995,
                        "lon": -81.69541
                    }
                },
                {
                    "facility": "Ohio Sleep Medicine and Neuroscience",
                    "status": "RECRUITING",
                    "city": "Dublin",
                    "state": "Ohio",
                    "zip": "43017",
                    "country": "United States",
                    "geoPoint": {
                        "lat": 40.09923,
                        "lon": -83.11408
                    }
                },
                {
                    "facility": "OHSU Hospital",
                    "status": "NOT_YET_RECRUITING",
                    "city": "Portland",
                    "state": "Oregon",
                    "zip": "97239",
                    "country": "United States",
                    "geoPoint": {
                        "lat": 45.52345,
                        "lon": -122.67621
                    }
                },
                {
                    "facility": "Abington Neurological Associates, LTD",
                    "status": "RECRUITING",
                    "city": "Abington",
                    "state": "Pennsylvania",
                    "zip": "19001",
                    "country": "United States",
                    "geoPoint": {
                        "lat": 40.12067,
                        "lon": -75.11795
                    }
                },
                {
                    "facility": "Bogan Sleep Consultants, LLC",
                    "status": "RECRUITING",
                    "city": "Columbia",
                    "state": "South Carolina",
                    "zip": "29201",
                    "country": "United States",
                    "geoPoint": {
                        "lat": 34.00071,
                        "lon": -81.03481
                    }
                },
                {
                    "facility": "Velocity Clinical Research, Greenville",
                    "status": "RECRUITING",
                    "city": "Greenville",
                    "state": "South Carolina",
                    "zip": "29615",
                    "country": "United States",
                    "geoPoint": {
                        "lat": 34.85262,
                        "lon": -82.39401
                    }
                },
                {
                    "facility": "Clinical Research of Rock Hill",
                    "status": "RECRUITING",
                    "city": "Rock Hill",
                    "state": "South Carolina",
                    "zip": "29732",
                    "country": "United States",
                    "geoPoint": {
                        "lat": 34.92487,
                        "lon": -81.02508
                    }
                },
                {
                    "facility": "FutureSearch Trials of Neurology",
                    "status": "RECRUITING",
                    "city": "Austin",
                    "state": "Texas",
                    "zip": "78731",
                    "country": "United States",
                    "geoPoint": {
                        "lat": 30.26715,
                        "lon": -97.74306
                    }
                },
                {
                    "facility": "Sleep Therapy & Research Center",
                    "status": "RECRUITING",
                    "city": "San Antonio",
                    "state": "Texas",
                    "zip": "78229",
                    "country": "United States",
                    "geoPoint": {
                        "lat": 29.42412,
                        "lon": -98.49363
                    }
                },
                {
                    "facility": "Cliniques Universitaires Saint-Luc",
                    "status": "NOT_YET_RECRUITING",
                    "city": "Bruxelles",
                    "zip": "1200",
                    "country": "Belgium",
                    "geoPoint": {
                        "lat": 50.85045,
                        "lon": 4.34878
                    }
                },
                {
                    "facility": "Antwerp University Hospital (UZA)",
                    "status": "NOT_YET_RECRUITING",
                    "city": "Edegem",
                    "zip": "2650",
                    "country": "Belgium",
                    "geoPoint": {
                        "lat": 51.15662,
                        "lon": 4.44504
                    }
                },
                {
                    "facility": "Private Practice RESPISOM Namur",
                    "status": "RECRUITING",
                    "city": "Namur",
                    "zip": "5101",
                    "country": "Belgium",
                    "geoPoint": {
                        "lat": 50.4669,
                        "lon": 4.86746
                    }
                },
                {
                    "facility": "Vseobecna fakultni nemocnice v Praze",
                    "status": "NOT_YET_RECRUITING",
                    "city": "Praha 2",
                    "zip": "128 21",
                    "country": "Czechia",
                    "geoPoint": {
                        "lat": 50.08804,
                        "lon": 14.42076
                    }
                },
                {
                    "facility": "Hopital Gui de Chauliac",
                    "status": "NOT_YET_RECRUITING",
                    "city": "Montpellier",
                    "state": "Herault",
                    "zip": "34295",
                    "country": "France",
                    "geoPoint": {
                        "lat": 43.61092,
                        "lon": 3.87723
                    }
                },
                {
                    "facility": "CHU de Grenoble - H\u00f4pital Albert Michallon",
                    "status": "NOT_YET_RECRUITING",
                    "city": "Grenoble",
                    "state": "Isere",
                    "zip": "38043",
                    "country": "France",
                    "geoPoint": {
                        "lat": 45.16667,
                        "lon": 5.71667
                    }
                },
                {
                    "facility": "CHU Nantes - H\u00f4tel Dieu",
                    "status": "NOT_YET_RECRUITING",
                    "city": "Nantes",
                    "state": "Loire Atlantique",
                    "zip": "44093",
                    "country": "France",
                    "geoPoint": {
                        "lat": 47.21725,
                        "lon": -1.55336
                    }
                },
                {
                    "facility": "Hopital Roger Salengro - CHU Lille",
                    "status": "NOT_YET_RECRUITING",
                    "city": "Lille Cedex",
                    "state": "Nord",
                    "zip": "59037",
                    "country": "France",
                    "geoPoint": {
                        "lat": 50.63297,
                        "lon": 3.05858
                    }
                },
                {
                    "facility": "IRCCS Istituto de Scienze Neurologiche di Bologna (ISNB)",
                    "status": "NOT_YET_RECRUITING",
                    "city": "Bologna",
                    "zip": "40139",
                    "country": "Italy",
                    "geoPoint": {
                        "lat": 44.49381,
                        "lon": 11.33875
                    }
                },
                {
                    "facility": "Ospedale San Raffaele (San Raffaele Turro)",
                    "status": "NOT_YET_RECRUITING",
                    "city": "Milano",
                    "zip": "20127",
                    "country": "Italy",
                    "geoPoint": {
                        "lat": 45.46427,
                        "lon": 9.18951
                    }
                },
                {
                    "facility": "Azienda Ospedaliera Universitaria Policlinico Tor Vergata",
                    "status": "NOT_YET_RECRUITING",
                    "city": "Roma",
                    "zip": "00133",
                    "country": "Italy",
                    "geoPoint": {
                        "lat": 41.89193,
                        "lon": 12.51133
                    }
                },
                {
                    "facility": "Hospital Universitario Araba - Sede Santiago",
                    "status": "NOT_YET_RECRUITING",
                    "city": "Vitoria",
                    "state": "Alava",
                    "zip": "01004",
                    "country": "Spain",
                    "geoPoint": {
                        "lat": 42.84998,
                        "lon": -2.67268
                    }
                },
                {
                    "facility": "Hospital Universitari Vall d'Hebron",
                    "status": "NOT_YET_RECRUITING",
                    "city": "Barcelona",
                    "zip": "08035",
                    "country": "Spain",
                    "geoPoint": {
                        "lat": 41.38879,
                        "lon": 2.15899
                    }
                },
                {
                    "facility": "Hospital General de Castellon",
                    "status": "NOT_YET_RECRUITING",
                    "city": "Castellon",
                    "zip": "12004",
                    "country": "Spain"
                },
                {
                    "facility": "Hospital Universitario Clinico San Carlos",
                    "status": "NOT_YET_RECRUITING",
                    "city": "Madrid",
                    "zip": "28040",
                    "country": "Spain",
                    "geoPoint": {
                        "lat": 40.4165,
                        "lon": -3.70256
                    }
                }
            ]
        },
        "ipdSharingStatementModule": {
            "ipdSharing": "NO"
        }
    },
    "derivedSection": {
        "miscInfoModule": {
            "versionHolder": "2024-07-30"
        },
        "conditionBrowseModule": {
            "meshes": [
                {
                    "id": "D000009290",
                    "term": "Narcolepsy"
                }
            ],
            "ancestors": [
                {
                    "id": "D000006970",
                    "term": "Disorders of Excessive Somnolence"
                },
                {
                    "id": "D000020919",
                    "term": "Sleep Disorders, Intrinsic"
                },
                {
                    "id": "D000020920",
                    "term": "Dyssomnias"
                },
                {
                    "id": "D000012893",
                    "term": "Sleep Wake Disorders"
                },
                {
                    "id": "D000009422",
                    "term": "Nervous System Diseases"
                },
                {
                    "id": "D000001523",
                    "term": "Mental Disorders"
                }
            ],
            "browseLeaves": [
                {
                    "id": "M12241",
                    "name": "Narcolepsy",
                    "asFound": "Narcolepsy",
                    "relevance": "HIGH"
                },
                {
                    "id": "M10021",
                    "name": "Disorders of Excessive Somnolence",
                    "relevance": "LOW"
                },
                {
                    "id": "M1717",
                    "name": "Sleepiness",
                    "relevance": "LOW"
                },
                {
                    "id": "M22242",
                    "name": "Parasomnias",
                    "relevance": "LOW"
                },
                {
                    "id": "M22654",
                    "name": "Sleep Disorders, Intrinsic",
                    "relevance": "LOW"
                },
                {
                    "id": "M22655",
                    "name": "Dyssomnias",
                    "relevance": "LOW"
                },
                {
                    "id": "M15696",
                    "name": "Sleep Wake Disorders",
                    "relevance": "LOW"
                },
                {
                    "id": "M4815",
                    "name": "Mental Disorders",
                    "relevance": "LOW"
                },
                {
                    "id": "M14473",
                    "name": "Psychotic Disorders",
                    "relevance": "LOW"
                },
                {
                    "id": "T4044",
                    "name": "Narcolepsy",
                    "asFound": "Narcolepsy",
                    "relevance": "HIGH"
                }
            ],
            "browseBranches": [
                {
                    "abbrev": "BC10",
                    "name": "Nervous System Diseases"
                },
                {
                    "abbrev": "BXM",
                    "name": "Behaviors and Mental Disorders"
                },
                {
                    "abbrev": "All",
                    "name": "All Conditions"
                },
                {
                    "abbrev": "BC23",
                    "name": "Symptoms and General Pathology"
                },
                {
                    "abbrev": "Rare",
                    "name": "Rare Diseases"
                }
            ]
        },
        "interventionBrowseModule": {
            "browseLeaves": [
                {
                    "id": "M21860",
                    "name": "Pharmaceutical Solutions",
                    "relevance": "LOW"
                },
                {
                    "id": "M5381",
                    "name": "Calcium",
                    "relevance": "LOW"
                },
                {
                    "id": "M5398",
                    "name": "Calcium, Dietary",
                    "relevance": "LOW"
                },
                {
                    "id": "M15780",
                    "name": "Sodium Oxybate",
                    "relevance": "LOW"
                }
            ],
            "browseBranches": [
                {
                    "abbrev": "PhSol",
                    "name": "Pharmaceutical Solutions"
                },
                {
                    "abbrev": "All",
                    "name": "All Drugs and Chemicals"
                },
                {
                    "abbrev": "BDCA",
                    "name": "Bone Density Conservation Agents"
                },
                {
                    "abbrev": "AdjAn",
                    "name": "Adjuvants, Anesthesia"
                },
                {
                    "abbrev": "CNSDep",
                    "name": "Central Nervous System Depressants"
                }
            ]
        }
    },
    "hasResults": false
}