{
    "protocolSection": {
        "identificationModule": {
            "nctId": "NCT04636801",
            "orgStudyIdInfo": {
                "id": "CLI-06001AA1-04"
            },
            "secondaryIdInfos": [
                {
                    "id": "2020-003666-40",
                    "type": "EUDRACT_NUMBER"
                }
            ],
            "organization": {
                "fullName": "Chiesi Farmaceutici S.p.A.",
                "class": "INDUSTRY"
            },
            "briefTitle": "A 52-week, Placebo-controlled Study to Evaluate the Efficacy and Safety of 2 Doses of CHF6001 DPI (Tanimilast), as add-on to Maintenance Triple Therapy in Subjects With COPD and Chronic Bronchitis (PILASTER)",
            "officialTitle": "A 52-week, Randomized, Double-blind, Placebo-controlled, Parallel-group, Study to Evaluate the Efficacy and Safety of Two Doses of CHF6001 DPI add-on to Maintenance Triple Therapy in Subjects With Chronic Obstructive Pulmonary Disease (COPD) and Chronic Bronchitis",
            "acronym": "PILASTER",
            "therapeuticArea": [
                "Respiratory"
            ],
            "study": "a-week-placebo-controlled-study-to-evaluate-the-efficacy-and-safety-of-doses-of-dpi-tanimilast-as-add-on-to-maintenance-triple-therapy-in-subjects-with-copd-and-chronic-bronchitis-pilaster"
        },
        "statusModule": {
            "statusVerifiedDate": "2023-10",
            "overallStatus": "RECRUITING",
            "expandedAccessInfo": {
                "hasExpandedAccess": false
            },
            "startDateStruct": {
                "date": "2021-07-14",
                "type": "ACTUAL"
            },
            "primaryCompletionDateStruct": {
                "date": "2025-06-13",
                "type": "ESTIMATED"
            },
            "completionDateStruct": {
                "date": "2025-06-20",
                "type": "ESTIMATED"
            },
            "studyFirstSubmitDate": "2020-11-16",
            "studyFirstSubmitQcDate": "2020-11-16",
            "studyFirstPostDateStruct": {
                "date": "2020-11-19",
                "type": "ACTUAL"
            },
            "lastUpdateSubmitDate": "2023-10-02",
            "lastUpdatePostDateStruct": {
                "date": "2023-10-03",
                "type": "ACTUAL"
            }
        },
        "sponsorCollaboratorsModule": {
            "responsibleParty": {
                "type": "SPONSOR"
            },
            "leadSponsor": {
                "name": "Chiesi Farmaceutici S.p.A.",
                "class": "INDUSTRY"
            }
        },
        "oversightModule": {
            "oversightHasDmc": true,
            "isFdaRegulatedDrug": true,
            "isFdaRegulatedDevice": false
        },
        "descriptionModule": {
            "briefSummary": "The purpose of the study is to evaluate the efficacy and safety of two doses of CHF6001 (Tanimilast), as add-on to maintenance triple therapy in the target patient population."
        },
        "conditionsModule": {
            "conditions": [
                "Chronic Obstructive Pulmonary Disease"
            ],
            "keywords": [
                "COPD",
                "Chronic Bronchitis",
                "PDE4 inhibitor",
                "anti-inflammatory respiratory drug",
                "Tanimilast"
            ]
        },
        "designModule": {
            "studyType": "INTERVENTIONAL",
            "phases": [
                "PHASE3"
            ],
            "designInfo": {
                "allocation": "RANDOMIZED",
                "interventionModel": "PARALLEL",
                "primaryPurpose": "TREATMENT",
                "maskingInfo": {
                    "masking": "DOUBLE",
                    "whoMasked": [
                        "PARTICIPANT",
                        "INVESTIGATOR"
                    ]
                }
            },
            "enrollmentInfo": {
                "count": 3435,
                "type": "ESTIMATED"
            }
        },
        "armsInterventionsModule": {
            "armGroups": [
                {
                    "label": "CHF6001 1600\u00b5g",
                    "type": "EXPERIMENTAL",
                    "interventionNames": [
                        "Drug: Experimental: CHF6001 1600\u00b5g"
                    ]
                },
                {
                    "label": "CHF6001 3200\u00b5g",
                    "type": "EXPERIMENTAL",
                    "interventionNames": [
                        "Drug: Experimental: CHF6001 3200\u00b5g"
                    ]
                },
                {
                    "label": "CHF6001 Placebo",
                    "type": "PLACEBO_COMPARATOR",
                    "interventionNames": [
                        "Drug: Placebo"
                    ]
                }
            ],
            "interventions": [
                {
                    "type": "DRUG",
                    "name": "Experimental: CHF6001 1600\u00b5g",
                    "description": "CHF6001 400\u00b5g, 2 inhalations bid (total daily dose of 1600\u00b5g).",
                    "armGroupLabels": [
                        "CHF6001 1600\u00b5g"
                    ]
                },
                {
                    "type": "DRUG",
                    "name": "Experimental: CHF6001 3200\u00b5g",
                    "description": "CHF6001 800\u00b5g, 2 inhalations bid (total daily dose of 3200\u00b5g).",
                    "armGroupLabels": [
                        "CHF6001 3200\u00b5g"
                    ]
                },
                {
                    "type": "DRUG",
                    "name": "Placebo",
                    "description": "CHF6001 matching placebo, 2 inhalations bid.",
                    "armGroupLabels": [
                        "CHF6001 Placebo"
                    ]
                }
            ]
        },
        "outcomesModule": {
            "primaryOutcomes": [
                {
                    "measure": "The number of moderate and severe COPD exacerbations occurring during the planned 52-week treatment period.",
                    "description": "Moderate or severe exacerbation is defined by symptomatic worsening of COPD:\n\n* Moderate: requiring use of systemic corticosteroid (oral/IV/IM corticosteroids), and/or use of antibiotics\n* Severe: requiring hospitalisation or resulting in death",
                    "timeFrame": "Up to 52 weeks"
                }
            ],
            "secondaryOutcomes": [
                {
                    "measure": "The time to first moderate or severe exacerbation.",
                    "timeFrame": "Up to 52 weeks"
                },
                {
                    "measure": "The annual rate of severe exacerbation.",
                    "timeFrame": "Up to 52 weeks"
                },
                {
                    "measure": "The time to first severe exacerbation.",
                    "timeFrame": "Up to 52 weeks"
                },
                {
                    "measure": "The number of on-treatment severe exacerbations.",
                    "timeFrame": "Up to 52 weeks"
                },
                {
                    "measure": "Change from baseline (pre-dose visit 2) in pre-dose FEV1 at week 52.",
                    "timeFrame": "At Week 52"
                },
                {
                    "measure": "Change from baseline in SGRQ total and domain scores at week 52.",
                    "timeFrame": "At week 52"
                },
                {
                    "measure": "SGRQ response (change from baseline SGRQ total score \u2264 -4) at week 52.",
                    "timeFrame": "At week 52"
                },
                {
                    "measure": "Change from baseline to last inter-visit period (week 40-52) in E-RS Total and subscale scores",
                    "timeFrame": "Up to 52 weeks"
                },
                {
                    "measure": "E-RS response (change from baseline E-RS Total score \u2264 -2) at week 52.",
                    "timeFrame": "At week 52"
                },
                {
                    "measure": "Change from baseline to last inter-visit period (week 40-52) in the percentage of days without intake of rescue medication and in the average rescue medication use (number of puffs)",
                    "timeFrame": "Up to 52 weeks"
                },
                {
                    "measure": "Time to study medication discontinuation for any reason.",
                    "timeFrame": "Up to 52 weeks"
                },
                {
                    "measure": "Time to moderate or severe exacerbation or study medication discontinuation due to any adverse event, lack of efficacy or death (composite endpoint) and time to study medication discontinuation component.",
                    "timeFrame": "Up to 52 weeks"
                }
            ]
        },
        "eligibilityModule": {
            "eligibilityCriteria": "Inclusion Criteria:\n\n* Adults aged \u2265 40 years with COPD and chronic bronchitis\n* Current or ex-smokers (history \u2265 10 pack years).\n* Post-bronchodilator FEV1 \\<60% of the subject predicted normal value and FEV1/FVC ratio \\< 0.7.\n* At least, one moderate or severe COPD exacerbation in previous year.\n* CAT score \u2265 10\n* Subjects on regular maintenance triple therapy for at least 12 months prior to screening and receiving regular maintenance triple therapy for at least 3 months prior to screening visit\n\nExclusion Criteria:\n\n* Subjects with current asthma.\n* Subjects with moderate or severe COPD exacerbation 4 weeks prior to study entry and randomization.\n* Subjects with known \u03b1-1 antitrypsin deficiency as the underlying cause of COPD.\n* Subjects with COPD emphysema or mixed phenotypes.\n* Subjects with known respiratory disorders other than COPD.\n* Subjects with active cancer or a history of lung cancer with full recovery less than 1 year after completing cancer therapy.\n* Subjects under Roflumilast treatment within 6 months before study entry.\n* Subjects with a diagnosis of depression, generalised anxiety disorder, suicidal ideation.\n* Subjects with clinically significant cardiovascular.\n* Subjects with a significant neurological disease.\n* Subjects with clinically significant laboratory abnormalities.\n* Subjects with moderate or severe hepatic impairment",
            "healthyVolunteers": false,
            "sex": "ALL",
            "minimumAge": "40 Years",
            "stdAges": [
                "ADULT",
                "OLDER_ADULT"
            ]
        },
        "contactsLocationsModule": {
            "centralContacts": [
                {
                    "name": "Chiesi Clinical Trial info",
                    "role": "CONTACT",
                    "phone": "+390521279715",
                    "email": "clinicaltrials_info@chiesi.com"
                }
            ],
            "overallOfficials": [
                {
                    "name": "Klaus F. Rabe, Prof.",
                    "affiliation": "LungenClinic Grosshansdorf GmbH W\u00f6hrendamm 80 22927 Gro\u00dfhansdorf GERMANY",
                    "role": "PRINCIPAL_INVESTIGATOR"
                }
            ],
            "locations": [
                {
                    "facility": "Chiesi Clinical Trial - Site 840402",
                    "status": "ACTIVE_NOT_RECRUITING",
                    "city": "Sheffield",
                    "state": "Alabama",
                    "zip": "35660-4020",
                    "country": "United States",
                    "geoPoint": {
                        "lat": 34.76509,
                        "lon": -87.69864
                    }
                },
                {
                    "facility": "Chiesi Clinical Trial - Site 840480",
                    "status": "ACTIVE_NOT_RECRUITING",
                    "city": "Northridge",
                    "state": "California",
                    "zip": "91324-6200",
                    "country": "United States",
                    "geoPoint": {
                        "lat": 34.22834,
                        "lon": -118.53675
                    }
                },
                {
                    "facility": "Chiesi Clinical Trial - Site 840487",
                    "status": "ACTIVE_NOT_RECRUITING",
                    "city": "Cutler Bay",
                    "state": "Florida",
                    "zip": "33189-1230",
                    "country": "United States",
                    "geoPoint": {
                        "lat": 25.5783,
                        "lon": -80.3377
                    }
                },
                {
                    "facility": "Chiesi Clinical Trial - Site 840404",
                    "status": "ACTIVE_NOT_RECRUITING",
                    "city": "Hollywood",
                    "state": "Florida",
                    "zip": "33021",
                    "country": "United States",
                    "geoPoint": {
                        "lat": 26.0112,
                        "lon": -80.14949
                    }
                },
                {
                    "facility": "Chiesi Clinical Trial - Site 840407",
                    "status": "ACTIVE_NOT_RECRUITING",
                    "city": "Miami",
                    "state": "Florida",
                    "zip": "33144-2100",
                    "country": "United States",
                    "geoPoint": {
                        "lat": 25.77427,
                        "lon": -80.19366
                    }
                },
                {
                    "facility": "Chiesi Clinical Trial - Site 840444",
                    "status": "ACTIVE_NOT_RECRUITING",
                    "city": "Miami",
                    "state": "Florida",
                    "zip": "33144",
                    "country": "United States",
                    "geoPoint": {
                        "lat": 25.77427,
                        "lon": -80.19366
                    }
                },
                {
                    "facility": "Chiesi Clinical Trial - Site 840437",
                    "status": "RECRUITING",
                    "city": "Miami",
                    "state": "Florida",
                    "zip": "33165-2075",
                    "country": "United States",
                    "geoPoint": {
                        "lat": 25.77427,
                        "lon": -80.19366
                    }
                },
                {
                    "facility": "Chiesi Clinical Trial - Site 840403",
                    "status": "ACTIVE_NOT_RECRUITING",
                    "city": "Miami",
                    "state": "Florida",
                    "zip": "33175-3598",
                    "country": "United States",
                    "geoPoint": {
                        "lat": 25.77427,
                        "lon": -80.19366
                    }
                },
                {
                    "facility": "Chiesi Clinical Trial - Site 840463",
                    "status": "ACTIVE_NOT_RECRUITING",
                    "city": "Orlando",
                    "state": "Florida",
                    "zip": "32822-5806",
                    "country": "United States",
                    "geoPoint": {
                        "lat": 28.53834,
                        "lon": -81.37924
                    }
                },
                {
                    "facility": "Chiesi Clinical Trial - Site 840401",
                    "status": "NOT_YET_RECRUITING",
                    "city": "Peachtree Corners",
                    "state": "Georgia",
                    "zip": "30071-2656",
                    "country": "United States",
                    "geoPoint": {
                        "lat": 33.9701,
                        "lon": -84.22159
                    }
                },
                {
                    "facility": "Chiesi Clinical Trial - Site 840478",
                    "status": "NOT_YET_RECRUITING",
                    "city": "New Windsor",
                    "state": "New York",
                    "zip": "12553-7754",
                    "country": "United States",
                    "geoPoint": {
                        "lat": 41.47676,
                        "lon": -74.02375
                    }
                },
                {
                    "facility": "Chiesi Clinical Trial - Site 840483",
                    "status": "NOT_YET_RECRUITING",
                    "city": "Philadelphia",
                    "state": "Pennsylvania",
                    "zip": "19140",
                    "country": "United States",
                    "geoPoint": {
                        "lat": 39.95233,
                        "lon": -75.16379
                    }
                },
                {
                    "facility": "Chiesi Clinical Trial - Site 840474",
                    "status": "ACTIVE_NOT_RECRUITING",
                    "city": "Kerrville",
                    "state": "Texas",
                    "zip": "78028-9640",
                    "country": "United States",
                    "geoPoint": {
                        "lat": 30.04743,
                        "lon": -99.14032
                    }
                },
                {
                    "facility": "Chiesi Clinical Trial - Site 840409",
                    "status": "ACTIVE_NOT_RECRUITING",
                    "city": "Plano",
                    "state": "Texas",
                    "zip": "75025",
                    "country": "United States",
                    "geoPoint": {
                        "lat": 33.01984,
                        "lon": -96.69889
                    }
                },
                {
                    "facility": "Chiesi Clinical Trial - Site 840481",
                    "status": "NOT_YET_RECRUITING",
                    "city": "San Antonio",
                    "state": "Texas",
                    "zip": "78229",
                    "country": "United States",
                    "geoPoint": {
                        "lat": 29.42412,
                        "lon": -98.49363
                    }
                },
                {
                    "facility": "Chiesi Clinical Trial - Site 8455",
                    "status": "NOT_YET_RECRUITING",
                    "city": "Durres",
                    "country": "Albania",
                    "geoPoint": {
                        "lat": 41.32306,
                        "lon": 19.44139
                    }
                },
                {
                    "facility": "Chiesi Clinical Trial - Site 8459",
                    "status": "NOT_YET_RECRUITING",
                    "city": "Durres",
                    "country": "Albania",
                    "geoPoint": {
                        "lat": 41.32306,
                        "lon": 19.44139
                    }
                },
                {
                    "facility": "Chiesi Clinical Trial - Site 8457",
                    "status": "NOT_YET_RECRUITING",
                    "city": "Elbasan",
                    "country": "Albania",
                    "geoPoint": {
                        "lat": 41.1125,
                        "lon": 20.08222
                    }
                },
                {
                    "facility": "Chiesi Clinical Trial - Site 8460",
                    "status": "NOT_YET_RECRUITING",
                    "city": "Korca",
                    "country": "Albania",
                    "geoPoint": {
                        "lat": 40.61861,
                        "lon": 20.78083
                    }
                },
                {
                    "facility": "Chiesi Clinical Trial - Site 8451",
                    "status": "NOT_YET_RECRUITING",
                    "city": "Tirana",
                    "country": "Albania",
                    "geoPoint": {
                        "lat": 41.3275,
                        "lon": 19.81889
                    }
                },
                {
                    "facility": "Chiesi Clinical Trial - Site 8452",
                    "status": "NOT_YET_RECRUITING",
                    "city": "Tirana",
                    "country": "Albania",
                    "geoPoint": {
                        "lat": 41.3275,
                        "lon": 19.81889
                    }
                },
                {
                    "facility": "Chiesi Clinical Trial - Site 8453",
                    "status": "NOT_YET_RECRUITING",
                    "city": "Tirana",
                    "country": "Albania",
                    "geoPoint": {
                        "lat": 41.3275,
                        "lon": 19.81889
                    }
                },
                {
                    "facility": "Chiesi Clinical Trial - Site 8454",
                    "status": "NOT_YET_RECRUITING",
                    "city": "Tirana",
                    "country": "Albania",
                    "geoPoint": {
                        "lat": 41.3275,
                        "lon": 19.81889
                    }
                },
                {
                    "facility": "Chiesi Clinical Trial - Site 8456",
                    "status": "NOT_YET_RECRUITING",
                    "city": "Tirana",
                    "country": "Albania",
                    "geoPoint": {
                        "lat": 41.3275,
                        "lon": 19.81889
                    }
                },
                {
                    "facility": "Chiesi Clinical Trial - Site 8458",
                    "status": "NOT_YET_RECRUITING",
                    "city": "Tirana",
                    "country": "Albania",
                    "geoPoint": {
                        "lat": 41.3275,
                        "lon": 19.81889
                    }
                },
                {
                    "facility": "Chiesi Clinical Trial - Site 32407",
                    "status": "RECRUITING",
                    "city": "Buenos Aires",
                    "country": "Argentina",
                    "geoPoint": {
                        "lat": -34.61315,
                        "lon": -58.37723
                    }
                },
                {
                    "facility": "Chiesi Clinical Trial - Site 32410",
                    "status": "RECRUITING",
                    "city": "Buenos Aires",
                    "country": "Argentina",
                    "geoPoint": {
                        "lat": -34.61315,
                        "lon": -58.37723
                    }
                },
                {
                    "facility": "Chiesi Clinical Trial - Site 32454",
                    "status": "RECRUITING",
                    "city": "Buenos Aires",
                    "country": "Argentina",
                    "geoPoint": {
                        "lat": -34.61315,
                        "lon": -58.37723
                    }
                },
                {
                    "facility": "Chiesi Clinical Trial - Site 32416",
                    "status": "NOT_YET_RECRUITING",
                    "city": "Caba",
                    "country": "Argentina",
                    "geoPoint": {
                        "lat": -34.61315,
                        "lon": -58.37723
                    }
                },
                {
                    "facility": "Chiesi Clinical Trial - Site 32457",
                    "status": "RECRUITING",
                    "city": "Caba",
                    "country": "Argentina",
                    "geoPoint": {
                        "lat": -34.61315,
                        "lon": -58.37723
                    }
                },
                {
                    "facility": "Chiesi Clinical Trial - Site 32459",
                    "status": "RECRUITING",
                    "city": "Caba",
                    "country": "Argentina",
                    "geoPoint": {
                        "lat": -34.61315,
                        "lon": -58.37723
                    }
                },
                {
                    "facility": "Chiesi Clinical Trial - Site 32403",
                    "status": "RECRUITING",
                    "city": "C\u00f3rdoba",
                    "country": "Argentina",
                    "geoPoint": {
                        "lat": -31.4135,
                        "lon": -64.18105
                    }
                },
                {
                    "facility": "Chiesi Clinical Trial - Site 32409",
                    "status": "RECRUITING",
                    "city": "C\u00f3rdoba",
                    "country": "Argentina",
                    "geoPoint": {
                        "lat": -31.4135,
                        "lon": -64.18105
                    }
                },
                {
                    "facility": "Chiesi Clinical Trial - Site 32408",
                    "status": "RECRUITING",
                    "city": "Florencio Varela",
                    "country": "Argentina",
                    "geoPoint": {
                        "lat": -34.82722,
                        "lon": -58.39556
                    }
                },
                {
                    "facility": "Chiesi Clinical Trial - Site 32401",
                    "status": "RECRUITING",
                    "city": "Florida",
                    "country": "Argentina"
                },
                {
                    "facility": "Chiesi Clinical Trial - Site 32455",
                    "status": "RECRUITING",
                    "city": "La Plata",
                    "country": "Argentina",
                    "geoPoint": {
                        "lat": -34.92145,
                        "lon": -57.95453
                    }
                },
                {
                    "facility": "Chiesi Clinical Trial - Site 32417",
                    "status": "NOT_YET_RECRUITING",
                    "city": "Mar Del Plata",
                    "country": "Argentina",
                    "geoPoint": {
                        "lat": -38.00228,
                        "lon": -57.55754
                    }
                },
                {
                    "facility": "Chiesi Clinical Trial - Site 32458",
                    "status": "RECRUITING",
                    "city": "Mar Del Plata",
                    "country": "Argentina",
                    "geoPoint": {
                        "lat": -38.00228,
                        "lon": -57.55754
                    }
                },
                {
                    "facility": "Chiesi Clinical Trial - Site 32462",
                    "status": "RECRUITING",
                    "city": "Mar Del Plata",
                    "country": "Argentina",
                    "geoPoint": {
                        "lat": -38.00228,
                        "lon": -57.55754
                    }
                },
                {
                    "facility": "Chiesi Clinical Trial - Site 32405",
                    "status": "RECRUITING",
                    "city": "Mendoza",
                    "country": "Argentina",
                    "geoPoint": {
                        "lat": -32.89084,
                        "lon": -68.82717
                    }
                },
                {
                    "facility": "Chiesi Clinical Trial - Site 32411",
                    "status": "RECRUITING",
                    "city": "Mendoza",
                    "country": "Argentina",
                    "geoPoint": {
                        "lat": -32.89084,
                        "lon": -68.82717
                    }
                },
                {
                    "facility": "Chiesi Clinical Trial - Site 32413",
                    "status": "RECRUITING",
                    "city": "Mendoza",
                    "country": "Argentina",
                    "geoPoint": {
                        "lat": -32.89084,
                        "lon": -68.82717
                    }
                },
                {
                    "facility": "Chiesi Clinical Trial - Site 32402",
                    "status": "RECRUITING",
                    "city": "Monte Grande",
                    "country": "Argentina"
                },
                {
                    "facility": "Chiesi Clinical Trial - Site 32406",
                    "status": "RECRUITING",
                    "city": "Quilmes",
                    "country": "Argentina",
                    "geoPoint": {
                        "lat": -34.72904,
                        "lon": -58.26374
                    }
                },
                {
                    "facility": "Chiesi Clinical Trial - Site 32453",
                    "status": "RECRUITING",
                    "city": "Rosario",
                    "country": "Argentina",
                    "geoPoint": {
                        "lat": -32.94682,
                        "lon": -60.63932
                    }
                },
                {
                    "facility": "Chiesi Clinical Trial - Site 32460",
                    "status": "RECRUITING",
                    "city": "San Fernando",
                    "country": "Argentina"
                },
                {
                    "facility": "Chiesi Clinical Trial - Site 32412",
                    "status": "RECRUITING",
                    "city": "San Miguel De Tucum\u00e1n",
                    "country": "Argentina",
                    "geoPoint": {
                        "lat": -26.82414,
                        "lon": -65.2226
                    }
                },
                {
                    "facility": "Chiesi Clinical Trial - Site 32451",
                    "status": "RECRUITING",
                    "city": "San Miguel De Tucum\u00e1n",
                    "country": "Argentina",
                    "geoPoint": {
                        "lat": -26.82414,
                        "lon": -65.2226
                    }
                },
                {
                    "facility": "Chiesi Clinical Trial - Site 32452",
                    "status": "RECRUITING",
                    "city": "San Miguel de Tucum\u00e1n",
                    "country": "Argentina",
                    "geoPoint": {
                        "lat": -26.82414,
                        "lon": -65.2226
                    }
                },
                {
                    "facility": "Chiesi Clinical Trial - Site 32461",
                    "status": "RECRUITING",
                    "city": "San Miguel de Tucum\u00e1n",
                    "country": "Argentina",
                    "geoPoint": {
                        "lat": -26.82414,
                        "lon": -65.2226
                    }
                },
                {
                    "facility": "Chiesi Clinical Trial - Site 32464",
                    "status": "RECRUITING",
                    "city": "San Miguel De Tucum\u00e1n",
                    "country": "Argentina",
                    "geoPoint": {
                        "lat": -26.82414,
                        "lon": -65.2226
                    }
                },
                {
                    "facility": "Chiesi Clinical Trial - Site 32456",
                    "status": "RECRUITING",
                    "city": "Santa Fe",
                    "country": "Argentina",
                    "geoPoint": {
                        "lat": -31.63333,
                        "lon": -60.7
                    }
                },
                {
                    "facility": "Chiesi Clinical Trial - Site 36453",
                    "status": "NOT_YET_RECRUITING",
                    "city": "Adelaide",
                    "country": "Australia",
                    "geoPoint": {
                        "lat": -34.92866,
                        "lon": 138.59863
                    }
                },
                {
                    "facility": "Chiesi Clinical Trial - Site 36454",
                    "status": "ACTIVE_NOT_RECRUITING",
                    "city": "Box Hill",
                    "country": "Australia",
                    "geoPoint": {
                        "lat": -37.81887,
                        "lon": 145.12545
                    }
                },
                {
                    "facility": "Chiesi Clinical Trial - Site 36455",
                    "status": "NOT_YET_RECRUITING",
                    "city": "Campbelltown",
                    "country": "Australia",
                    "geoPoint": {
                        "lat": -34.06667,
                        "lon": 150.81667
                    }
                },
                {
                    "facility": "Chiesi Clinical Trial - Site 36456",
                    "status": "NOT_YET_RECRUITING",
                    "city": "Clayton",
                    "country": "Australia",
                    "geoPoint": {
                        "lat": -37.91667,
                        "lon": 145.11667
                    }
                },
                {
                    "facility": "Chiesi Clinical Trial - Site 36451",
                    "status": "ACTIVE_NOT_RECRUITING",
                    "city": "South Brisbane",
                    "country": "Australia",
                    "geoPoint": {
                        "lat": -27.48034,
                        "lon": 153.02049
                    }
                },
                {
                    "facility": "Chiesi Clinical Trial - Site 36452",
                    "status": "ACTIVE_NOT_RECRUITING",
                    "city": "Westmead",
                    "country": "Australia",
                    "geoPoint": {
                        "lat": -33.80383,
                        "lon": 150.98768
                    }
                },
                {
                    "facility": "Chiesi Clinical Trial - Site 40402",
                    "status": "RECRUITING",
                    "city": "Feldbach",
                    "country": "Austria",
                    "geoPoint": {
                        "lat": 46.95306,
                        "lon": 15.88833
                    }
                },
                {
                    "facility": "Chiesi Clinical Trial - Site 40404",
                    "status": "RECRUITING",
                    "city": "Grieskirchen",
                    "country": "Austria",
                    "geoPoint": {
                        "lat": 48.23333,
                        "lon": 13.83333
                    }
                },
                {
                    "facility": "Chiesi Clinical Trial - Site 40401",
                    "status": "RECRUITING",
                    "city": "Linz",
                    "country": "Austria",
                    "geoPoint": {
                        "lat": 48.30639,
                        "lon": 14.28611
                    }
                },
                {
                    "facility": "Chiesi Clinical Trial - Site 40403",
                    "status": "ACTIVE_NOT_RECRUITING",
                    "city": "Linz",
                    "country": "Austria",
                    "geoPoint": {
                        "lat": 48.30639,
                        "lon": 14.28611
                    }
                },
                {
                    "facility": "Chiesi Clinical Trial - Site 070401",
                    "status": "NOT_YET_RECRUITING",
                    "city": "Banja Luka",
                    "country": "Bosnia and Herzegovina",
                    "geoPoint": {
                        "lat": 44.77842,
                        "lon": 17.19386
                    }
                },
                {
                    "facility": "Chiesi Clinical Trial - Site 070407",
                    "status": "NOT_YET_RECRUITING",
                    "city": "Doboj",
                    "country": "Bosnia and Herzegovina",
                    "geoPoint": {
                        "lat": 44.73179,
                        "lon": 18.08698
                    }
                },
                {
                    "facility": "Chiesi Clinical Trial - Site 070460",
                    "status": "NOT_YET_RECRUITING",
                    "city": "Mostar",
                    "country": "Bosnia and Herzegovina",
                    "geoPoint": {
                        "lat": 43.34333,
                        "lon": 17.80806
                    }
                },
                {
                    "facility": "Chiesi Clinical Trial - Site 070404",
                    "status": "NOT_YET_RECRUITING",
                    "city": "Pale",
                    "country": "Bosnia and Herzegovina",
                    "geoPoint": {
                        "lat": 43.81664,
                        "lon": 18.56949
                    }
                },
                {
                    "facility": "Chiesi Clinical Trial - Site 070405",
                    "status": "NOT_YET_RECRUITING",
                    "city": "Sarajevo",
                    "country": "Bosnia and Herzegovina",
                    "geoPoint": {
                        "lat": 43.84864,
                        "lon": 18.35644
                    }
                },
                {
                    "facility": "Chiesi Clinical Trial - Site 070406",
                    "status": "NOT_YET_RECRUITING",
                    "city": "Sarajevo",
                    "country": "Bosnia and Herzegovina",
                    "geoPoint": {
                        "lat": 43.84864,
                        "lon": 18.35644
                    }
                },
                {
                    "facility": "Chiesi Clinical Trial - Site 070403",
                    "status": "NOT_YET_RECRUITING",
                    "city": "Tesanj",
                    "country": "Bosnia and Herzegovina",
                    "geoPoint": {
                        "lat": 44.61191,
                        "lon": 17.98552
                    }
                },
                {
                    "facility": "Chiesi Clinical Trial - Site 070402",
                    "status": "NOT_YET_RECRUITING",
                    "city": "Tuzla",
                    "country": "Bosnia and Herzegovina",
                    "geoPoint": {
                        "lat": 44.53842,
                        "lon": 18.66709
                    }
                },
                {
                    "facility": "Chiesi Clinical Trial - Site 070463",
                    "status": "NOT_YET_RECRUITING",
                    "city": "Tuzla",
                    "country": "Bosnia and Herzegovina",
                    "geoPoint": {
                        "lat": 44.53842,
                        "lon": 18.66709
                    }
                },
                {
                    "facility": "Chiesi Clinical Trial - Site 100435",
                    "status": "RECRUITING",
                    "city": "Blagoevgrad",
                    "country": "Bulgaria",
                    "geoPoint": {
                        "lat": 42.01667,
                        "lon": 23.1
                    }
                },
                {
                    "facility": "Chiesi Clinical Trial - Site 100434",
                    "status": "ACTIVE_NOT_RECRUITING",
                    "city": "Dimitrovgrad",
                    "country": "Bulgaria",
                    "geoPoint": {
                        "lat": 42.05,
                        "lon": 25.6
                    }
                },
                {
                    "facility": "Chiesi Clinical Trial - Site 100453",
                    "status": "RECRUITING",
                    "city": "Gabrovo",
                    "country": "Bulgaria",
                    "geoPoint": {
                        "lat": 42.87472,
                        "lon": 25.33417
                    }
                },
                {
                    "facility": "Chiesi Clinical Trial - Site 100423",
                    "status": "RECRUITING",
                    "city": "Haskovo",
                    "country": "Bulgaria",
                    "geoPoint": {
                        "lat": 41.93415,
                        "lon": 25.55557
                    }
                },
                {
                    "facility": "Chiesi Clinical Trial - Site 100433",
                    "status": "RECRUITING",
                    "city": "Kozloduy",
                    "country": "Bulgaria",
                    "geoPoint": {
                        "lat": 43.77867,
                        "lon": 23.72067
                    }
                },
                {
                    "facility": "Chiesi Clinical Trial - Site 100455",
                    "status": "RECRUITING",
                    "city": "Lovech",
                    "country": "Bulgaria",
                    "geoPoint": {
                        "lat": 43.13333,
                        "lon": 24.71667
                    }
                },
                {
                    "facility": "Chiesi Clinical Trial - Site 100415",
                    "status": "RECRUITING",
                    "city": "Montana",
                    "country": "Bulgaria",
                    "geoPoint": {
                        "lat": 43.4125,
                        "lon": 23.225
                    }
                },
                {
                    "facility": "Chiesi Clinical Trial - Site 100432",
                    "status": "RECRUITING",
                    "city": "Pernik",
                    "country": "Bulgaria",
                    "geoPoint": {
                        "lat": 42.6,
                        "lon": 23.03333
                    }
                },
                {
                    "facility": "Chiesi Clinical Trial - Site 100422",
                    "status": "RECRUITING",
                    "city": "Pleven",
                    "country": "Bulgaria",
                    "geoPoint": {
                        "lat": 43.41667,
                        "lon": 24.61667
                    }
                },
                {
                    "facility": "Chiesi Clinical Trial - Site 100452",
                    "status": "RECRUITING",
                    "city": "Plovdiv",
                    "country": "Bulgaria",
                    "geoPoint": {
                        "lat": 42.15,
                        "lon": 24.75
                    }
                },
                {
                    "facility": "Chiesi Clinical Trial - Site 100456",
                    "status": "RECRUITING",
                    "city": "Plovdiv",
                    "country": "Bulgaria",
                    "geoPoint": {
                        "lat": 42.15,
                        "lon": 24.75
                    }
                },
                {
                    "facility": "Chiesi Clinical Trial - Site 100437",
                    "status": "RECRUITING",
                    "city": "Razgrad",
                    "country": "Bulgaria",
                    "geoPoint": {
                        "lat": 43.53333,
                        "lon": 26.51667
                    }
                },
                {
                    "facility": "Chiesi Clinical Trial - Site 100412",
                    "status": "RECRUITING",
                    "city": "Ruse",
                    "country": "Bulgaria",
                    "geoPoint": {
                        "lat": 43.85639,
                        "lon": 25.97083
                    }
                },
                {
                    "facility": "Chiesi Clinical Trial - Site 100416",
                    "status": "RECRUITING",
                    "city": "Ruse",
                    "country": "Bulgaria",
                    "geoPoint": {
                        "lat": 43.85639,
                        "lon": 25.97083
                    }
                },
                {
                    "facility": "Chiesi Clinical Trial - Site 100436",
                    "status": "RECRUITING",
                    "city": "Sevlievo",
                    "country": "Bulgaria",
                    "geoPoint": {
                        "lat": 43.02583,
                        "lon": 25.11361
                    }
                },
                {
                    "facility": "Chiesi Clinical Trial - Site 100460",
                    "status": "RECRUITING",
                    "city": "Sliven",
                    "country": "Bulgaria",
                    "geoPoint": {
                        "lat": 42.68583,
                        "lon": 26.32917
                    }
                },
                {
                    "facility": "Chiesi Clinical Trial - Site 100409",
                    "status": "RECRUITING",
                    "city": "Sofia",
                    "country": "Bulgaria",
                    "geoPoint": {
                        "lat": 42.69751,
                        "lon": 23.32415
                    }
                },
                {
                    "facility": "Chiesi Clinical Trial - Site 100414",
                    "status": "RECRUITING",
                    "city": "Sofia",
                    "country": "Bulgaria",
                    "geoPoint": {
                        "lat": 42.69751,
                        "lon": 23.32415
                    }
                },
                {
                    "facility": "Chiesi Clinical Trial - Site 100417",
                    "status": "RECRUITING",
                    "city": "Sofia",
                    "country": "Bulgaria",
                    "geoPoint": {
                        "lat": 42.69751,
                        "lon": 23.32415
                    }
                },
                {
                    "facility": "Chiesi Clinical Trial - Site 100418",
                    "status": "RECRUITING",
                    "city": "Sofia",
                    "country": "Bulgaria",
                    "geoPoint": {
                        "lat": 42.69751,
                        "lon": 23.32415
                    }
                },
                {
                    "facility": "Chiesi Clinical Trial - Site 100420",
                    "status": "RECRUITING",
                    "city": "Sofia",
                    "country": "Bulgaria",
                    "geoPoint": {
                        "lat": 42.69751,
                        "lon": 23.32415
                    }
                },
                {
                    "facility": "Chiesi Clinical Trial - Site 100430",
                    "status": "RECRUITING",
                    "city": "Sofia",
                    "country": "Bulgaria",
                    "geoPoint": {
                        "lat": 42.69751,
                        "lon": 23.32415
                    }
                },
                {
                    "facility": "Chiesi Clinical Trial - Site 100431",
                    "status": "RECRUITING",
                    "city": "Sofia",
                    "country": "Bulgaria",
                    "geoPoint": {
                        "lat": 42.69751,
                        "lon": 23.32415
                    }
                },
                {
                    "facility": "Chiesi Clinical Trial - Site 100438",
                    "status": "RECRUITING",
                    "city": "Sofia",
                    "country": "Bulgaria",
                    "geoPoint": {
                        "lat": 42.69751,
                        "lon": 23.32415
                    }
                },
                {
                    "facility": "Chiesi Clinical Trial - Site 100424",
                    "status": "RECRUITING",
                    "city": "Stara Zagora",
                    "country": "Bulgaria",
                    "geoPoint": {
                        "lat": 42.43278,
                        "lon": 25.64194
                    }
                },
                {
                    "facility": "Chiesi Clinical Trial - Site 100454",
                    "status": "RECRUITING",
                    "city": "Stara Zagora",
                    "country": "Bulgaria",
                    "geoPoint": {
                        "lat": 42.43278,
                        "lon": 25.64194
                    }
                },
                {
                    "facility": "Chiesi Clinical Trial - Site 100462",
                    "status": "RECRUITING",
                    "city": "Veliko Tarnovo",
                    "country": "Bulgaria",
                    "geoPoint": {
                        "lat": 43.08124,
                        "lon": 25.62904
                    }
                },
                {
                    "facility": "Chiesi Clinical Trial - Site 100419",
                    "status": "RECRUITING",
                    "city": "Vidin",
                    "country": "Bulgaria",
                    "geoPoint": {
                        "lat": 43.99,
                        "lon": 22.8725
                    }
                },
                {
                    "facility": "Chiesi Clinical Trial - Site 100457",
                    "status": "RECRUITING",
                    "city": "Vidin",
                    "country": "Bulgaria",
                    "geoPoint": {
                        "lat": 43.99,
                        "lon": 22.8725
                    }
                },
                {
                    "facility": "Chiesi Clinical Trial - Site 152406",
                    "status": "RECRUITING",
                    "city": "Concepcion",
                    "country": "Chile",
                    "geoPoint": {
                        "lat": -36.82699,
                        "lon": -73.04977
                    }
                },
                {
                    "facility": "Chiesi Clinical Trial - Site 152407",
                    "status": "RECRUITING",
                    "city": "Quillota",
                    "country": "Chile",
                    "geoPoint": {
                        "lat": -32.88341,
                        "lon": -71.24882
                    }
                },
                {
                    "facility": "Chiesi Clinical Trial - Site 152403",
                    "status": "RECRUITING",
                    "city": "Santiago",
                    "country": "Chile",
                    "geoPoint": {
                        "lat": -33.45694,
                        "lon": -70.64827
                    }
                },
                {
                    "facility": "Chiesi Clinical Trial - Site 152404",
                    "status": "RECRUITING",
                    "city": "Santiago",
                    "country": "Chile",
                    "geoPoint": {
                        "lat": -33.45694,
                        "lon": -70.64827
                    }
                },
                {
                    "facility": "Chiesi Clinical Trial - Site 152409",
                    "status": "RECRUITING",
                    "city": "Talca",
                    "country": "Chile",
                    "geoPoint": {
                        "lat": -35.4264,
                        "lon": -71.65542
                    }
                },
                {
                    "facility": "Chiesi Clinical Trial - Site 152401",
                    "status": "RECRUITING",
                    "city": "Valparaiso",
                    "country": "Chile",
                    "geoPoint": {
                        "lat": -33.03932,
                        "lon": -71.62725
                    }
                },
                {
                    "facility": "Chiesi Clinical Trial - Site 156473",
                    "status": "NOT_YET_RECRUITING",
                    "city": "Baotou",
                    "country": "China",
                    "geoPoint": {
                        "lat": 40.65222,
                        "lon": 109.82222
                    }
                },
                {
                    "facility": "Chiesi Clinical Trial - Site 156507",
                    "status": "RECRUITING",
                    "city": "Baotou",
                    "country": "China",
                    "geoPoint": {
                        "lat": 40.65222,
                        "lon": 109.82222
                    }
                },
                {
                    "facility": "Chiesi Clinical Trial - Site 156474",
                    "status": "NOT_YET_RECRUITING",
                    "city": "Beijing",
                    "country": "China",
                    "geoPoint": {
                        "lat": 39.9075,
                        "lon": 116.39723
                    }
                },
                {
                    "facility": "Chiesi Clinical Trial - Site 156489",
                    "status": "NOT_YET_RECRUITING",
                    "city": "Beijing",
                    "country": "China",
                    "geoPoint": {
                        "lat": 39.9075,
                        "lon": 116.39723
                    }
                },
                {
                    "facility": "Chiesi Clinical Trial - Site 156509",
                    "status": "NOT_YET_RECRUITING",
                    "city": "Beijing",
                    "country": "China",
                    "geoPoint": {
                        "lat": 39.9075,
                        "lon": 116.39723
                    }
                },
                {
                    "facility": "Chiesi Clinical Trial - Site 156501",
                    "status": "RECRUITING",
                    "city": "Changchun",
                    "country": "China",
                    "geoPoint": {
                        "lat": 43.88,
                        "lon": 125.32278
                    }
                },
                {
                    "facility": "Chiesi Clinical Trial - Site 156455",
                    "status": "RECRUITING",
                    "city": "Changsha",
                    "country": "China",
                    "geoPoint": {
                        "lat": 28.19874,
                        "lon": 112.97087
                    }
                },
                {
                    "facility": "Chiesi Clinical Trial - Site 156488",
                    "status": "NOT_YET_RECRUITING",
                    "city": "Changsha",
                    "country": "China",
                    "geoPoint": {
                        "lat": 28.19874,
                        "lon": 112.97087
                    }
                },
                {
                    "facility": "Chiesi Clinical Trial - Site 156451",
                    "status": "NOT_YET_RECRUITING",
                    "city": "Chengdu",
                    "country": "China",
                    "geoPoint": {
                        "lat": 30.66667,
                        "lon": 104.06667
                    }
                },
                {
                    "facility": "Chiesi Clinical Trial - Site 156490",
                    "status": "NOT_YET_RECRUITING",
                    "city": "Chengdu",
                    "country": "China",
                    "geoPoint": {
                        "lat": 30.66667,
                        "lon": 104.06667
                    }
                },
                {
                    "facility": "Chiesi Clinical Trial - Site 156463",
                    "status": "RECRUITING",
                    "city": "Chongqing",
                    "country": "China",
                    "geoPoint": {
                        "lat": 29.56278,
                        "lon": 106.55278
                    }
                },
                {
                    "facility": "Chiesi Clinical Trial - Site 156511",
                    "status": "RECRUITING",
                    "city": "Chongqing",
                    "country": "China",
                    "geoPoint": {
                        "lat": 29.56278,
                        "lon": 106.55278
                    }
                },
                {
                    "facility": "Chiesi Clinical Trial - Site 156452",
                    "status": "NOT_YET_RECRUITING",
                    "city": "Guangzhou",
                    "country": "China",
                    "geoPoint": {
                        "lat": 23.11667,
                        "lon": 113.25
                    }
                },
                {
                    "facility": "Chiesi Clinical Trial - Site 156460",
                    "status": "RECRUITING",
                    "city": "Guangzhou",
                    "country": "China",
                    "geoPoint": {
                        "lat": 23.11667,
                        "lon": 113.25
                    }
                },
                {
                    "facility": "Chiesi Clinical Trial - Site 156471",
                    "status": "RECRUITING",
                    "city": "Guangzhou",
                    "country": "China",
                    "geoPoint": {
                        "lat": 23.11667,
                        "lon": 113.25
                    }
                },
                {
                    "facility": "Chiesi Clinical Trial - Site 156472",
                    "status": "NOT_YET_RECRUITING",
                    "city": "Guangzhou",
                    "country": "China",
                    "geoPoint": {
                        "lat": 23.11667,
                        "lon": 113.25
                    }
                },
                {
                    "facility": "Chiesi Clinical Trial - Site 156494",
                    "status": "NOT_YET_RECRUITING",
                    "city": "Guangzhou",
                    "country": "China",
                    "geoPoint": {
                        "lat": 23.11667,
                        "lon": 113.25
                    }
                },
                {
                    "facility": "Chiesi Clinical Trial - Site 156504",
                    "status": "NOT_YET_RECRUITING",
                    "city": "Guangzhou",
                    "country": "China",
                    "geoPoint": {
                        "lat": 23.11667,
                        "lon": 113.25
                    }
                },
                {
                    "facility": "Chiesi Clinical Trial - Site 156468",
                    "status": "NOT_YET_RECRUITING",
                    "city": "Haikou",
                    "country": "China",
                    "geoPoint": {
                        "lat": 20.04583,
                        "lon": 110.34167
                    }
                },
                {
                    "facility": "Chiesi Clinical Trial - Site 156498",
                    "status": "NOT_YET_RECRUITING",
                    "city": "Hangzhou",
                    "country": "China",
                    "geoPoint": {
                        "lat": 30.29365,
                        "lon": 120.16142
                    }
                },
                {
                    "facility": "Chiesi Clinical Trial - Site 156500",
                    "status": "NOT_YET_RECRUITING",
                    "city": "Hangzhou",
                    "country": "China",
                    "geoPoint": {
                        "lat": 30.29365,
                        "lon": 120.16142
                    }
                },
                {
                    "facility": "Chiesi Clinical Trial - Site 156510",
                    "status": "NOT_YET_RECRUITING",
                    "city": "Harbin",
                    "country": "China",
                    "geoPoint": {
                        "lat": 45.75,
                        "lon": 126.65
                    }
                },
                {
                    "facility": "Chiesi Clinical Trial - Site 156486",
                    "status": "NOT_YET_RECRUITING",
                    "city": "Hefei",
                    "country": "China",
                    "geoPoint": {
                        "lat": 31.86389,
                        "lon": 117.28083
                    }
                },
                {
                    "facility": "Chiesi Clinical Trial - Site 156503",
                    "status": "NOT_YET_RECRUITING",
                    "city": "Hefei",
                    "country": "China",
                    "geoPoint": {
                        "lat": 31.86389,
                        "lon": 117.28083
                    }
                },
                {
                    "facility": "Chiesi Clinical Trial - Site 156483",
                    "status": "NOT_YET_RECRUITING",
                    "city": "Hengyang",
                    "country": "China",
                    "geoPoint": {
                        "lat": 26.88946,
                        "lon": 112.61888
                    }
                },
                {
                    "facility": "Chiesi Clinical Trial - Site 156495",
                    "status": "NOT_YET_RECRUITING",
                    "city": "Huanghou",
                    "country": "China"
                },
                {
                    "facility": "Chiesi Clinical Trial - Site 156506",
                    "status": "NOT_YET_RECRUITING",
                    "city": "Huizhou",
                    "country": "China",
                    "geoPoint": {
                        "lat": 23.11147,
                        "lon": 114.41523
                    }
                },
                {
                    "facility": "Chiesi Clinical Trial - Site 156456",
                    "status": "RECRUITING",
                    "city": "Jinan",
                    "country": "China",
                    "geoPoint": {
                        "lat": 36.66833,
                        "lon": 116.99722
                    }
                },
                {
                    "facility": "Chiesi Clinical Trial - Site 156485",
                    "status": "NOT_YET_RECRUITING",
                    "city": "Jinhua",
                    "country": "China",
                    "geoPoint": {
                        "lat": 29.10678,
                        "lon": 119.64421
                    }
                },
                {
                    "facility": "Chiesi Clinical Trial - Site 156454",
                    "status": "RECRUITING",
                    "city": "Liaoyang",
                    "country": "China",
                    "geoPoint": {
                        "lat": 41.27194,
                        "lon": 123.17306
                    }
                },
                {
                    "facility": "Chiesi Clinical Trial - Site 156453",
                    "status": "RECRUITING",
                    "city": "Nanchang",
                    "country": "China",
                    "geoPoint": {
                        "lat": 28.68396,
                        "lon": 115.85306
                    }
                },
                {
                    "facility": "Chiesi Clinical Trial - Site 156467",
                    "status": "RECRUITING",
                    "city": "Nanchang",
                    "country": "China",
                    "geoPoint": {
                        "lat": 28.68396,
                        "lon": 115.85306
                    }
                },
                {
                    "facility": "Chiesi Clinical Trial - Site 156484",
                    "status": "RECRUITING",
                    "city": "Nanjing",
                    "country": "China",
                    "geoPoint": {
                        "lat": 32.06167,
                        "lon": 118.77778
                    }
                },
                {
                    "facility": "Chiesi Clinical Trial - Site 156496",
                    "status": "NOT_YET_RECRUITING",
                    "city": "Nanjing",
                    "country": "China",
                    "geoPoint": {
                        "lat": 32.06167,
                        "lon": 118.77778
                    }
                },
                {
                    "facility": "Chiesi Clinical Trial - Site 156497",
                    "status": "NOT_YET_RECRUITING",
                    "city": "Nanjing",
                    "country": "China",
                    "geoPoint": {
                        "lat": 32.06167,
                        "lon": 118.77778
                    }
                },
                {
                    "facility": "Chiesi Clinical Trial - Site 156481",
                    "status": "RECRUITING",
                    "city": "Pingxiang",
                    "country": "China",
                    "geoPoint": {
                        "lat": 27.61672,
                        "lon": 113.85353
                    }
                },
                {
                    "facility": "Chiesi Clinical Trial - Site 156464",
                    "status": "RECRUITING",
                    "city": "Qingyuan",
                    "country": "China",
                    "geoPoint": {
                        "lat": 23.7,
                        "lon": 113.03333
                    }
                },
                {
                    "facility": "Chiesi Clinical Trial - Site 156458",
                    "status": "NOT_YET_RECRUITING",
                    "city": "Shanghai",
                    "country": "China",
                    "geoPoint": {
                        "lat": 31.22222,
                        "lon": 121.45806
                    }
                },
                {
                    "facility": "Chiesi Clinical Trial - Site 156461",
                    "status": "RECRUITING",
                    "city": "Shanghai",
                    "country": "China",
                    "geoPoint": {
                        "lat": 31.22222,
                        "lon": 121.45806
                    }
                },
                {
                    "facility": "Chiesi Clinical Trial - Site 156475",
                    "status": "RECRUITING",
                    "city": "Shanghai",
                    "country": "China",
                    "geoPoint": {
                        "lat": 31.22222,
                        "lon": 121.45806
                    }
                },
                {
                    "facility": "Chiesi Clinical Trial - Site 156476",
                    "status": "NOT_YET_RECRUITING",
                    "city": "Shanghai",
                    "country": "China",
                    "geoPoint": {
                        "lat": 31.22222,
                        "lon": 121.45806
                    }
                },
                {
                    "facility": "Chiesi Clinical Trial - Site 156477",
                    "status": "NOT_YET_RECRUITING",
                    "city": "Shanghai",
                    "country": "China",
                    "geoPoint": {
                        "lat": 31.22222,
                        "lon": 121.45806
                    }
                },
                {
                    "facility": "Chiesi Clinical Trial - Site 156487",
                    "status": "NOT_YET_RECRUITING",
                    "city": "Shanghai",
                    "country": "China",
                    "geoPoint": {
                        "lat": 31.22222,
                        "lon": 121.45806
                    }
                },
                {
                    "facility": "Chiesi Clinical Trial - Site 156457",
                    "status": "NOT_YET_RECRUITING",
                    "city": "Suzhou",
                    "country": "China",
                    "geoPoint": {
                        "lat": 31.30408,
                        "lon": 120.59538
                    }
                },
                {
                    "facility": "Chiesi Clinical Trial - Site 156499",
                    "status": "RECRUITING",
                    "city": "Taiyuan",
                    "country": "China",
                    "geoPoint": {
                        "lat": 37.86944,
                        "lon": 112.56028
                    }
                },
                {
                    "facility": "Chiesi Clinical Trial - Site 156469",
                    "status": "RECRUITING",
                    "city": "Taizhou",
                    "country": "China",
                    "geoPoint": {
                        "lat": 32.49069,
                        "lon": 119.90812
                    }
                },
                {
                    "facility": "Chiesi Clinical Trial - Site 156465",
                    "status": "NOT_YET_RECRUITING",
                    "city": "Tianjin",
                    "country": "China",
                    "geoPoint": {
                        "lat": 39.14222,
                        "lon": 117.17667
                    }
                },
                {
                    "facility": "Chiesi Clinical Trial - Site 156480",
                    "status": "RECRUITING",
                    "city": "Tianjin",
                    "country": "China",
                    "geoPoint": {
                        "lat": 39.14222,
                        "lon": 117.17667
                    }
                },
                {
                    "facility": "Chiesi Clinical Trial - Site 156491",
                    "status": "NOT_YET_RECRUITING",
                    "city": "Wuhan",
                    "country": "China",
                    "geoPoint": {
                        "lat": 30.58333,
                        "lon": 114.26667
                    }
                },
                {
                    "facility": "Chiesi Clinical Trial - Site 156505",
                    "status": "RECRUITING",
                    "city": "Wuhan",
                    "country": "China",
                    "geoPoint": {
                        "lat": 30.58333,
                        "lon": 114.26667
                    }
                },
                {
                    "facility": "Chiesi Clinical Trial - Site 156492",
                    "status": "NOT_YET_RECRUITING",
                    "city": "Wuxi",
                    "country": "China",
                    "geoPoint": {
                        "lat": 31.56887,
                        "lon": 120.28857
                    }
                },
                {
                    "facility": "Chiesi Clinical Trial - Site 156493",
                    "status": "RECRUITING",
                    "city": "Wuxi",
                    "country": "China",
                    "geoPoint": {
                        "lat": 31.56887,
                        "lon": 120.28857
                    }
                },
                {
                    "facility": "Chiesi Clinical Trial - Site 156470",
                    "status": "RECRUITING",
                    "city": "Xiangtan",
                    "country": "China",
                    "geoPoint": {
                        "lat": 27.85,
                        "lon": 112.9
                    }
                },
                {
                    "facility": "Chiesi Clinical Trial - Site 156482",
                    "status": "NOT_YET_RECRUITING",
                    "city": "Xining",
                    "country": "China",
                    "geoPoint": {
                        "lat": 36.62554,
                        "lon": 101.75739
                    }
                },
                {
                    "facility": "Chiesi Clinical Trial - Site 156478",
                    "status": "RECRUITING",
                    "city": "Xinxiang",
                    "country": "China",
                    "geoPoint": {
                        "lat": 35.19033,
                        "lon": 113.80151
                    }
                },
                {
                    "facility": "Chiesi Clinical Trial - Site 156466",
                    "status": "RECRUITING",
                    "city": "Xuzhou",
                    "country": "China",
                    "geoPoint": {
                        "lat": 34.18045,
                        "lon": 117.15707
                    }
                },
                {
                    "facility": "Chiesi Clinical Trial - Site 156479",
                    "status": "RECRUITING",
                    "city": "Xuzhou",
                    "country": "China",
                    "geoPoint": {
                        "lat": 34.18045,
                        "lon": 117.15707
                    }
                },
                {
                    "facility": "Chiesi Clinical Trial - Site 156508",
                    "status": "NOT_YET_RECRUITING",
                    "city": "Yanji",
                    "country": "China",
                    "geoPoint": {
                        "lat": 42.9075,
                        "lon": 129.50778
                    }
                },
                {
                    "facility": "Chiesi Clinical Trial - Site 156459",
                    "status": "RECRUITING",
                    "city": "Yiyang",
                    "country": "China",
                    "geoPoint": {
                        "lat": 28.58917,
                        "lon": 112.32833
                    }
                },
                {
                    "facility": "Chiesi Clinical Trial - Site 156462",
                    "status": "NOT_YET_RECRUITING",
                    "city": "Zhanjiang",
                    "country": "China",
                    "geoPoint": {
                        "lat": 21.28145,
                        "lon": 110.34271
                    }
                },
                {
                    "facility": "Chiesi Clinical Trial - Site 203406",
                    "status": "RECRUITING",
                    "city": "Brandys nad Labem",
                    "country": "Czechia",
                    "geoPoint": {
                        "lat": 50.18356,
                        "lon": 14.67244
                    }
                },
                {
                    "facility": "Chiesi Clinical Trial - Site 203418",
                    "status": "RECRUITING",
                    "city": "Havlickuv Brod",
                    "country": "Czechia",
                    "geoPoint": {
                        "lat": 49.60785,
                        "lon": 15.58069
                    }
                },
                {
                    "facility": "Chiesi Clinical Trial - Site 203401",
                    "status": "RECRUITING",
                    "city": "Jindrichuv Hradec",
                    "country": "Czechia",
                    "geoPoint": {
                        "lat": 49.14404,
                        "lon": 15.00301
                    }
                },
                {
                    "facility": "Chiesi Clinical Trial - Site 203410",
                    "status": "RECRUITING",
                    "city": "Lovosice",
                    "country": "Czechia",
                    "geoPoint": {
                        "lat": 50.51504,
                        "lon": 14.05103
                    }
                },
                {
                    "facility": "Chiesi Clinical Trial - Site 203417",
                    "status": "RECRUITING",
                    "city": "Mesice",
                    "country": "Czechia",
                    "geoPoint": {
                        "lat": 50.19799,
                        "lon": 14.51992
                    }
                },
                {
                    "facility": "Chiesi Clinical Trial - Site 203404",
                    "status": "RECRUITING",
                    "city": "Miroslav",
                    "country": "Czechia",
                    "geoPoint": {
                        "lat": 48.94767,
                        "lon": 16.31252
                    }
                },
                {
                    "facility": "Chiesi Clinical Trial - Site 203416",
                    "status": "RECRUITING",
                    "city": "Mlada Boleslav",
                    "country": "Czechia",
                    "geoPoint": {
                        "lat": 50.41135,
                        "lon": 14.90318
                    }
                },
                {
                    "facility": "Chiesi Clinical Trial - Site 203453",
                    "status": "RECRUITING",
                    "city": "Olomouc",
                    "country": "Czechia",
                    "geoPoint": {
                        "lat": 49.59552,
                        "lon": 17.25175
                    }
                },
                {
                    "facility": "Chiesi Clinical Trial - Site 203452",
                    "status": "NOT_YET_RECRUITING",
                    "city": "Prague",
                    "country": "Czechia",
                    "geoPoint": {
                        "lat": 50.08804,
                        "lon": 14.42076
                    }
                },
                {
                    "facility": "Chiesi Clinical Trial - Site 203405",
                    "status": "RECRUITING",
                    "city": "Praha",
                    "country": "Czechia",
                    "geoPoint": {
                        "lat": 50.08804,
                        "lon": 14.42076
                    }
                },
                {
                    "facility": "Chiesi Clinical Trial - Site 203407",
                    "status": "RECRUITING",
                    "city": "Praha",
                    "country": "Czechia",
                    "geoPoint": {
                        "lat": 50.08804,
                        "lon": 14.42076
                    }
                },
                {
                    "facility": "Chiesi Clinical Trial - Site 203413",
                    "status": "RECRUITING",
                    "city": "Praha",
                    "country": "Czechia",
                    "geoPoint": {
                        "lat": 50.08804,
                        "lon": 14.42076
                    }
                },
                {
                    "facility": "Chiesi Clinical Trial - Site 203415",
                    "status": "RECRUITING",
                    "city": "Praha",
                    "country": "Czechia",
                    "geoPoint": {
                        "lat": 50.08804,
                        "lon": 14.42076
                    }
                },
                {
                    "facility": "Chiesi Clinical Trial - Site 203402",
                    "status": "RECRUITING",
                    "city": "Strakonice",
                    "country": "Czechia",
                    "geoPoint": {
                        "lat": 49.26141,
                        "lon": 13.90237
                    }
                },
                {
                    "facility": "Chiesi Clinical Trial - Site 203451",
                    "status": "RECRUITING",
                    "city": "Tabor",
                    "country": "Czechia",
                    "geoPoint": {
                        "lat": 49.41441,
                        "lon": 14.6578
                    }
                },
                {
                    "facility": "Chiesi Clinical Trial - Site 203412",
                    "status": "RECRUITING",
                    "city": "Varnsdorf",
                    "country": "Czechia",
                    "geoPoint": {
                        "lat": 50.91154,
                        "lon": 14.61824
                    }
                },
                {
                    "facility": "Chiesi Clinical Trial - Site 268451",
                    "status": "RECRUITING",
                    "city": "Tbilisi",
                    "country": "Georgia",
                    "geoPoint": {
                        "lat": 41.69411,
                        "lon": 44.83368
                    }
                },
                {
                    "facility": "Chiesi Clinical Trial - Site 268452",
                    "status": "NOT_YET_RECRUITING",
                    "city": "Tbilisi",
                    "country": "Georgia",
                    "geoPoint": {
                        "lat": 41.69411,
                        "lon": 44.83368
                    }
                },
                {
                    "facility": "Chiesi Clinical Trial - Site 268453",
                    "status": "NOT_YET_RECRUITING",
                    "city": "Tbilisi",
                    "country": "Georgia",
                    "geoPoint": {
                        "lat": 41.69411,
                        "lon": 44.83368
                    }
                },
                {
                    "facility": "Chiesi Clinical Trial - Site 268454",
                    "status": "NOT_YET_RECRUITING",
                    "city": "Tbilisi",
                    "country": "Georgia",
                    "geoPoint": {
                        "lat": 41.69411,
                        "lon": 44.83368
                    }
                },
                {
                    "facility": "Chiesi Clinical Trial - Site 268455",
                    "status": "NOT_YET_RECRUITING",
                    "city": "Tbilisi",
                    "country": "Georgia",
                    "geoPoint": {
                        "lat": 41.69411,
                        "lon": 44.83368
                    }
                },
                {
                    "facility": "Chiesi Clinical Trial - Site 268456",
                    "status": "NOT_YET_RECRUITING",
                    "city": "Tbilisi",
                    "country": "Georgia",
                    "geoPoint": {
                        "lat": 41.69411,
                        "lon": 44.83368
                    }
                },
                {
                    "facility": "Chiesi Clinical Trial - Site 268457",
                    "status": "NOT_YET_RECRUITING",
                    "city": "Tbilisi",
                    "country": "Georgia",
                    "geoPoint": {
                        "lat": 41.69411,
                        "lon": 44.83368
                    }
                },
                {
                    "facility": "Chiesi Clinical Trial - Site 276462",
                    "status": "RECRUITING",
                    "city": "Bamberg",
                    "country": "Germany",
                    "geoPoint": {
                        "lat": 49.89873,
                        "lon": 10.90067
                    }
                },
                {
                    "facility": "Chiesi Clinical Trial - Site 276405",
                    "status": "RECRUITING",
                    "city": "Berlin",
                    "country": "Germany",
                    "geoPoint": {
                        "lat": 52.52437,
                        "lon": 13.41053
                    }
                },
                {
                    "facility": "Chiesi Clinical Trial - Site 276406",
                    "status": "RECRUITING",
                    "city": "Berlin",
                    "country": "Germany",
                    "geoPoint": {
                        "lat": 52.52437,
                        "lon": 13.41053
                    }
                },
                {
                    "facility": "Chiesi Clinical Trial - Site 276410",
                    "status": "RECRUITING",
                    "city": "Berlin",
                    "country": "Germany",
                    "geoPoint": {
                        "lat": 52.52437,
                        "lon": 13.41053
                    }
                },
                {
                    "facility": "Chiesi Clinical Trial - Site 276411",
                    "status": "RECRUITING",
                    "city": "Berlin",
                    "country": "Germany",
                    "geoPoint": {
                        "lat": 52.52437,
                        "lon": 13.41053
                    }
                },
                {
                    "facility": "Chiesi Clinical Trial - Site 276415",
                    "status": "ACTIVE_NOT_RECRUITING",
                    "city": "Berlin",
                    "country": "Germany",
                    "geoPoint": {
                        "lat": 52.52437,
                        "lon": 13.41053
                    }
                },
                {
                    "facility": "Chiesi Clinical Trial - Site 276452",
                    "status": "RECRUITING",
                    "city": "Berlin",
                    "country": "Germany",
                    "geoPoint": {
                        "lat": 52.52437,
                        "lon": 13.41053
                    }
                },
                {
                    "facility": "Chiesi Clinical Trial - Site 276453",
                    "status": "RECRUITING",
                    "city": "Berlin",
                    "country": "Germany",
                    "geoPoint": {
                        "lat": 52.52437,
                        "lon": 13.41053
                    }
                },
                {
                    "facility": "Chiesi Clinical Trial - Site 276457",
                    "status": "RECRUITING",
                    "city": "Berlin",
                    "country": "Germany",
                    "geoPoint": {
                        "lat": 52.52437,
                        "lon": 13.41053
                    }
                },
                {
                    "facility": "Chiesi Clinical Trial - Site 276456",
                    "status": "RECRUITING",
                    "city": "Cottbus",
                    "country": "Germany",
                    "geoPoint": {
                        "lat": 51.75769,
                        "lon": 14.32888
                    }
                },
                {
                    "facility": "Chiesi Clinical Trial - Site 276409",
                    "status": "RECRUITING",
                    "city": "Darmstadt",
                    "country": "Germany",
                    "geoPoint": {
                        "lat": 49.87167,
                        "lon": 8.65027
                    }
                },
                {
                    "facility": "Chiesi Clinical Trial - Site 276403",
                    "status": "RECRUITING",
                    "city": "Delitzsch",
                    "country": "Germany",
                    "geoPoint": {
                        "lat": 51.52546,
                        "lon": 12.34284
                    }
                },
                {
                    "facility": "Chiesi Clinical Trial - Site 276455",
                    "status": "RECRUITING",
                    "city": "Essen",
                    "country": "Germany",
                    "geoPoint": {
                        "lat": 51.45657,
                        "lon": 7.01228
                    }
                },
                {
                    "facility": "Chiesi Clinical Trial - Site 276404",
                    "status": "RECRUITING",
                    "city": "Frankfurt",
                    "country": "Germany",
                    "geoPoint": {
                        "lat": 50.11552,
                        "lon": 8.68417
                    }
                },
                {
                    "facility": "Chiesi Clinical Trial - Site 276401",
                    "status": "RECRUITING",
                    "city": "Hamburg",
                    "country": "Germany",
                    "geoPoint": {
                        "lat": 53.57532,
                        "lon": 10.01534
                    }
                },
                {
                    "facility": "Chiesi Clinical Trial - Site 276413",
                    "status": "RECRUITING",
                    "city": "Hamburg",
                    "country": "Germany",
                    "geoPoint": {
                        "lat": 53.57532,
                        "lon": 10.01534
                    }
                },
                {
                    "facility": "Chiesi Clinical Trial - Site 276463",
                    "status": "ACTIVE_NOT_RECRUITING",
                    "city": "Hannover",
                    "country": "Germany",
                    "geoPoint": {
                        "lat": 52.37052,
                        "lon": 9.73322
                    }
                },
                {
                    "facility": "Chiesi Clinical Trial - Site 276417",
                    "status": "RECRUITING",
                    "city": "Koblenz",
                    "country": "Germany",
                    "geoPoint": {
                        "lat": 50.35357,
                        "lon": 7.57883
                    }
                },
                {
                    "facility": "Chiesi Clinical Trial - Site 276402",
                    "status": "RECRUITING",
                    "city": "Leipzig",
                    "country": "Germany",
                    "geoPoint": {
                        "lat": 51.33962,
                        "lon": 12.37129
                    }
                },
                {
                    "facility": "Chiesi Clinical Trial - Site 276416",
                    "status": "RECRUITING",
                    "city": "Leipzig",
                    "country": "Germany",
                    "geoPoint": {
                        "lat": 51.33962,
                        "lon": 12.37129
                    }
                },
                {
                    "facility": "Chiesi Clinical Trial - Site 276461",
                    "status": "RECRUITING",
                    "city": "Leipzig",
                    "country": "Germany",
                    "geoPoint": {
                        "lat": 51.33962,
                        "lon": 12.37129
                    }
                },
                {
                    "facility": "Chiesi Clinical Trial - Site 276407",
                    "status": "RECRUITING",
                    "city": "Mainz",
                    "country": "Germany",
                    "geoPoint": {
                        "lat": 49.98419,
                        "lon": 8.2791
                    }
                },
                {
                    "facility": "Chiesi Clinical Trial - Site 276408",
                    "status": "RECRUITING",
                    "city": "Munich",
                    "country": "Germany",
                    "geoPoint": {
                        "lat": 48.13743,
                        "lon": 11.57549
                    }
                },
                {
                    "facility": "Chiesi Clinical Trial - Site 276459",
                    "status": "RECRUITING",
                    "city": "M\u00fcnster",
                    "country": "Germany",
                    "geoPoint": {
                        "lat": 51.96236,
                        "lon": 7.62571
                    }
                },
                {
                    "facility": "Chiesi Clinical Trial - Site 276418",
                    "status": "RECRUITING",
                    "city": "Peine",
                    "country": "Germany",
                    "geoPoint": {
                        "lat": 52.31928,
                        "lon": 10.2352
                    }
                },
                {
                    "facility": "Chiesi Clinical Trial - Site 276464",
                    "status": "ACTIVE_NOT_RECRUITING",
                    "city": "Schleswig",
                    "country": "Germany",
                    "geoPoint": {
                        "lat": 54.52156,
                        "lon": 9.5586
                    }
                },
                {
                    "facility": "Chiesi Clinical Trial - Site 300406",
                    "status": "RECRUITING",
                    "city": "Athens",
                    "country": "Greece",
                    "geoPoint": {
                        "lat": 37.97945,
                        "lon": 23.71622
                    }
                },
                {
                    "facility": "Chiesi Clinical Trial - Site 300401",
                    "status": "RECRUITING",
                    "city": "Heraklion",
                    "country": "Greece",
                    "geoPoint": {
                        "lat": 35.32787,
                        "lon": 25.14341
                    }
                },
                {
                    "facility": "Chiesi Clinical Trial - Site 300403",
                    "status": "RECRUITING",
                    "city": "Ioannina",
                    "country": "Greece",
                    "geoPoint": {
                        "lat": 39.66486,
                        "lon": 20.85189
                    }
                },
                {
                    "facility": "Chiesi Clinical Trial - Site 300404",
                    "status": "RECRUITING",
                    "city": "Thessaloniki",
                    "country": "Greece",
                    "geoPoint": {
                        "lat": 40.64361,
                        "lon": 22.93086
                    }
                },
                {
                    "facility": "Chiesi Clinical Trial - Site 300405",
                    "status": "RECRUITING",
                    "city": "Thessaloniki",
                    "country": "Greece",
                    "geoPoint": {
                        "lat": 40.64361,
                        "lon": 22.93086
                    }
                },
                {
                    "facility": "Chiesi Clinical Trial - Site 300407",
                    "status": "RECRUITING",
                    "city": "Volos",
                    "country": "Greece",
                    "geoPoint": {
                        "lat": 39.36103,
                        "lon": 22.94248
                    }
                },
                {
                    "facility": "Chiesi Clinical Trial - Site 348406",
                    "status": "RECRUITING",
                    "city": "Balassagyarmat",
                    "country": "Hungary",
                    "geoPoint": {
                        "lat": 48.07296,
                        "lon": 19.29614
                    }
                },
                {
                    "facility": "Chiesi Clinical Trial - Site 348401",
                    "status": "ACTIVE_NOT_RECRUITING",
                    "city": "Budapest",
                    "country": "Hungary",
                    "geoPoint": {
                        "lat": 47.49801,
                        "lon": 19.03991
                    }
                },
                {
                    "facility": "Chiesi Clinical Trial - Site 348457",
                    "status": "RECRUITING",
                    "city": "Budapest",
                    "country": "Hungary",
                    "geoPoint": {
                        "lat": 47.49801,
                        "lon": 19.03991
                    }
                },
                {
                    "facility": "Chiesi Clinical Trial - Site 348459",
                    "status": "RECRUITING",
                    "city": "Budapest",
                    "country": "Hungary",
                    "geoPoint": {
                        "lat": 47.49801,
                        "lon": 19.03991
                    }
                },
                {
                    "facility": "Chiesi Clinical Trial - Site 348405",
                    "status": "RECRUITING",
                    "city": "Csorna",
                    "country": "Hungary",
                    "geoPoint": {
                        "lat": 47.61155,
                        "lon": 17.25012
                    }
                },
                {
                    "facility": "Chiesi Clinical Trial - Site 348412",
                    "status": "RECRUITING",
                    "city": "Edel\u00e9ny",
                    "country": "Hungary",
                    "geoPoint": {
                        "lat": 48.3,
                        "lon": 20.73333
                    }
                },
                {
                    "facility": "Chiesi Clinical Trial - Site 348408",
                    "status": "RECRUITING",
                    "city": "Godollo",
                    "country": "Hungary",
                    "geoPoint": {
                        "lat": 47.59657,
                        "lon": 19.35515
                    }
                },
                {
                    "facility": "Chiesi Clinical Trial - Site 348451",
                    "status": "RECRUITING",
                    "city": "Gyula",
                    "country": "Hungary",
                    "geoPoint": {
                        "lat": 46.65,
                        "lon": 21.28333
                    }
                },
                {
                    "facility": "Chiesi Clinical Trial - Site 348409",
                    "status": "RECRUITING",
                    "city": "Monor",
                    "country": "Hungary",
                    "geoPoint": {
                        "lat": 47.35133,
                        "lon": 19.44733
                    }
                },
                {
                    "facility": "Chiesi Clinical Trial - Site 348407",
                    "status": "RECRUITING",
                    "city": "Ny\u00edregyh\u00e1za",
                    "country": "Hungary",
                    "geoPoint": {
                        "lat": 47.95539,
                        "lon": 21.71671
                    }
                },
                {
                    "facility": "Chiesi Clinical Trial - Site 348413",
                    "status": "RECRUITING",
                    "city": "P\u00e9cs",
                    "country": "Hungary",
                    "geoPoint": {
                        "lat": 46.08333,
                        "lon": 18.23333
                    }
                },
                {
                    "facility": "Chiesi Clinical Trial - Site 348452",
                    "status": "RECRUITING",
                    "city": "Sellye",
                    "country": "Hungary",
                    "geoPoint": {
                        "lat": 45.87247,
                        "lon": 17.84711
                    }
                },
                {
                    "facility": "Chiesi Clinical Trial - Site 348410",
                    "status": "RECRUITING",
                    "city": "Szeged",
                    "country": "Hungary",
                    "geoPoint": {
                        "lat": 46.253,
                        "lon": 20.14824
                    }
                },