{
    "protocolSection": {
        "identificationModule": {
            "nctId": "NCT06092970",
            "orgStudyIdInfo": {
                "id": "REN-007E"
            },
            "organization": {
                "fullName": "Renibus Therapeutics, Inc.",
                "class": "INDUSTRY"
            },
            "briefTitle": "An Evaluation of Patient Reported Outcomes and Clinical Outcomes",
            "officialTitle": "Clinical Protocol REN-007E - Extension Study: An Evaluation of Patient Reported Outcomes and Clinical Outcomes Through 12 Months Post-Cardiac Surgery in Patients Enrolled in Study REN-007",
            "therapeuticArea": [
                "Cardiovascular"
            ],
            "study": "an-evaluation-of-patient-reported-outcomes-and-clinical-outcomes"
        },
        "statusModule": {
            "statusVerifiedDate": "2024-07",
            "overallStatus": "RECRUITING",
            "expandedAccessInfo": {
                "hasExpandedAccess": false
            },
            "startDateStruct": {
                "date": "2023-10-16",
                "type": "ACTUAL"
            },
            "primaryCompletionDateStruct": {
                "date": "2026-06-30",
                "type": "ESTIMATED"
            },
            "completionDateStruct": {
                "date": "2026-06-30",
                "type": "ESTIMATED"
            },
            "studyFirstSubmitDate": "2023-10-03",
            "studyFirstSubmitQcDate": "2023-10-16",
            "studyFirstPostDateStruct": {
                "date": "2023-10-23",
                "type": "ACTUAL"
            },
            "lastUpdateSubmitDate": "2024-07-10",
            "lastUpdatePostDateStruct": {
                "date": "2024-07-11",
                "type": "ACTUAL"
            }
        },
        "sponsorCollaboratorsModule": {
            "responsibleParty": {
                "type": "SPONSOR"
            },
            "leadSponsor": {
                "name": "Renibus Therapeutics, Inc.",
                "class": "INDUSTRY"
            }
        },
        "oversightModule": {
            "isFdaRegulatedDrug": true,
            "isFdaRegulatedDevice": false
        },
        "descriptionModule": {
            "briefSummary": "This extension study is being conducted to assess the following objectives through 12 months post-cardiac surgery:\n\n* Patient reported outcomes (PRO), using the EQ-5D questionnaire\n* Clinical outcomes"
        },
        "conditionsModule": {
            "conditions": [
                "Post-Operative Complications in Cardiac Surgery"
            ]
        },
        "designModule": {
            "studyType": "OBSERVATIONAL",
            "patientRegistry": false,
            "designInfo": {
                "observationalModel": "COHORT",
                "timePerspective": "PROSPECTIVE"
            },
            "enrollmentInfo": {
                "count": 400,
                "type": "ESTIMATED"
            }
        },
        "armsInterventionsModule": {
            "armGroups": [
                {
                    "label": "RBT-1",
                    "description": "Patients undergoing CABG, valve, or combined CABG/valve surgery",
                    "interventionNames": [
                        "Drug: RBT-1"
                    ]
                },
                {
                    "label": "Placebo",
                    "description": "Patients undergoing CABG, valve, or combined CABG/valve surgery",
                    "interventionNames": [
                        "Drug: Placebo"
                    ]
                }
            ],
            "interventions": [
                {
                    "type": "DRUG",
                    "name": "RBT-1",
                    "description": "Intravenous administration",
                    "armGroupLabels": [
                        "RBT-1"
                    ]
                },
                {
                    "type": "DRUG",
                    "name": "Placebo",
                    "description": "Intravenous administration",
                    "armGroupLabels": [
                        "Placebo"
                    ]
                }
            ]
        },
        "outcomesModule": {
            "primaryOutcomes": [
                {
                    "measure": "Evaluation",
                    "description": "To evaluate patient reported outcomes (PRO) using the EQ-5D questionnaire",
                    "timeFrame": "12 Months Post-Cardiac Surgery"
                },
                {
                    "measure": "Evaluation",
                    "description": "The number of subjects with the following clinical outcomes will be reported\n\nClinical Outcomes:\n\n* Chronic kidney disease (CKD) - new diagnosis\n* Acute kidney injury (AKI) or CKD requiring dialysis\n* Atrial fibrillation - new-onset\n* Death\n* Myocardial infarction (MI)\n* Non-fatal cardiac arrest\n* Readmission to hospital\n* Reoperation for coronary artery bypass graft (CABG) and/or valve dysfunction\n* Stroke",
                    "timeFrame": "12 Months Post-Cardiac Surgery"
                }
            ]
        },
        "eligibilityModule": {
            "eligibilityCriteria": "Inclusion Criteria:\n\n* Subjects must have completed the REN-007 study to be eligible to participate in the Extension Study.\n\nExclusion Criteria:\n\n* Subjects who did not complete the REN-007 study are not eligible to participate in the Extension Study.\n* Female subjects who become pregnant during the REN-007 study are not eligible to participate in the Extension Study.",
            "healthyVolunteers": false,
            "sex": "ALL",
            "minimumAge": "18 Years",
            "stdAges": [
                "ADULT",
                "OLDER_ADULT"
            ],
            "studyPopulation": "All subjects who complete the Phase 3 REN-007 study are eligible to participate in the Extension Study.",
            "samplingMethod": "PROBABILITY_SAMPLE"
        },
        "contactsLocationsModule": {
            "centralContacts": [
                {
                    "name": "Jennifer Paleveda",
                    "role": "CONTACT",
                    "phone": "813-760-3975",
                    "email": "jpaleveda@renibus.com"
                },
                {
                    "name": "Andre Lamy, MD",
                    "role": "CONTACT"
                }
            ],
            "locations": [
                {
                    "facility": "Research Site",
                    "status": "RECRUITING",
                    "city": "Huntsville",
                    "state": "Alabama",
                    "zip": "35801",
                    "country": "United States",
                    "geoPoint": {
                        "lat": 34.7304,
                        "lon": -86.58594
                    }
                },
                {
                    "facility": "Research Site",
                    "status": "RECRUITING",
                    "city": "Washington",
                    "state": "District of Columbia",
                    "zip": "20010",
                    "country": "United States",
                    "geoPoint": {
                        "lat": 38.89511,
                        "lon": -77.03637
                    }
                },
                {
                    "facility": "Research Site",
                    "status": "RECRUITING",
                    "city": "Atlantis",
                    "state": "Florida",
                    "zip": "33462",
                    "country": "United States",
                    "geoPoint": {
                        "lat": 26.5909,
                        "lon": -80.10088
                    }
                },
                {
                    "facility": "Research Site",
                    "status": "RECRUITING",
                    "city": "Fort Wayne",
                    "state": "Indiana",
                    "zip": "46804",
                    "country": "United States",
                    "geoPoint": {
                        "lat": 41.1306,
                        "lon": -85.12886
                    }
                },
                {
                    "facility": "Research Site",
                    "status": "RECRUITING",
                    "city": "Indianapolis",
                    "state": "Indiana",
                    "zip": "46202",
                    "country": "United States",
                    "geoPoint": {
                        "lat": 39.76838,
                        "lon": -86.15804
                    }
                },
                {
                    "facility": "Research Site",
                    "status": "RECRUITING",
                    "city": "Boston",
                    "state": "Massachusetts",
                    "zip": "02115",
                    "country": "United States",
                    "geoPoint": {
                        "lat": 42.35843,
                        "lon": -71.05977
                    }
                },
                {
                    "facility": "Research Site",
                    "status": "RECRUITING",
                    "city": "Lansing",
                    "state": "Michigan",
                    "zip": "48879",
                    "country": "United States",
                    "geoPoint": {
                        "lat": 42.73253,
                        "lon": -84.55553
                    }
                },
                {
                    "facility": "Research Site",
                    "status": "RECRUITING",
                    "city": "Midland",
                    "state": "Michigan",
                    "zip": "48670",
                    "country": "United States",
                    "geoPoint": {
                        "lat": 43.61558,
                        "lon": -84.24721
                    }
                },
                {
                    "facility": "Research Site",
                    "status": "RECRUITING",
                    "city": "Rochester",
                    "state": "Minnesota",
                    "zip": "55905",
                    "country": "United States",
                    "geoPoint": {
                        "lat": 44.02163,
                        "lon": -92.4699
                    }
                },
                {
                    "facility": "New York Presbyterian-Queens",
                    "status": "RECRUITING",
                    "city": "Flushing",
                    "state": "New York",
                    "zip": "11355",
                    "country": "United States",
                    "geoPoint": {
                        "lat": 40.76538,
                        "lon": -73.81736
                    }
                },
                {
                    "facility": "Research Site",
                    "status": "RECRUITING",
                    "city": "Raleigh",
                    "state": "North Carolina",
                    "zip": "27610",
                    "country": "United States",
                    "geoPoint": {
                        "lat": 35.7721,
                        "lon": -78.63861
                    }
                },
                {
                    "facility": "Research Site",
                    "status": "RECRUITING",
                    "city": "Winston-Salem",
                    "state": "North Carolina",
                    "zip": "27157",
                    "country": "United States",
                    "geoPoint": {
                        "lat": 36.09986,
                        "lon": -80.24422
                    }
                },
                {
                    "facility": "Research Site",
                    "status": "RECRUITING",
                    "city": "Cleveland",
                    "state": "Ohio",
                    "zip": "44106",
                    "country": "United States",
                    "geoPoint": {
                        "lat": 41.4995,
                        "lon": -81.69541
                    }
                },
                {
                    "facility": "Research Site",
                    "status": "RECRUITING",
                    "city": "Toledo",
                    "state": "Ohio",
                    "zip": "43606",
                    "country": "United States",
                    "geoPoint": {
                        "lat": 41.66394,
                        "lon": -83.55521
                    }
                },
                {
                    "facility": "Research Site",
                    "status": "RECRUITING",
                    "city": "Nashville",
                    "state": "Tennessee",
                    "zip": "37203",
                    "country": "United States",
                    "geoPoint": {
                        "lat": 36.16589,
                        "lon": -86.78444
                    }
                },
                {
                    "facility": "Research Site",
                    "status": "RECRUITING",
                    "city": "Dallas",
                    "state": "Texas",
                    "zip": "75390",
                    "country": "United States",
                    "geoPoint": {
                        "lat": 32.78306,
                        "lon": -96.80667
                    }
                },
                {
                    "facility": "Research Site",
                    "status": "RECRUITING",
                    "city": "San Antonio",
                    "state": "Texas",
                    "zip": "78229",
                    "country": "United States",
                    "geoPoint": {
                        "lat": 29.42412,
                        "lon": -98.49363
                    }
                },
                {
                    "facility": "Research Site",
                    "status": "RECRUITING",
                    "city": "Saint John",
                    "state": "New Brunswick",
                    "zip": "E2L 4L2",
                    "country": "Canada",
                    "geoPoint": {
                        "lat": 45.2727,
                        "lon": -66.06769
                    }
                },
                {
                    "facility": "Research Site",
                    "status": "RECRUITING",
                    "city": "Saint John's",
                    "state": "Newfoundland and Labrador",
                    "zip": "A1B 3V6",
                    "country": "Canada",
                    "geoPoint": {
                        "lat": 47.56494,
                        "lon": -52.70931
                    }
                },
                {
                    "facility": "Research Site",
                    "status": "RECRUITING",
                    "city": "Hamilton",
                    "state": "Ontario",
                    "zip": "L8L 2X2",
                    "country": "Canada",
                    "geoPoint": {
                        "lat": 43.25011,
                        "lon": -79.84963
                    }
                },
                {
                    "facility": "Research Site",
                    "status": "RECRUITING",
                    "city": "Montr\u00e9al",
                    "state": "Quebec",
                    "zip": "H1T 1C8",
                    "country": "Canada",
                    "geoPoint": {
                        "lat": 45.50884,
                        "lon": -73.58781
                    }
                },
                {
                    "facility": "Research Site",
                    "status": "RECRUITING",
                    "city": "Montr\u00e9al",
                    "state": "Quebec",
                    "zip": "H2X 0C1",
                    "country": "Canada",
                    "geoPoint": {
                        "lat": 45.50884,
                        "lon": -73.58781
                    }
                },
                {
                    "facility": "Research Site",
                    "status": "RECRUITING",
                    "city": "Montr\u00e9al",
                    "state": "Quebec",
                    "zip": "H4J 1C5",
                    "country": "Canada",
                    "geoPoint": {
                        "lat": 45.50884,
                        "lon": -73.58781
                    }
                },
                {
                    "facility": "Research Site",
                    "status": "RECRUITING",
                    "city": "Qu\u00e9bec",
                    "state": "Quebec",
                    "zip": "G1V 4G5",
                    "country": "Canada",
                    "geoPoint": {
                        "lat": 46.81228,
                        "lon": -71.21454
                    }
                }
            ]
        },
        "ipdSharingStatementModule": {
            "ipdSharing": "NO"
        }
    },
    "derivedSection": {
        "miscInfoModule": {
            "versionHolder": "2024-07-30"
        },
        "conditionBrowseModule": {
            "meshes": [
                {
                    "id": "D000011183",
                    "term": "Postoperative Complications"
                }
            ],
            "ancestors": [
                {
                    "id": "D000010335",
                    "term": "Pathologic Processes"
                }
            ],
            "browseLeaves": [
                {
                    "id": "M14065",
                    "name": "Postoperative Complications",
                    "asFound": "Post-operative Complications",
                    "relevance": "HIGH"
                }
            ],
            "browseBranches": [
                {
                    "abbrev": "BC23",
                    "name": "Symptoms and General Pathology"
                },
                {
                    "abbrev": "All",
                    "name": "All Conditions"
                }
            ]
        }
    },
    "hasResults": false
}