{
    "protocolSection": {
        "identificationModule": {
            "nctId": "NCT04674969",
            "orgStudyIdInfo": {
                "id": "S2444"
            },
            "organization": {
                "fullName": "Boston Scientific Corporation",
                "class": "INDUSTRY"
            },
            "briefTitle": "Drug-Eluting Registry: Real-World Treatment of Lesions in the Peripheral Vasculature",
            "officialTitle": "Drug-Eluting Registry: Real-World Treatment of Lesions in the Peripheral Vasculature (ELEGANCE)",
            "acronym": "ELEGANCE",
            "therapeuticArea": [
                "Other"
            ],
            "study": "drug-eluting-registry-real-world-treatment-of-lesions-in-the-peripheral-vasculature"
        },
        "statusModule": {
            "statusVerifiedDate": "2024-07",
            "overallStatus": "RECRUITING",
            "expandedAccessInfo": {
                "hasExpandedAccess": false
            },
            "startDateStruct": {
                "date": "2021-03-29",
                "type": "ACTUAL"
            },
            "primaryCompletionDateStruct": {
                "date": "2028-01",
                "type": "ESTIMATED"
            },
            "completionDateStruct": {
                "date": "2028-01",
                "type": "ESTIMATED"
            },
            "studyFirstSubmitDate": "2020-12-01",
            "studyFirstSubmitQcDate": "2020-12-14",
            "studyFirstPostDateStruct": {
                "date": "2020-12-19",
                "type": "ACTUAL"
            },
            "lastUpdateSubmitDate": "2024-07-16",
            "lastUpdatePostDateStruct": {
                "date": "2024-07-17",
                "type": "ACTUAL"
            }
        },
        "sponsorCollaboratorsModule": {
            "responsibleParty": {
                "type": "SPONSOR"
            },
            "leadSponsor": {
                "name": "Boston Scientific Corporation",
                "class": "INDUSTRY"
            }
        },
        "oversightModule": {
            "oversightHasDmc": false,
            "isFdaRegulatedDrug": false,
            "isFdaRegulatedDevice": true,
            "isUsExport": true
        },
        "descriptionModule": {
            "briefSummary": "The ELEGANCE Registry's objective is to collect Real-World Data (RWD), including populations previously not represented in Peripheral Vascular Disease (PVD) trials, health economics data, and to support the safe use of commercially available Boston Scientific Corporation (BSC) drug-eluting devices for the treatment of lesions located in the peripheral vasculature.",
            "detailedDescription": "A global prospective, non-randomized, open-label, multi-center Registry to collect Real-World Data, including health economic data, to support the use of commercially available drug-eluting BSC devices for the treatment of lesions located in the peripheral vasculature."
        },
        "conditionsModule": {
            "conditions": [
                "Peripheral Vascular Diseases"
            ]
        },
        "designModule": {
            "studyType": "OBSERVATIONAL",
            "patientRegistry": true,
            "targetDuration": "5 Years",
            "designInfo": {
                "observationalModel": "COHORT",
                "timePerspective": "PROSPECTIVE"
            },
            "enrollmentInfo": {
                "count": 5000,
                "type": "ESTIMATED"
            }
        },
        "armsInterventionsModule": {
            "armGroups": [
                {
                    "label": "Clinical Cohort",
                    "description": "All enrolled patients are included in the Clinical Cohort. Patients will complete assessments per standard of care through 2-year follow-up in Australia, Austria, Canada, France, Germany, Poland, Spain, Taiwan, Thailand, and the United States. Patients will complete assessments per standard of care through 5-year follow-up in China.",
                    "interventionNames": [
                        "Device: Any eligible commercially available Boston Scientific Corporation (BSC) drug-eluting device."
                    ]
                },
                {
                    "label": "Outcomes Cohort",
                    "description": "Patients at select sites will complete the Clinical Cohort standard of care assessments and additional assessments as part of the Outcomes Cohort, including Quality of Life questionnaires, six-minute walk test (6MWT), and Healthcare Utilization data collection.",
                    "interventionNames": [
                        "Device: Any eligible commercially available Boston Scientific Corporation (BSC) drug-eluting device."
                    ]
                }
            ],
            "interventions": [
                {
                    "type": "DEVICE",
                    "name": "Any eligible commercially available Boston Scientific Corporation (BSC) drug-eluting device.",
                    "description": "Ranger\u2122 Paclitaxel-Coated Percutaneous Transluminal Angioplasty (PTA) Balloon Catheter; ELUVIA\u2122 Drug-Eluting Vascular Stent System",
                    "armGroupLabels": [
                        "Clinical Cohort",
                        "Outcomes Cohort"
                    ]
                }
            ]
        },
        "outcomesModule": {
            "primaryOutcomes": [
                {
                    "measure": "Major Adverse Events",
                    "description": "Rate of MAEs, which include Target Lesion Revascularizations, Major Target Limb Amputations, and Deaths. No pre-specified endpoints or formal tests of hypotheses are proposed. Analyses will be performed for exploratory purposes.",
                    "timeFrame": "12 months"
                },
                {
                    "measure": "Lesion Patency",
                    "description": "Lesion patency is determined by Duplex Ultrasound (Investigator and/or Core Lab assessed) and freedom from clinically-driven Target Lesion Revascularization. No pre-specified endpoints or formal tests of hypotheses are proposed. Analyses will be performed for exploratory purposes.",
                    "timeFrame": "12 months"
                }
            ]
        },
        "eligibilityModule": {
            "eligibilityCriteria": "Inclusion Criteria:\n\n* Patients 18 years and older\n* Written informed consent (patient data release-form)\n* Use of any commercially available Boston Scientific drug-eluting device marketed for treatment of lesions in the peripheral vasculature and specified in the Registry Enrollment Guide\n\nExclusion Criteria:\n\n* Life expectancy of \\<1 year",
            "healthyVolunteers": false,
            "sex": "ALL",
            "minimumAge": "18 Years",
            "stdAges": [
                "ADULT",
                "OLDER_ADULT"
            ],
            "studyPopulation": "The intended population for the ELEGANCE Registry are real-world patients who are treated with commercially available BSC drug-eluting devices marketed for treatment of lesions located in the peripheral vasculature. Efforts will be made to include study centers with diverse patient populations in order to enroll populations previously not represented in PVD trials.",
            "samplingMethod": "NON_PROBABILITY_SAMPLE"
        },
        "contactsLocationsModule": {
            "centralContacts": [
                {
                    "name": "Yumna Akhtar, MS",
                    "role": "CONTACT",
                    "phone": "651-399-6775",
                    "email": "yumna.akhtar@bsci.com"
                },
                {
                    "name": "Tracy E Swanson",
                    "role": "CONTACT",
                    "phone": "763-329-0167",
                    "email": "tracy.swanson@bsci.com"
                }
            ],
            "locations": [
                {
                    "facility": "St. Bernard's Medical Center",
                    "status": "ACTIVE_NOT_RECRUITING",
                    "city": "Jonesboro",
                    "state": "Arkansas",
                    "zip": "72401",
                    "country": "United States",
                    "geoPoint": {
                        "lat": 35.8423,
                        "lon": -90.70428
                    }
                },
                {
                    "facility": "PIH Health Good Samaritan Hospital",
                    "status": "RECRUITING",
                    "city": "Los Angeles",
                    "state": "California",
                    "zip": "90017",
                    "country": "United States",
                    "geoPoint": {
                        "lat": 34.05223,
                        "lon": -118.24368
                    }
                },
                {
                    "facility": "Cedars Sinai",
                    "status": "RECRUITING",
                    "city": "Los Angeles",
                    "state": "California",
                    "zip": "90048",
                    "country": "United States",
                    "geoPoint": {
                        "lat": 34.05223,
                        "lon": -118.24368
                    }
                },
                {
                    "facility": "Ronald Reagan UCLA Medical Center",
                    "status": "WITHDRAWN",
                    "city": "Los Angeles",
                    "state": "California",
                    "zip": "90095",
                    "country": "United States",
                    "geoPoint": {
                        "lat": 34.05223,
                        "lon": -118.24368
                    }
                },
                {
                    "facility": "Sutter Medical Center, Sacramento",
                    "status": "ACTIVE_NOT_RECRUITING",
                    "city": "Sacramento",
                    "state": "California",
                    "zip": "95816",
                    "country": "United States",
                    "geoPoint": {
                        "lat": 38.58157,
                        "lon": -121.4944
                    }
                },
                {
                    "facility": "Adventist Health St Helena Hospital",
                    "status": "RECRUITING",
                    "city": "Saint Helena",
                    "state": "California",
                    "zip": "94574",
                    "country": "United States",
                    "geoPoint": {
                        "lat": 38.50519,
                        "lon": -122.47026
                    }
                },
                {
                    "facility": "Yale University School of Medicine",
                    "status": "RECRUITING",
                    "city": "New Haven",
                    "state": "Connecticut",
                    "zip": "06510",
                    "country": "United States",
                    "geoPoint": {
                        "lat": 41.30815,
                        "lon": -72.92816
                    }
                },
                {
                    "facility": "Christiana Hospital",
                    "status": "RECRUITING",
                    "city": "Newport",
                    "state": "Delaware",
                    "zip": "19718",
                    "country": "United States",
                    "geoPoint": {
                        "lat": 39.71372,
                        "lon": -75.60937
                    }
                },
                {
                    "facility": "Washington Hospital Center",
                    "status": "ACTIVE_NOT_RECRUITING",
                    "city": "Washington",
                    "state": "District of Columbia",
                    "zip": "20010",
                    "country": "United States",
                    "geoPoint": {
                        "lat": 38.89511,
                        "lon": -77.03637
                    }
                },
                {
                    "facility": "Palm Beach Heart & Vascular, LLC",
                    "status": "WITHDRAWN",
                    "city": "Boynton Beach",
                    "state": "Florida",
                    "zip": "33436",
                    "country": "United States",
                    "geoPoint": {
                        "lat": 26.52535,
                        "lon": -80.06643
                    }
                },
                {
                    "facility": "Tallahassee Memorial Hospital",
                    "status": "RECRUITING",
                    "city": "Tallahassee",
                    "state": "Florida",
                    "zip": "32308",
                    "country": "United States",
                    "geoPoint": {
                        "lat": 30.43826,
                        "lon": -84.28073
                    }
                },
                {
                    "facility": "South Georgia Medical Center",
                    "status": "RECRUITING",
                    "city": "Valdosta",
                    "state": "Georgia",
                    "zip": "31602",
                    "country": "United States",
                    "geoPoint": {
                        "lat": 30.83334,
                        "lon": -83.28032
                    }
                },
                {
                    "facility": "Rush University",
                    "status": "RECRUITING",
                    "city": "Chicago",
                    "state": "Illinois",
                    "zip": "60612",
                    "country": "United States",
                    "geoPoint": {
                        "lat": 41.85003,
                        "lon": -87.65005
                    }
                },
                {
                    "facility": "St. John's Hospital/ Prairie Education and Research Cooperative",
                    "status": "ACTIVE_NOT_RECRUITING",
                    "city": "Springfield",
                    "state": "Illinois",
                    "zip": "62701",
                    "country": "United States",
                    "geoPoint": {
                        "lat": 39.80172,
                        "lon": -89.64371
                    }
                },
                {
                    "facility": "St. Joseph Hospital/Dupont Hospital",
                    "status": "WITHDRAWN",
                    "city": "Fort Wayne",
                    "state": "Indiana",
                    "zip": "46774",
                    "country": "United States",
                    "geoPoint": {
                        "lat": 41.1306,
                        "lon": -85.12886
                    }
                },
                {
                    "facility": "Ascension St. Vincent's Hospital",
                    "status": "RECRUITING",
                    "city": "Indianapolis",
                    "state": "Indiana",
                    "zip": "46260",
                    "country": "United States",
                    "geoPoint": {
                        "lat": 39.76838,
                        "lon": -86.15804
                    }
                },
                {
                    "facility": "CIS Clinical Research Corporation",
                    "status": "ACTIVE_NOT_RECRUITING",
                    "city": "Houma",
                    "state": "Louisiana",
                    "zip": "70360",
                    "country": "United States",
                    "geoPoint": {
                        "lat": 29.59577,
                        "lon": -90.71953
                    }
                },
                {
                    "facility": "Ochsner Health",
                    "status": "RECRUITING",
                    "city": "Kenner",
                    "state": "Louisiana",
                    "zip": "70121",
                    "country": "United States",
                    "geoPoint": {
                        "lat": 29.99409,
                        "lon": -90.24174
                    }
                },
                {
                    "facility": "Cardiovascular Institute of the South",
                    "status": "WITHDRAWN",
                    "city": "Lafayette",
                    "state": "Louisiana",
                    "zip": "70506",
                    "country": "United States",
                    "geoPoint": {
                        "lat": 30.22409,
                        "lon": -92.01984
                    }
                },
                {
                    "facility": "Beth Israel Deaconess Medical Center",
                    "status": "RECRUITING",
                    "city": "Boston",
                    "state": "Massachusetts",
                    "zip": "02215",
                    "country": "United States",
                    "geoPoint": {
                        "lat": 42.35843,
                        "lon": -71.05977
                    }
                },
                {
                    "facility": "Mercy Hospital (Allina Health)",
                    "status": "RECRUITING",
                    "city": "Coon Rapids",
                    "state": "Minnesota",
                    "zip": "55432",
                    "country": "United States",
                    "geoPoint": {
                        "lat": 45.11997,
                        "lon": -93.28773
                    }
                },
                {
                    "facility": "North Mississippi Medical Center",
                    "status": "RECRUITING",
                    "city": "Tupelo",
                    "state": "Mississippi",
                    "zip": "38804",
                    "country": "United States",
                    "geoPoint": {
                        "lat": 34.25807,
                        "lon": -88.70464
                    }
                },
                {
                    "facility": "Deborah Heart & Lung Center",
                    "status": "ACTIVE_NOT_RECRUITING",
                    "city": "Browns Mills",
                    "state": "New Jersey",
                    "zip": "08015",
                    "country": "United States",
                    "geoPoint": {
                        "lat": 39.97261,
                        "lon": -74.58293
                    }
                },
                {
                    "facility": "Hackensack University Medical Center",
                    "status": "RECRUITING",
                    "city": "Hackensack",
                    "state": "New Jersey",
                    "zip": "07601",
                    "country": "United States",
                    "geoPoint": {
                        "lat": 40.88593,
                        "lon": -74.04347
                    }
                },
                {
                    "facility": "Robert Wood Johnson/Newark Beth Israel Medical Center",
                    "status": "RECRUITING",
                    "city": "Newark",
                    "state": "New Jersey",
                    "zip": "07112",
                    "country": "United States",
                    "geoPoint": {
                        "lat": 40.73566,
                        "lon": -74.17237
                    }
                },
                {
                    "facility": "Buffalo General Hospital",
                    "status": "RECRUITING",
                    "city": "Buffalo",
                    "state": "New York",
                    "zip": "55313",
                    "country": "United States",
                    "geoPoint": {
                        "lat": 42.88645,
                        "lon": -78.87837
                    }
                },
                {
                    "facility": "North Shore University Hospital/Northwell Health",
                    "status": "ACTIVE_NOT_RECRUITING",
                    "city": "Manhasset",
                    "state": "New York",
                    "zip": "11030",
                    "country": "United States",
                    "geoPoint": {
                        "lat": 40.79788,
                        "lon": -73.69957
                    }
                },
                {
                    "facility": "New York University Medical Center",
                    "status": "ACTIVE_NOT_RECRUITING",
                    "city": "New York",
                    "state": "New York",
                    "zip": "10016",
                    "country": "United States",
                    "geoPoint": {
                        "lat": 40.71427,
                        "lon": -74.00597
                    }
                },
                {
                    "facility": "Columbia University",
                    "status": "RECRUITING",
                    "city": "New York",
                    "state": "New York",
                    "zip": "10027",
                    "country": "United States",
                    "geoPoint": {
                        "lat": 40.71427,
                        "lon": -74.00597
                    }
                },
                {
                    "facility": "Mount Sinai",
                    "status": "RECRUITING",
                    "city": "New York",
                    "state": "New York",
                    "zip": "10029",
                    "country": "United States",
                    "geoPoint": {
                        "lat": 40.71427,
                        "lon": -74.00597
                    }
                },
                {
                    "facility": "Memorial Sloan Kettering Hospital",
                    "status": "RECRUITING",
                    "city": "New York",
                    "state": "New York",
                    "zip": "10065",
                    "country": "United States",
                    "geoPoint": {
                        "lat": 40.71427,
                        "lon": -74.00597
                    }
                },
                {
                    "facility": "Weill Cornell Medicine/New York-Presbyterian Hospita",
                    "status": "RECRUITING",
                    "city": "New York",
                    "state": "New York",
                    "zip": "10065",
                    "country": "United States",
                    "geoPoint": {
                        "lat": 40.71427,
                        "lon": -74.00597
                    }
                },
                {
                    "facility": "Duke University Medical Center",
                    "status": "RECRUITING",
                    "city": "Durham",
                    "state": "North Carolina",
                    "zip": "27710",
                    "country": "United States",
                    "geoPoint": {
                        "lat": 35.99403,
                        "lon": -78.89862
                    }
                },
                {
                    "facility": "Rex UNC Health (NC Heart and Vascular Research, LLC)",
                    "status": "ACTIVE_NOT_RECRUITING",
                    "city": "Raleigh",
                    "state": "North Carolina",
                    "zip": "27607",
                    "country": "United States",
                    "geoPoint": {
                        "lat": 35.7721,
                        "lon": -78.63861
                    }
                },
                {
                    "facility": "University Hospitals of Cleveland",
                    "status": "RECRUITING",
                    "city": "Cleveland",
                    "state": "Ohio",
                    "zip": "44106",
                    "country": "United States",
                    "geoPoint": {
                        "lat": 41.4995,
                        "lon": -81.69541
                    }
                },
                {
                    "facility": "Cleveland Clinic",
                    "status": "RECRUITING",
                    "city": "Cleveland",
                    "state": "Ohio",
                    "zip": "44195",
                    "country": "United States",
                    "geoPoint": {
                        "lat": 41.4995,
                        "lon": -81.69541
                    }
                },
                {
                    "facility": "Premier Cardiovascular Institute",
                    "status": "ACTIVE_NOT_RECRUITING",
                    "city": "Dayton",
                    "state": "Ohio",
                    "zip": "45409",
                    "country": "United States",
                    "geoPoint": {
                        "lat": 39.75895,
                        "lon": -84.19161
                    }
                },
                {
                    "facility": "Ascension St. John Clinical Research Institute",
                    "status": "RECRUITING",
                    "city": "Tulsa",
                    "state": "Oklahoma",
                    "zip": "74104",
                    "country": "United States",
                    "geoPoint": {
                        "lat": 36.15398,
                        "lon": -95.99277
                    }
                },
                {
                    "facility": "Pinnacle Health Cardiovascular Institute",
                    "status": "ACTIVE_NOT_RECRUITING",
                    "city": "Harrisburg",
                    "state": "Pennsylvania",
                    "zip": "17043",
                    "country": "United States",
                    "geoPoint": {
                        "lat": 40.2737,
                        "lon": -76.88442
                    }
                },
                {
                    "facility": "Hospital University of Pennsylvania",
                    "status": "RECRUITING",
                    "city": "Philadelphia",
                    "state": "Pennsylvania",
                    "zip": "19104",
                    "country": "United States",
                    "geoPoint": {
                        "lat": 39.95233,
                        "lon": -75.16379
                    }
                },
                {
                    "facility": "The Miriam Hospital",
                    "status": "ACTIVE_NOT_RECRUITING",
                    "city": "Providence",
                    "state": "Rhode Island",
                    "zip": "02906",
                    "country": "United States",
                    "geoPoint": {
                        "lat": 41.82399,
                        "lon": -71.41283
                    }
                },
                {
                    "facility": "Medical University of South Carolina",
                    "status": "RECRUITING",
                    "city": "Charleston",
                    "state": "South Carolina",
                    "zip": "29425",
                    "country": "United States",
                    "geoPoint": {
                        "lat": 32.77657,
                        "lon": -79.93092
                    }
                },
                {
                    "facility": "Monument Health Rapid City Hospital, Inc.",
                    "status": "ACTIVE_NOT_RECRUITING",
                    "city": "Rapid City",
                    "state": "South Dakota",
                    "zip": "57701",
                    "country": "United States",
                    "geoPoint": {
                        "lat": 44.08054,
                        "lon": -103.23101
                    }
                },
                {
                    "facility": "Ascension Seton Medical Center Austin",
                    "status": "RECRUITING",
                    "city": "Austin",
                    "state": "Texas",
                    "zip": "78705",
                    "country": "United States",
                    "geoPoint": {
                        "lat": 30.26715,
                        "lon": -97.74306
                    }
                },
                {
                    "facility": "The University of Texas, Southwestern Medical Center",
                    "status": "RECRUITING",
                    "city": "Dallas",
                    "state": "Texas",
                    "zip": "75390",
                    "country": "United States",
                    "geoPoint": {
                        "lat": 32.78306,
                        "lon": -96.80667
                    }
                },
                {
                    "facility": "Texas Tech University Health Sciences Center",
                    "status": "COMPLETED",
                    "city": "Lubbock",
                    "state": "Texas",
                    "zip": "79430",
                    "country": "United States",
                    "geoPoint": {
                        "lat": 33.57786,
                        "lon": -101.85517
                    }
                },
                {
                    "facility": "HeartPlace",
                    "status": "RECRUITING",
                    "city": "Plano",
                    "state": "Texas",
                    "zip": "75075",
                    "country": "United States",
                    "geoPoint": {
                        "lat": 33.01984,
                        "lon": -96.69889
                    }
                },
                {
                    "facility": "Inova Fairfax Hospital",
                    "status": "RECRUITING",
                    "city": "Fairfax",
                    "state": "Virginia",
                    "zip": "22042",
                    "country": "United States",
                    "geoPoint": {
                        "lat": 38.84622,
                        "lon": -77.30637
                    }
                },
                {
                    "facility": "UW Medicine - Harborview Medical Center",
                    "status": "RECRUITING",
                    "city": "Seattle",
                    "state": "Washington",
                    "zip": "98104",
                    "country": "United States",
                    "geoPoint": {
                        "lat": 47.60621,
                        "lon": -122.33207
                    }
                },
                {
                    "facility": "Royal Perth Hospital",
                    "status": "RECRUITING",
                    "city": "Perth",
                    "state": "Western Australia",
                    "zip": "6000",
                    "country": "Australia",
                    "geoPoint": {
                        "lat": -31.95224,
                        "lon": 115.8614
                    }
                },
                {
                    "facility": "Royal North Shore Hospital",
                    "status": "RECRUITING",
                    "city": "St. Leonards",
                    "zip": "2065",
                    "country": "Australia",
                    "geoPoint": {
                        "lat": -33.82344,
                        "lon": 151.19836
                    }
                },
                {
                    "facility": "Medizinische Univ.-Kliniken Graz",
                    "status": "RECRUITING",
                    "city": "Graz",
                    "zip": "8036",
                    "country": "Austria",
                    "geoPoint": {
                        "lat": 47.06667,
                        "lon": 15.45
                    }
                },
                {
                    "facility": "Peter Lougheed Centre-Hospital",
                    "status": "RECRUITING",
                    "city": "Calgary",
                    "state": "Alberta",
                    "country": "Canada",
                    "geoPoint": {
                        "lat": 51.05011,
                        "lon": -114.08529
                    }
                },
                {
                    "facility": "CHUS",
                    "status": "RECRUITING",
                    "city": "Sherbrooke",
                    "state": "Quebec",
                    "zip": "J1H5N4",
                    "country": "Canada",
                    "geoPoint": {
                        "lat": 45.40008,
                        "lon": -71.89908
                    }
                },
                {
                    "facility": "Beijing Anzhen Hospital of the Capital University of Medical Sciences",
                    "status": "ACTIVE_NOT_RECRUITING",
                    "city": "Chaoyang",
                    "state": "Beijing",
                    "country": "China",
                    "geoPoint": {
                        "lat": 41.57028,
                        "lon": 120.45861
                    }
                },
                {
                    "facility": "China-Japan Friendship Hospital",
                    "status": "ACTIVE_NOT_RECRUITING",
                    "city": "Chaoyang",
                    "state": "Beijing",
                    "country": "China",
                    "geoPoint": {
                        "lat": 41.57028,
                        "lon": 120.45861
                    }
                },
                {
                    "facility": "Xuanwu Hospital Capital Medical University",
                    "status": "ACTIVE_NOT_RECRUITING",
                    "city": "Xicheng",
                    "state": "Beijing",
                    "country": "China"
                },
                {
                    "facility": "The First Affiliated Hospital of Chongqing Medical University",
                    "status": "ACTIVE_NOT_RECRUITING",
                    "city": "Chongqing",
                    "state": "Chongqing",
                    "country": "China",
                    "geoPoint": {
                        "lat": 29.56278,
                        "lon": 106.55278
                    }
                },
                {
                    "facility": "Zhongshan University No.1 Hospital",
                    "status": "ACTIVE_NOT_RECRUITING",
                    "city": "Guangzhou",
                    "state": "Guangdong",
                    "country": "China",
                    "geoPoint": {
                        "lat": 23.11667,
                        "lon": 113.25
                    }
                },
                {
                    "facility": "Affiliated Hospital of Medical College Qingdao University",
                    "status": "ACTIVE_NOT_RECRUITING",
                    "city": "Qingdao",
                    "state": "Shandong",
                    "country": "China",
                    "geoPoint": {
                        "lat": 36.06488,
                        "lon": 120.38042
                    }
                },
                {
                    "facility": "Shanghai Ninth People's Hospital - Shanghai Jiaotong University School of Medicine",
                    "status": "ACTIVE_NOT_RECRUITING",
                    "city": "Huangpu",
                    "state": "Shanghai",
                    "country": "China"
                },
                {
                    "facility": "Shanghai Changhai Hospital",
                    "status": "ACTIVE_NOT_RECRUITING",
                    "city": "Yangpu",
                    "state": "Shanghai",
                    "country": "China"
                },
                {
                    "facility": "Shanxi Bethune Hospital",
                    "status": "ACTIVE_NOT_RECRUITING",
                    "city": "Taiyuan",
                    "state": "Shanxi",
                    "country": "China",
                    "geoPoint": {
                        "lat": 37.86944,
                        "lon": 112.56028
                    }
                },
                {
                    "facility": "First Affiliated Hospital of Medical College of Xi'an Jiaotong University",
                    "status": "ACTIVE_NOT_RECRUITING",
                    "city": "Xi'an",
                    "state": "Shanxi",
                    "country": "China",
                    "geoPoint": {
                        "lat": 34.25833,
                        "lon": 108.92861
                    }
                },
                {
                    "facility": "Shanghai Zhongshan Hospital",
                    "status": "ACTIVE_NOT_RECRUITING",
                    "city": "Shanghai",
                    "state": "Xuhui District",
                    "country": "China",
                    "geoPoint": {
                        "lat": 31.22222,
                        "lon": 121.45806
                    }
                },
                {
                    "facility": "Hospital Marie Lannelongue",
                    "status": "RECRUITING",
                    "city": "Le Plessis-Robinson",
                    "zip": "92350",
                    "country": "France",
                    "geoPoint": {
                        "lat": 48.78889,
                        "lon": 2.27078
                    }
                },
                {
                    "facility": "Hospital Paris Saint Joseph",
                    "status": "RECRUITING",
                    "city": "Paris",
                    "country": "France",
                    "geoPoint": {
                        "lat": 48.85341,
                        "lon": 2.3488
                    }
                },
                {
                    "facility": "F\u00fcrst Stirum Klinik Bruchsal Hospital",
                    "status": "RECRUITING",
                    "city": "Bruchsal",
                    "country": "Germany",
                    "geoPoint": {
                        "lat": 49.12426,
                        "lon": 8.59804
                    }
                },
                {
                    "facility": "University Clinic Essen-Hospital",
                    "status": "RECRUITING",
                    "city": "Essen",
                    "country": "Germany",
                    "geoPoint": {
                        "lat": 51.45657,
                        "lon": 7.01228
                    }
                },
                {
                    "facility": "Klinikum der Ludwig-Maximilians-Universitat",
                    "status": "RECRUITING",
                    "city": "M\u00fcnchen",
                    "country": "Germany",
                    "geoPoint": {
                        "lat": 48.13743,
                        "lon": 11.57549
                    }
                },
                {
                    "facility": "Uniwersyteckim Szpitalem Klinicznym w Poznaniu",
                    "status": "RECRUITING",
                    "city": "Pozna\u0144",
                    "zip": "60-355",
                    "country": "Poland",
                    "geoPoint": {
                        "lat": 52.40692,
                        "lon": 16.92993
                    }
                },
                {
                    "facility": "Hospital Parc Tauli",
                    "status": "RECRUITING",
                    "city": "Sabadell",
                    "country": "Spain",
                    "geoPoint": {
                        "lat": 41.54329,
                        "lon": 2.10942
                    }
                },
                {
                    "facility": "China Medical University Hospital",
                    "status": "RECRUITING",
                    "city": "Taichung",
                    "zip": "40408",
                    "country": "Taiwan",
                    "geoPoint": {
                        "lat": 24.1469,
                        "lon": 120.6839
                    }
                },
                {
                    "facility": "National Taiwan University Hospital",
                    "status": "ACTIVE_NOT_RECRUITING",
                    "city": "Taipei City",
                    "country": "Taiwan",
                    "geoPoint": {
                        "lat": 25.04776,
                        "lon": 121.53185
                    }
                },
                {
                    "facility": "Siriraj Hospital Department of Surgery",
                    "status": "RECRUITING",
                    "city": "Bangkok",
                    "zip": "10700",
                    "country": "Thailand",
                    "geoPoint": {
                        "lat": 13.75398,
                        "lon": 100.50144
                    }
                },
                {
                    "facility": "Prince of Songkla University",
                    "status": "RECRUITING",
                    "city": "Hat Yai",
                    "zip": "90110",
                    "country": "Thailand",
                    "geoPoint": {
                        "lat": 7.00836,
                        "lon": 100.47668
                    }
                }
            ]
        }
    },
    "derivedSection": {
        "miscInfoModule": {
            "versionHolder": "2024-07-30"
        },
        "conditionBrowseModule": {
            "meshes": [
                {
                    "id": "D000014652",
                    "term": "Vascular Diseases"
                },
                {
                    "id": "D000016491",
                    "term": "Peripheral Vascular Diseases"
                },
                {
                    "id": "D000058729",
                    "term": "Peripheral Arterial Disease"
                }
            ],
            "ancestors": [
                {
                    "id": "D000002318",
                    "term": "Cardiovascular Diseases"
                },
                {
                    "id": "D000050197",
                    "term": "Atherosclerosis"
                },
                {
                    "id": "D000001161",
                    "term": "Arteriosclerosis"
                },
                {
                    "id": "D000001157",
                    "term": "Arterial Occlusive Diseases"
                }
            ],
            "browseLeaves": [
                {
                    "id": "M29213",
                    "name": "Peripheral Arterial Disease",
                    "asFound": "Peripheral Vascular Disease",
                    "relevance": "HIGH"
                },
                {
                    "id": "M18894",
                    "name": "Peripheral Vascular Diseases",
                    "asFound": "Peripheral Vascular Disease",
                    "relevance": "HIGH"
                },
                {
                    "id": "M17400",
                    "name": "Vascular Diseases",
                    "asFound": "Vascular Disease",
                    "relevance": "HIGH"
                },
                {
                    "id": "M26188",
                    "name": "Atherosclerosis",
                    "relevance": "LOW"
                },
                {
                    "id": "M4469",
                    "name": "Arteriosclerosis",
                    "relevance": "LOW"
                },
                {
                    "id": "M4465",
                    "name": "Arterial Occlusive Diseases",
                    "relevance": "LOW"
                }
            ],
            "browseBranches": [
                {
                    "abbrev": "BC14",
                    "name": "Heart and Blood Diseases"
                },
                {
                    "abbrev": "All",
                    "name": "All Conditions"
                }
            ]
        },
        "interventionBrowseModule": {
            "browseLeaves": [
                {
                    "id": "M19537",
                    "name": "Paclitaxel",
                    "relevance": "LOW"
                },
                {
                    "id": "M231",
                    "name": "Albumin-Bound Paclitaxel",
                    "relevance": "LOW"
                }
            ],
            "browseBranches": [
                {
                    "abbrev": "ANeo",
                    "name": "Antineoplastic Agents"
                },
                {
                    "abbrev": "All",
                    "name": "All Drugs and Chemicals"
                }
            ]
        }
    },
    "hasResults": false
}