{
    "protocolSection": {
        "identificationModule": {
            "nctId": "NCT06176196",
            "orgStudyIdInfo": {
                "id": "VX23-548-109"
            },
            "organization": {
                "fullName": "Vertex Pharmaceuticals Incorporated",
                "class": "INDUSTRY"
            },
            "briefTitle": "Evaluation of Efficacy and Safety of VX-548 for Painful Lumbosacral Radiculopathy (PLSR)",
            "officialTitle": "A Phase 2, Randomized, Double-blind, Placebo-controlled, Parallel-design Study of the Efficacy and Safety of VX-548 in Subjects With Painful Lumbosacral Radiculopathy",
            "therapeuticArea": [
                "Critical Care"
            ],
            "study": "evaluation-of-efficacy-and-safety-of-vx-for-painful-lumbosacral-radiculopathy-plsr"
        },
        "statusModule": {
            "statusVerifiedDate": "2023-12",
            "overallStatus": "RECRUITING",
            "expandedAccessInfo": {
                "hasExpandedAccess": false
            },
            "startDateStruct": {
                "date": "2023-12-13",
                "type": "ACTUAL"
            },
            "primaryCompletionDateStruct": {
                "date": "2025-04",
                "type": "ESTIMATED"
            },
            "completionDateStruct": {
                "date": "2025-04",
                "type": "ESTIMATED"
            },
            "studyFirstSubmitDate": "2023-12-10",
            "studyFirstSubmitQcDate": "2023-12-10",
            "studyFirstPostDateStruct": {
                "date": "2023-12-19",
                "type": "ACTUAL"
            },
            "lastUpdateSubmitDate": "2024-05-29",
            "lastUpdatePostDateStruct": {
                "date": "2024-05-30",
                "type": "ACTUAL"
            }
        },
        "sponsorCollaboratorsModule": {
            "responsibleParty": {
                "type": "SPONSOR"
            },
            "leadSponsor": {
                "name": "Vertex Pharmaceuticals Incorporated",
                "class": "INDUSTRY"
            }
        },
        "oversightModule": {
            "isFdaRegulatedDrug": true,
            "isFdaRegulatedDevice": false
        },
        "descriptionModule": {
            "briefSummary": "The purpose of the study is to evaluate the efficacy and safety of VX-548 in treating participants with PLSR."
        },
        "conditionsModule": {
            "conditions": [
                "Painful Lumbosacral Radiculopathy"
            ]
        },
        "designModule": {
            "studyType": "INTERVENTIONAL",
            "phases": [
                "PHASE2"
            ],
            "designInfo": {
                "allocation": "RANDOMIZED",
                "interventionModel": "PARALLEL",
                "primaryPurpose": "TREATMENT",
                "maskingInfo": {
                    "masking": "QUADRUPLE",
                    "whoMasked": [
                        "PARTICIPANT",
                        "CARE_PROVIDER",
                        "INVESTIGATOR",
                        "OUTCOMES_ASSESSOR"
                    ]
                }
            },
            "enrollmentInfo": {
                "count": 200,
                "type": "ESTIMATED"
            }
        },
        "armsInterventionsModule": {
            "armGroups": [
                {
                    "label": "VX-548",
                    "type": "EXPERIMENTAL",
                    "description": "Participants will receive VX-548 up to 12 weeks.",
                    "interventionNames": [
                        "Drug: VX-548"
                    ]
                },
                {
                    "label": "Placebo",
                    "type": "PLACEBO_COMPARATOR",
                    "description": "Participants will receive placebo matched to VX-548 up to 12 weeks.",
                    "interventionNames": [
                        "Drug: Placebo"
                    ]
                }
            ],
            "interventions": [
                {
                    "type": "DRUG",
                    "name": "VX-548",
                    "description": "Tablets for oral administration.",
                    "armGroupLabels": [
                        "VX-548"
                    ],
                    "otherNames": [
                        "Suzetrigine"
                    ]
                },
                {
                    "type": "DRUG",
                    "name": "Placebo",
                    "description": "Tablets for oral administration.",
                    "armGroupLabels": [
                        "Placebo"
                    ]
                }
            ]
        },
        "outcomesModule": {
            "primaryOutcomes": [
                {
                    "measure": "Change From Baseline in the Weekly Average of Daily leg Pain Intensity on a Numeric Pain Rating Scale (NPRS)",
                    "timeFrame": "Baseline, Week 12"
                }
            ],
            "secondaryOutcomes": [
                {
                    "measure": "Change From Baseline in the Weekly Average of the Daily Sleep Interference Scale (DSIS)",
                    "timeFrame": "Baseline, Week 12"
                },
                {
                    "measure": "Safety and Tolerability as Assessed by Number of Participants With Adverse Events (AEs) and Serious Adverse Events (SAEs)",
                    "timeFrame": "From Day 1 up to Week 14"
                }
            ]
        },
        "eligibilityModule": {
            "eligibilityCriteria": "Key Inclusion Criteria:\n\n* Body weight greater than or equal to (\\>=)45 kilogram (kg)\n* Body mass index (BMI) less than or equal to (\\<=) 40 kg/ meter square (m\\^2)\n* Diagnosis of PLSR for greater than (\\>)3 months as per criteria pre-specified in the protocol\n* Weekly average of daily NPRS score \\>=4 and \\<10 with limited variation in the 7-day Run-in Period\n\nKey Exclusion Criteria:\n\n* More than 3 missing daily NPRS scores during the 7-day Run-in Period\n* Moderate or severe painful neuropathy other than PLSR as pre-specified in the protocol\n* History of prior lumbar spine surgery (e.g., discectomies, laminectomies, foraminotomies, or fusion)\n\nOther protocol defined Inclusion/Exclusion criteria may apply.",
            "healthyVolunteers": false,
            "sex": "ALL",
            "minimumAge": "18 Years",
            "maximumAge": "70 Years",
            "stdAges": [
                "ADULT",
                "OLDER_ADULT"
            ]
        },
        "contactsLocationsModule": {
            "centralContacts": [
                {
                    "name": "Medical Information",
                    "role": "CONTACT",
                    "phone": "617-341-6777",
                    "email": "medicalinfo@vrtx.com"
                }
            ],
            "locations": [
                {
                    "facility": "Hope Research Institute",
                    "status": "RECRUITING",
                    "city": "Phoenix",
                    "state": "Arizona",
                    "zip": "85018",
                    "country": "United States",
                    "geoPoint": {
                        "lat": 33.44838,
                        "lon": -112.07404
                    }
                },
                {
                    "facility": "Arizona Research Center",
                    "status": "RECRUITING",
                    "city": "Phoenix",
                    "state": "Arizona",
                    "zip": "85053",
                    "country": "United States",
                    "geoPoint": {
                        "lat": 33.44838,
                        "lon": -112.07404
                    }
                },
                {
                    "facility": "Trovare Clinical Research",
                    "status": "RECRUITING",
                    "city": "Bakersfield",
                    "state": "California",
                    "zip": "93301",
                    "country": "United States",
                    "geoPoint": {
                        "lat": 35.37329,
                        "lon": -119.01871
                    }
                },
                {
                    "facility": "Velocity Clinical Research - Banning",
                    "status": "RECRUITING",
                    "city": "Banning",
                    "state": "California",
                    "zip": "92220",
                    "country": "United States",
                    "geoPoint": {
                        "lat": 33.92557,
                        "lon": -116.87641
                    }
                },
                {
                    "facility": "Velocity Clinical Research - San Diego",
                    "status": "RECRUITING",
                    "city": "La Mesa",
                    "state": "California",
                    "zip": "91942",
                    "country": "United States",
                    "geoPoint": {
                        "lat": 32.76783,
                        "lon": -117.02308
                    }
                },
                {
                    "facility": "Probe Clinical Research",
                    "status": "RECRUITING",
                    "city": "Riverside",
                    "state": "California",
                    "zip": "92501",
                    "country": "United States",
                    "geoPoint": {
                        "lat": 33.95335,
                        "lon": -117.39616
                    }
                },
                {
                    "facility": "Pain Management and Injury Relief",
                    "status": "RECRUITING",
                    "city": "Thousand Oaks",
                    "state": "California",
                    "zip": "91320",
                    "country": "United States",
                    "geoPoint": {
                        "lat": 34.17056,
                        "lon": -118.83759
                    }
                },
                {
                    "facility": "Visionary Investigators Network",
                    "status": "RECRUITING",
                    "city": "Aventura",
                    "state": "Florida",
                    "zip": "33180",
                    "country": "United States",
                    "geoPoint": {
                        "lat": 25.95648,
                        "lon": -80.13921
                    }
                },
                {
                    "facility": "Nature Coast Clinical Research - Crystal River",
                    "status": "RECRUITING",
                    "city": "Crystal River",
                    "state": "Florida",
                    "zip": "34429",
                    "country": "United States",
                    "geoPoint": {
                        "lat": 28.90248,
                        "lon": -82.5926
                    }
                },
                {
                    "facility": "JY Research Institute",
                    "status": "RECRUITING",
                    "city": "Cutler Bay",
                    "state": "Florida",
                    "zip": "33189",
                    "country": "United States",
                    "geoPoint": {
                        "lat": 25.5783,
                        "lon": -80.3377
                    }
                },
                {
                    "facility": "Fleming Island Center for Clinical Research",
                    "status": "RECRUITING",
                    "city": "Fleming Island",
                    "state": "Florida",
                    "zip": "32003",
                    "country": "United States",
                    "geoPoint": {
                        "lat": 30.0933,
                        "lon": -81.71898
                    }
                },
                {
                    "facility": "Convenient Medical Research",
                    "status": "RECRUITING",
                    "city": "Hialeah",
                    "state": "Florida",
                    "zip": "33013",
                    "country": "United States",
                    "geoPoint": {
                        "lat": 25.8576,
                        "lon": -80.27811
                    }
                },
                {
                    "facility": "Jacksonville Center for Clinical Research",
                    "status": "RECRUITING",
                    "city": "Jacksonville",
                    "state": "Florida",
                    "zip": "32216",
                    "country": "United States",
                    "geoPoint": {
                        "lat": 30.33218,
                        "lon": -81.65565
                    }
                },
                {
                    "facility": "L&C Professional Medical Research Institute",
                    "status": "RECRUITING",
                    "city": "Miami",
                    "state": "Florida",
                    "zip": "33144",
                    "country": "United States",
                    "geoPoint": {
                        "lat": 25.77427,
                        "lon": -80.19366
                    }
                },
                {
                    "facility": "Medical Research of Westchester",
                    "status": "RECRUITING",
                    "city": "Miami",
                    "state": "Florida",
                    "zip": "33165",
                    "country": "United States",
                    "geoPoint": {
                        "lat": 25.77427,
                        "lon": -80.19366
                    }
                },
                {
                    "facility": "Brain & Spine Institute Of Port Orange",
                    "status": "RECRUITING",
                    "city": "Port Orange",
                    "state": "Florida",
                    "zip": "32127",
                    "country": "United States",
                    "geoPoint": {
                        "lat": 29.13832,
                        "lon": -80.99561
                    }
                },
                {
                    "facility": "Accel Research Site - St. Petersburg/Largo",
                    "status": "RECRUITING",
                    "city": "Seminole",
                    "state": "Florida",
                    "zip": "33777",
                    "country": "United States",
                    "geoPoint": {
                        "lat": 27.83975,
                        "lon": -82.79121
                    }
                },
                {
                    "facility": "Atlanta Center for Medical Research",
                    "status": "RECRUITING",
                    "city": "Atlanta",
                    "state": "Georgia",
                    "zip": "30331",
                    "country": "United States",
                    "geoPoint": {
                        "lat": 33.749,
                        "lon": -84.38798
                    }
                },
                {
                    "facility": "ClinCept Clinical Research",
                    "status": "RECRUITING",
                    "city": "Columbus",
                    "state": "Georgia",
                    "zip": "31904",
                    "country": "United States",
                    "geoPoint": {
                        "lat": 32.46098,
                        "lon": -84.98771
                    }
                },
                {
                    "facility": "Accel Research Sites - Neurostudies",
                    "status": "RECRUITING",
                    "city": "Decatur",
                    "state": "Georgia",
                    "zip": "30030",
                    "country": "United States",
                    "geoPoint": {
                        "lat": 33.77483,
                        "lon": -84.29631
                    }
                },
                {
                    "facility": "Velocity Clinical Research - Savannah Neurology Specialists",
                    "status": "RECRUITING",
                    "city": "Savannah",
                    "state": "Georgia",
                    "zip": "31406",
                    "country": "United States",
                    "geoPoint": {
                        "lat": 32.08354,
                        "lon": -81.09983
                    }
                },
                {
                    "facility": "Velocity Clinical Research - Savannah",
                    "status": "RECRUITING",
                    "city": "Savannah",
                    "state": "Georgia",
                    "zip": "31406",
                    "country": "United States",
                    "geoPoint": {
                        "lat": 32.08354,
                        "lon": -81.09983
                    }
                },
                {
                    "facility": "Center for Pain Management and Rehab",
                    "status": "RECRUITING",
                    "city": "Stockbridge",
                    "state": "Georgia",
                    "zip": "30281",
                    "country": "United States",
                    "geoPoint": {
                        "lat": 33.54428,
                        "lon": -84.23381
                    }
                },
                {
                    "facility": "Velocity Clinical Research - Boise",
                    "status": "RECRUITING",
                    "city": "Meridian",
                    "state": "Idaho",
                    "zip": "83642",
                    "country": "United States",
                    "geoPoint": {
                        "lat": 43.61211,
                        "lon": -116.39151
                    }
                },
                {
                    "facility": "Healthcare Research Network II, LLC",
                    "status": "RECRUITING",
                    "city": "Flossmoor",
                    "state": "Illinois",
                    "zip": "60422",
                    "country": "United States",
                    "geoPoint": {
                        "lat": 41.54281,
                        "lon": -87.68477
                    }
                },
                {
                    "facility": "Essential Concepts Research Solutions",
                    "status": "ACTIVE_NOT_RECRUITING",
                    "city": "Palos Hills",
                    "state": "Illinois",
                    "zip": "60465",
                    "country": "United States",
                    "geoPoint": {
                        "lat": 41.6967,
                        "lon": -87.817
                    }
                },
                {
                    "facility": "AMR Wichita East, KS",
                    "status": "RECRUITING",
                    "city": "Wichita",
                    "state": "Kansas",
                    "zip": "67207",
                    "country": "United States",
                    "geoPoint": {
                        "lat": 37.69224,
                        "lon": -97.33754
                    }
                },
                {
                    "facility": "Velocity Clinical Research - Rockville",
                    "status": "RECRUITING",
                    "city": "Rockville",
                    "state": "Maryland",
                    "zip": "20854",
                    "country": "United States",
                    "geoPoint": {
                        "lat": 39.084,
                        "lon": -77.15276
                    }
                },
                {
                    "facility": "Brigham and Women's Hospital (BWH)",
                    "status": "RECRUITING",
                    "city": "Boston",
                    "state": "Massachusetts",
                    "zip": "02115",
                    "country": "United States",
                    "geoPoint": {
                        "lat": 42.35843,
                        "lon": -71.05977
                    }
                },
                {
                    "facility": "MedVadis Research Coorporation",
                    "status": "RECRUITING",
                    "city": "Waltham",
                    "state": "Massachusetts",
                    "zip": "02451",
                    "country": "United States",
                    "geoPoint": {
                        "lat": 42.37649,
                        "lon": -71.23561
                    }
                },
                {
                    "facility": "St. Louis Pain Consultants",
                    "status": "RECRUITING",
                    "city": "Chesterfield",
                    "state": "Missouri",
                    "zip": "63017",
                    "country": "United States",
                    "geoPoint": {
                        "lat": 38.66311,
                        "lon": -90.57707
                    }
                },
                {
                    "facility": "Healthcare Research Network",
                    "status": "RECRUITING",
                    "city": "Hazelwood",
                    "state": "Missouri",
                    "zip": "63042",
                    "country": "United States",
                    "geoPoint": {
                        "lat": 38.77144,
                        "lon": -90.37095
                    }
                },
                {
                    "facility": "Be Well Clinical Studies, LLC",
                    "status": "RECRUITING",
                    "city": "Lincoln",
                    "state": "Nebraska",
                    "zip": "68516",
                    "country": "United States",
                    "geoPoint": {
                        "lat": 40.8,
                        "lon": -96.66696
                    }
                },
                {
                    "facility": "AES Henderson",
                    "status": "RECRUITING",
                    "city": "Henderson",
                    "state": "Nevada",
                    "zip": "89052",
                    "country": "United States",
                    "geoPoint": {
                        "lat": 36.0397,
                        "lon": -114.98194
                    }
                },
                {
                    "facility": "AMR Las Vegas (Clinical Research Consortium)",
                    "status": "RECRUITING",
                    "city": "Las Vegas",
                    "state": "Nevada",
                    "zip": "89119",
                    "country": "United States",
                    "geoPoint": {
                        "lat": 36.17497,
                        "lon": -115.13722
                    }
                },
                {
                    "facility": "Albany Medical Center",
                    "status": "RECRUITING",
                    "city": "Albany",
                    "state": "New York",
                    "zip": "12208",
                    "country": "United States",
                    "geoPoint": {
                        "lat": 42.65258,
                        "lon": -73.75623
                    }
                },
                {
                    "facility": "AES New York",
                    "status": "RECRUITING",
                    "city": "New York",
                    "state": "New York",
                    "zip": "10017",
                    "country": "United States",
                    "geoPoint": {
                        "lat": 40.71427,
                        "lon": -74.00597
                    }
                },
                {
                    "facility": "Velocity Clinical Research - Cincinnati",
                    "status": "RECRUITING",
                    "city": "Cincinnati",
                    "state": "Ohio",
                    "zip": "45242",
                    "country": "United States",
                    "geoPoint": {
                        "lat": 39.12713,
                        "lon": -84.51435
                    }
                },
                {
                    "facility": "META Medical Research Institute",
                    "status": "RECRUITING",
                    "city": "Dayton",
                    "state": "Ohio",
                    "zip": "45432",
                    "country": "United States",
                    "geoPoint": {
                        "lat": 39.75895,
                        "lon": -84.19161
                    }
                },
                {
                    "facility": "NexGen Research",
                    "status": "RECRUITING",
                    "city": "Lima",
                    "state": "Ohio",
                    "zip": "45805",
                    "country": "United States",
                    "geoPoint": {
                        "lat": 40.74255,
                        "lon": -84.10523
                    }
                },
                {
                    "facility": "Clinical Investigations LLC.",
                    "status": "RECRUITING",
                    "city": "Edmond",
                    "state": "Oklahoma",
                    "zip": "73034",
                    "country": "United States",
                    "geoPoint": {
                        "lat": 35.65283,
                        "lon": -97.4781
                    }
                },
                {
                    "facility": "AMR Norman",
                    "status": "RECRUITING",
                    "city": "Norman",
                    "state": "Oklahoma",
                    "zip": "73069",
                    "country": "United States",
                    "geoPoint": {
                        "lat": 35.22257,
                        "lon": -97.43948
                    }
                },
                {
                    "facility": "Pacific Sports and Spine",
                    "status": "RECRUITING",
                    "city": "Eugene",
                    "state": "Oregon",
                    "zip": "97404",
                    "country": "United States",
                    "geoPoint": {
                        "lat": 44.05207,
                        "lon": -123.08675
                    }
                },
                {
                    "facility": "Velocity Clinical Research - Grants Pass",
                    "status": "RECRUITING",
                    "city": "Grants Pass",
                    "state": "Oregon",
                    "zip": "97527",
                    "country": "United States",
                    "geoPoint": {
                        "lat": 42.43933,
                        "lon": -123.33067
                    }
                },
                {
                    "facility": "Velocity Clinical Research - Providence",
                    "status": "RECRUITING",
                    "city": "East Greenwich",
                    "state": "Rhode Island",
                    "zip": "02818",
                    "country": "United States",
                    "geoPoint": {
                        "lat": 41.66038,
                        "lon": -71.45589
                    }
                },
                {
                    "facility": "Clinical Trials of South Carolina - Charleston",
                    "status": "RECRUITING",
                    "city": "Charleston",
                    "state": "South Carolina",
                    "zip": "29406",
                    "country": "United States",
                    "geoPoint": {
                        "lat": 32.77657,
                        "lon": -79.93092
                    }
                },
                {
                    "facility": "AES Dallas Forth Worth",
                    "status": "RECRUITING",
                    "city": "Dallas",
                    "state": "Texas",
                    "zip": "75234",
                    "country": "United States",
                    "geoPoint": {
                        "lat": 32.78306,
                        "lon": -96.80667
                    }
                },
                {
                    "facility": "Expert Pain",
                    "status": "RECRUITING",
                    "city": "Houston",
                    "state": "Texas",
                    "zip": "77079",
                    "country": "United States",
                    "geoPoint": {
                        "lat": 29.76328,
                        "lon": -95.36327
                    }
                },
                {
                    "facility": "Lubbock Spine Institute",
                    "status": "RECRUITING",
                    "city": "Lubbock",
                    "state": "Texas",
                    "zip": "79410",
                    "country": "United States",
                    "geoPoint": {
                        "lat": 33.57786,
                        "lon": -101.85517
                    }
                },
                {
                    "facility": "Be Well Clinical Studies - Austin",
                    "status": "RECRUITING",
                    "city": "Round Rock",
                    "state": "Texas",
                    "zip": "78681",
                    "country": "United States",
                    "geoPoint": {
                        "lat": 30.50826,
                        "lon": -97.6789
                    }
                },
                {
                    "facility": "JBR Clinical Research",
                    "status": "RECRUITING",
                    "city": "Salt Lake City",
                    "state": "Utah",
                    "zip": "84107",
                    "country": "United States",
                    "geoPoint": {
                        "lat": 40.76078,
                        "lon": -111.89105
                    }
                },
                {
                    "facility": "Velocity Clinical Research - Hampton",
                    "status": "RECRUITING",
                    "city": "Hampton",
                    "state": "Virginia",
                    "zip": "23666",
                    "country": "United States",
                    "geoPoint": {
                        "lat": 37.02987,
                        "lon": -76.34522
                    }
                },
                {
                    "facility": "AMR Norfolk",
                    "status": "RECRUITING",
                    "city": "Norfolk",
                    "state": "Virginia",
                    "zip": "23502",
                    "country": "United States",
                    "geoPoint": {
                        "lat": 36.84681,
                        "lon": -76.28522
                    }
                },
                {
                    "facility": "Velocity Clinical Research - Portsmouth",
                    "status": "RECRUITING",
                    "city": "Portsmouth",
                    "state": "Virginia",
                    "zip": "23703",
                    "country": "United States",
                    "geoPoint": {
                        "lat": 36.83543,
                        "lon": -76.29827
                    }
                }
            ]
        },
        "ipdSharingStatementModule": {
            "ipdSharing": "NO",
            "description": "Details on Vertex data sharing criteria and process for requesting access can be found at: https://www.vrtx.com/independent-research/clinical-trial-data-sharing"
        }
    },
    "derivedSection": {
        "miscInfoModule": {
            "versionHolder": "2024-07-30"
        },
        "conditionBrowseModule": {
            "meshes": [
                {
                    "id": "D000011843",
                    "term": "Radiculopathy"
                },
                {
                    "id": "D000010146",
                    "term": "Pain"
                }
            ],
            "ancestors": [
                {
                    "id": "D000009461",
                    "term": "Neurologic Manifestations"
                },
                {
                    "id": "D000010523",
                    "term": "Peripheral Nervous System Diseases"
                },
                {
                    "id": "D000009468",
                    "term": "Neuromuscular Diseases"
                },
                {
                    "id": "D000009422",
                    "term": "Nervous System Diseases"
                }
            ],
            "browseLeaves": [
                {
                    "id": "M14689",
                    "name": "Radiculopathy",
                    "asFound": "Radiculopathy",
                    "relevance": "HIGH"
                },
                {
                    "id": "M13066",
                    "name": "Pain",
                    "asFound": "Painful",
                    "relevance": "HIGH"
                },
                {
                    "id": "M12404",
                    "name": "Neurologic Manifestations",
                    "relevance": "LOW"
                },
                {
                    "id": "M13432",
                    "name": "Peripheral Nervous System Diseases",
                    "relevance": "LOW"
                },
                {
                    "id": "M12411",
                    "name": "Neuromuscular Diseases",
                    "relevance": "LOW"
                }
            ],
            "browseBranches": [
                {
                    "abbrev": "BC10",
                    "name": "Nervous System Diseases"
                },
                {
                    "abbrev": "All",
                    "name": "All Conditions"
                },
                {
                    "abbrev": "BC23",
                    "name": "Symptoms and General Pathology"
                }
            ]
        }
    },
    "hasResults": false
}