{
    "protocolSection": {
        "identificationModule": {
            "nctId": "NCT04991116",
            "orgStudyIdInfo": {
                "id": "TILD-21-01"
            },
            "organization": {
                "fullName": "Sun Pharmaceutical Industries Limited",
                "class": "INDUSTRY"
            },
            "briefTitle": "Long Term Evaluation of Safety and Efficacy of Tildrakizumab in Patients With Psoriatic Arthritis",
            "officialTitle": "An Open-Label Extension Study to Evaluate Long Term Safety and Efficacy of Tildrakizumab in Patients With Psoriatic Arthritis.",
            "therapeuticArea": [
                "Orthopedics"
            ],
            "study": "long-term-evaluation-of-safety-and-efficacy-of-tildrakizumab-in-patients-with-psoriatic-arthritis"
        },
        "statusModule": {
            "statusVerifiedDate": "2024-06",
            "overallStatus": "RECRUITING",
            "expandedAccessInfo": {
                "hasExpandedAccess": false
            },
            "startDateStruct": {
                "date": "2022-06-30",
                "type": "ACTUAL"
            },
            "primaryCompletionDateStruct": {
                "date": "2025-09",
                "type": "ESTIMATED"
            },
            "completionDateStruct": {
                "date": "2026-01",
                "type": "ESTIMATED"
            },
            "studyFirstSubmitDate": "2021-07-29",
            "studyFirstSubmitQcDate": "2021-08-04",
            "studyFirstPostDateStruct": {
                "date": "2021-08-05",
                "type": "ACTUAL"
            },
            "lastUpdateSubmitDate": "2024-07-10",
            "lastUpdatePostDateStruct": {
                "date": "2024-07-11",
                "type": "ACTUAL"
            }
        },
        "sponsorCollaboratorsModule": {
            "responsibleParty": {
                "type": "SPONSOR"
            },
            "leadSponsor": {
                "name": "Sun Pharmaceutical Industries Limited",
                "class": "INDUSTRY"
            }
        },
        "oversightModule": {
            "oversightHasDmc": false,
            "isFdaRegulatedDrug": true,
            "isFdaRegulatedDevice": false
        },
        "descriptionModule": {
            "briefSummary": "An open label phase 3 study",
            "detailedDescription": "Subjects from both INSPIRE 1 (TILD-19-07) and INSPIRE 2 (TILD-19-19) studies to roll over into this INSPIRE LTE study (TILD-21-01)."
        },
        "conditionsModule": {
            "conditions": [
                "Psoriatic Arthritis"
            ]
        },
        "designModule": {
            "studyType": "INTERVENTIONAL",
            "phases": [
                "PHASE3"
            ],
            "designInfo": {
                "allocation": "NA",
                "interventionModel": "SINGLE_GROUP",
                "primaryPurpose": "TREATMENT",
                "maskingInfo": {
                    "masking": "NONE"
                }
            },
            "enrollmentInfo": {
                "count": 650,
                "type": "ESTIMATED"
            }
        },
        "armsInterventionsModule": {
            "armGroups": [
                {
                    "label": "TILD q12 weeks",
                    "type": "EXPERIMENTAL",
                    "interventionNames": [
                        "Drug: TILD sub-cutaneous (SC) injection"
                    ]
                }
            ],
            "interventions": [
                {
                    "type": "DRUG",
                    "name": "TILD sub-cutaneous (SC) injection",
                    "description": "1 mL injection of study medication",
                    "armGroupLabels": [
                        "TILD q12 weeks"
                    ]
                }
            ]
        },
        "outcomesModule": {
            "primaryOutcomes": [
                {
                    "measure": "Incidence and intensity of Adverse Events (AEs) recorded through the study period",
                    "timeFrame": "Week 124"
                },
                {
                    "measure": "Proportion of Subject Who Reached (American College of Rheumatology Score of 20) ACR20",
                    "description": "ACR20 response is an aggregate of:\n\n1. at least 20% reduction in tender joint count and swollen joint count and at least 3 of the following 5 assessments:\n\n1. physician's global assessment of disease activity\n2. patient's global assessment of disease activity\n3. patient's assessment of pain\n4. patient's self-assessed disability based on health assessment questionnaire\n5. c-reactive protein",
                    "timeFrame": "Week 124"
                },
                {
                    "measure": "Proportion of Subjects Who Reached (American College of Rheumatology Score of 50) ACR50",
                    "description": "ACR50 response is an aggregate of:\n\n1. at least 50% reduction in tender joint count and swollen joint count and at least 3 of the following 5 assessments:\n\n1. physician's global assessment of disease activity\n2. patient's global assessment of disease activity\n3. patient's assessment of pain\n4. patient's self-assessed disability based on health assessment questionnaire\n5. c-reactive protein",
                    "timeFrame": "Week 124"
                },
                {
                    "measure": "Proportion of Subjects Who Reached (American College of Rheumatology Score of 70) ACR70",
                    "description": "ACR70 response is an aggregate of:\n\n1. at least 70% reduction in tender joint count and swollen joint count and at least 3 of the following 5 assessments:\n\n1. physician's global assessment of disease activity\n2. patient's global assessment of disease activity\n3. patient's assessment of pain\n4. patient's self-assessed disability based on health assessment questionnaire\n5. c-reactive protein",
                    "timeFrame": "Week 124"
                }
            ]
        },
        "eligibilityModule": {
            "eligibilityCriteria": "Inclusion Criteria:\n\n* Subjects possess the ability to understand the requirements of the study.\n* Subject has provided written informed consent as evidenced by signature on an informed consent form approved by an institutional review board/EC.\n* Agree to abide by the study restrictions, scheduled treatment, laboratory assessments, other study procedures and return to the site for the required assessments.\n* Subject with PsA who had met all eligibility criteria for the parent study, had completed the parent study treatment period and has not developed any parent protocol criteria for premature discontinuation of treatment or withdrawal from the study.\n\nExclusion Criteria:\n\n* Female subjects of childbearing potential who do not agree to abstain from heterosexual activity or practice a dual method of contraception.\n* Female is pregnant or breastfeeding, or planning to become pregnant or initiate breastfeeding while enrolled in the study or up to 17 weeks after the last dose of IMP.\n* Subject has previously been enrolled in this long-term extension study.\n* Any condition that in the opinion of the Investigator represents an obstacle for study conduct and/or represents a potential unacceptable risk for the subject.",
            "healthyVolunteers": false,
            "sex": "ALL",
            "minimumAge": "18 Years",
            "stdAges": [
                "ADULT",
                "OLDER_ADULT"
            ]
        },
        "contactsLocationsModule": {
            "centralContacts": [
                {
                    "name": "Head, Clinical Developement",
                    "role": "CONTACT",
                    "phone": "9122 66455645",
                    "phoneExt": "5689",
                    "email": "Clinical.Trial@sunpharma.com"
                }
            ],
            "locations": [
                {
                    "facility": "Sunpharma site no 50",
                    "status": "RECRUITING",
                    "city": "Dothan",
                    "state": "Alabama",
                    "zip": "36305",
                    "country": "United States",
                    "geoPoint": {
                        "lat": 31.22323,
                        "lon": -85.39049
                    }
                },
                {
                    "facility": "Sunpharma site no 80",
                    "status": "ACTIVE_NOT_RECRUITING",
                    "city": "Gilbert",
                    "state": "Arizona",
                    "zip": "85297",
                    "country": "United States",
                    "geoPoint": {
                        "lat": 33.35283,
                        "lon": -111.78903
                    }
                },
                {
                    "facility": "Sunpharma site no 65",
                    "status": "RECRUITING",
                    "city": "Mesa",
                    "state": "Arizona",
                    "zip": "85210",
                    "country": "United States",
                    "geoPoint": {
                        "lat": 33.42227,
                        "lon": -111.82264
                    }
                },
                {
                    "facility": "Sunpharma site no. 30",
                    "status": "RECRUITING",
                    "city": "Covina",
                    "state": "California",
                    "zip": "91722",
                    "country": "United States",
                    "geoPoint": {
                        "lat": 34.09001,
                        "lon": -117.89034
                    }
                },
                {
                    "facility": "Sunpharma site no. 17",
                    "status": "RECRUITING",
                    "city": "Fountain Valley",
                    "state": "California",
                    "zip": "92708",
                    "country": "United States",
                    "geoPoint": {
                        "lat": 33.70918,
                        "lon": -117.95367
                    }
                },
                {
                    "facility": "Sunpharma site no. 15",
                    "status": "RECRUITING",
                    "city": "Thousand Oaks",
                    "state": "California",
                    "zip": "91320",
                    "country": "United States",
                    "geoPoint": {
                        "lat": 34.17056,
                        "lon": -118.83759
                    }
                },
                {
                    "facility": "Sunpharma site no. 21",
                    "status": "RECRUITING",
                    "city": "Clearwater",
                    "state": "Florida",
                    "zip": "33765",
                    "country": "United States",
                    "geoPoint": {
                        "lat": 27.96585,
                        "lon": -82.8001
                    }
                },
                {
                    "facility": "Sunpharma site no. 02",
                    "status": "RECRUITING",
                    "city": "Hialeah",
                    "state": "Florida",
                    "zip": "33016",
                    "country": "United States",
                    "geoPoint": {
                        "lat": 25.8576,
                        "lon": -80.27811
                    }
                },
                {
                    "facility": "Sunpharma site no 71",
                    "status": "RECRUITING",
                    "city": "Kissimmee",
                    "state": "Florida",
                    "zip": "34744",
                    "country": "United States",
                    "geoPoint": {
                        "lat": 28.30468,
                        "lon": -81.41667
                    }
                },
                {
                    "facility": "Sunpharma site no. 05",
                    "status": "RECRUITING",
                    "city": "New Port Richey",
                    "state": "Florida",
                    "zip": "34652",
                    "country": "United States",
                    "geoPoint": {
                        "lat": 28.24418,
                        "lon": -82.71927
                    }
                },
                {
                    "facility": "Sunpharma site no 32",
                    "status": "RECRUITING",
                    "city": "Ocoee",
                    "state": "Florida",
                    "zip": "34751",
                    "country": "United States",
                    "geoPoint": {
                        "lat": 28.56917,
                        "lon": -81.54396
                    }
                },
                {
                    "facility": "SunPharma Site no 22",
                    "status": "RECRUITING",
                    "city": "Tamarac",
                    "state": "Florida",
                    "zip": "33321",
                    "country": "United States",
                    "geoPoint": {
                        "lat": 26.21286,
                        "lon": -80.24977
                    }
                },
                {
                    "facility": "Sunpharma site no 52",
                    "status": "RECRUITING",
                    "city": "Gainesville",
                    "state": "Georgia",
                    "zip": "30501",
                    "country": "United States",
                    "geoPoint": {
                        "lat": 34.29788,
                        "lon": -83.82407
                    }
                },
                {
                    "facility": "Sunpharma site no 51",
                    "status": "RECRUITING",
                    "city": "Orland Park",
                    "state": "Illinois",
                    "zip": "60467",
                    "country": "United States",
                    "geoPoint": {
                        "lat": 41.63031,
                        "lon": -87.85394
                    }
                },
                {
                    "facility": "Sunpharma site no 49",
                    "status": "ACTIVE_NOT_RECRUITING",
                    "city": "Schaumburg",
                    "state": "Illinois",
                    "zip": "60195",
                    "country": "United States",
                    "geoPoint": {
                        "lat": 42.03336,
                        "lon": -88.08341
                    }
                },
                {
                    "facility": "Sunpharma site no 47",
                    "status": "RECRUITING",
                    "city": "Skokie",
                    "state": "Illinois",
                    "zip": "60076",
                    "country": "United States",
                    "geoPoint": {
                        "lat": 42.03336,
                        "lon": -87.73339
                    }
                },
                {
                    "facility": "Sunpharma site no. 20",
                    "status": "RECRUITING",
                    "city": "Wichita",
                    "state": "Kansas",
                    "zip": "67207",
                    "country": "United States",
                    "geoPoint": {
                        "lat": 37.69224,
                        "lon": -97.33754
                    }
                },
                {
                    "facility": "Sunpharma site no. 14",
                    "status": "RECRUITING",
                    "city": "Springfield",
                    "state": "Missouri",
                    "zip": "65807",
                    "country": "United States",
                    "geoPoint": {
                        "lat": 37.21533,
                        "lon": -93.29824
                    }
                },
                {
                    "facility": "Sunpharma site no 48",
                    "status": "RECRUITING",
                    "city": "Kalispell",
                    "state": "Montana",
                    "zip": "59901",
                    "country": "United States",
                    "geoPoint": {
                        "lat": 48.19579,
                        "lon": -114.31291
                    }
                },
                {
                    "facility": "Sunpharma Site no 27",
                    "status": "RECRUITING",
                    "city": "Lincoln",
                    "state": "Nebraska",
                    "zip": "68516",
                    "country": "United States",
                    "geoPoint": {
                        "lat": 40.8,
                        "lon": -96.66696
                    }
                },
                {
                    "facility": "Sunpharma site no 33",
                    "status": "RECRUITING",
                    "city": "Voorhees",
                    "state": "New Jersey",
                    "zip": "08043",
                    "country": "United States",
                    "geoPoint": {
                        "lat": 40.48122,
                        "lon": -74.48321
                    }
                },
                {
                    "facility": "Sunpharma site no 34",
                    "status": "RECRUITING",
                    "city": "Charlotte",
                    "state": "North Carolina",
                    "zip": "28204",
                    "country": "United States",
                    "geoPoint": {
                        "lat": 35.22709,
                        "lon": -80.84313
                    }
                },
                {
                    "facility": "Sunpharma site no 53",
                    "status": "RECRUITING",
                    "city": "Wilmington",
                    "state": "North Carolina",
                    "zip": "28401",
                    "country": "United States",
                    "geoPoint": {
                        "lat": 34.22573,
                        "lon": -77.94471
                    }
                },
                {
                    "facility": "Sunpharma site no 35",
                    "status": "RECRUITING",
                    "city": "Minot",
                    "state": "North Dakota",
                    "zip": "58701",
                    "country": "United States",
                    "geoPoint": {
                        "lat": 48.23251,
                        "lon": -101.29627
                    }
                },
                {
                    "facility": "Sunpharma site no. 11",
                    "status": "RECRUITING",
                    "city": "Middleburg Heights",
                    "state": "Ohio",
                    "zip": "44130",
                    "country": "United States",
                    "geoPoint": {
                        "lat": 41.36144,
                        "lon": -81.81291
                    }
                },
                {
                    "facility": "Sunpharma site no 31",
                    "status": "ACTIVE_NOT_RECRUITING",
                    "city": "Greenville",
                    "state": "South Carolina",
                    "zip": "29601",
                    "country": "United States",
                    "geoPoint": {
                        "lat": 34.85262,
                        "lon": -82.39401
                    }
                },
                {
                    "facility": "Sunpharma site no. 08",
                    "status": "TERMINATED",
                    "city": "Baytown",
                    "state": "Texas",
                    "zip": "77521",
                    "country": "United States",
                    "geoPoint": {
                        "lat": 29.7355,
                        "lon": -94.97743
                    }
                },
                {
                    "facility": "Sunpharma site no. 13",
                    "status": "RECRUITING",
                    "city": "Baytown",
                    "state": "Texas",
                    "zip": "77521",
                    "country": "United States",
                    "geoPoint": {
                        "lat": 29.7355,
                        "lon": -94.97743
                    }
                },
                {
                    "facility": "Sunpharma Site no 28",
                    "status": "RECRUITING",
                    "city": "Lubbock",
                    "state": "Texas",
                    "zip": "79410",
                    "country": "United States",
                    "geoPoint": {
                        "lat": 33.57786,
                        "lon": -101.85517
                    }
                },
                {
                    "facility": "Sunpharma site no. 03",
                    "status": "NOT_YET_RECRUITING",
                    "city": "San Antonio",
                    "state": "Texas",
                    "zip": "78229",
                    "country": "United States",
                    "geoPoint": {
                        "lat": 29.42412,
                        "lon": -98.49363
                    }
                },
                {
                    "facility": "Sunpharma site no. 16",
                    "status": "ACTIVE_NOT_RECRUITING",
                    "city": "San Antonio",
                    "state": "Texas",
                    "zip": "78229",
                    "country": "United States",
                    "geoPoint": {
                        "lat": 29.42412,
                        "lon": -98.49363
                    }
                },
                {
                    "facility": "Sunpharma site no. 01",
                    "status": "RECRUITING",
                    "city": "Tomball",
                    "state": "Texas",
                    "zip": "77375",
                    "country": "United States",
                    "geoPoint": {
                        "lat": 30.09716,
                        "lon": -95.61605
                    }
                },
                {
                    "facility": "Sunpharma site no 66",
                    "status": "RECRUITING",
                    "city": "Spokane",
                    "state": "Washington",
                    "zip": "99204",
                    "country": "United States",
                    "geoPoint": {
                        "lat": 47.65966,
                        "lon": -117.42908
                    }
                },
                {
                    "facility": "Sunpharma site no 59",
                    "status": "RECRUITING",
                    "city": "Phillip",
                    "state": "Australian Capital Territory",
                    "zip": "2606",
                    "country": "Australia",
                    "geoPoint": {
                        "lat": -31.13333,
                        "lon": 150.85
                    }
                },
                {
                    "facility": "Sunpharma site no 58",
                    "status": "RECRUITING",
                    "city": "Maroochydore",
                    "state": "Queensland",
                    "zip": "4558",
                    "country": "Australia",
                    "geoPoint": {
                        "lat": -26.66008,
                        "lon": 153.09953
                    }
                },
                {
                    "facility": "Sunpharma site no. 24",
                    "status": "RECRUITING",
                    "city": "Hobart",
                    "state": "Tasmania",
                    "zip": "7000",
                    "country": "Australia",
                    "geoPoint": {
                        "lat": -42.87936,
                        "lon": 147.32941
                    }
                },
                {
                    "facility": "Sunpharma site no 36",
                    "status": "RECRUITING",
                    "city": "Brno",
                    "zip": "638 00",
                    "country": "Czechia",
                    "geoPoint": {
                        "lat": 49.19522,
                        "lon": 16.60796
                    }
                },
                {
                    "facility": "Sunpharma site no 67",
                    "status": "RECRUITING",
                    "city": "Praha 2",
                    "zip": "12800",
                    "country": "Czechia",
                    "geoPoint": {
                        "lat": 50.08804,
                        "lon": 14.42076
                    }
                },
                {
                    "facility": "Sunpharma site no 89",
                    "status": "ACTIVE_NOT_RECRUITING",
                    "city": "Praha 4",
                    "zip": "140 00",
                    "country": "Czechia",
                    "geoPoint": {
                        "lat": 50.08804,
                        "lon": 14.42076
                    }
                },
                {
                    "facility": "Sunpharma site no 82",
                    "status": "RECRUITING",
                    "city": "Zlin",
                    "zip": "760 01",
                    "country": "Czechia",
                    "geoPoint": {
                        "lat": 49.22645,
                        "lon": 17.67065
                    }
                },
                {
                    "facility": "Sunpharma site no 44",
                    "status": "RECRUITING",
                    "city": "Tallinn",
                    "zip": "10117",
                    "country": "Estonia",
                    "geoPoint": {
                        "lat": 59.43696,
                        "lon": 24.75353
                    }
                },
                {
                    "facility": "Sunpharma site no 39",
                    "status": "RECRUITING",
                    "city": "Tartu",
                    "zip": "50106",
                    "country": "Estonia",
                    "geoPoint": {
                        "lat": 58.38062,
                        "lon": 26.72509
                    }
                },
                {
                    "facility": "Sunpharma site no 40",
                    "status": "RECRUITING",
                    "city": "Tartu",
                    "zip": "50708",
                    "country": "Estonia",
                    "geoPoint": {
                        "lat": 58.38062,
                        "lon": 26.72509
                    }
                },
                {
                    "facility": "Sunpharma site no 37",
                    "status": "RECRUITING",
                    "city": "Berlin",
                    "zip": "12161",
                    "country": "Germany",
                    "geoPoint": {
                        "lat": 52.52437,
                        "lon": 13.41053
                    }
                },
                {
                    "facility": "Sunpharma site no 83",
                    "status": "RECRUITING",
                    "city": "Herne",
                    "zip": "44649",
                    "country": "Germany",
                    "geoPoint": {
                        "lat": 51.5388,
                        "lon": 7.22572
                    }
                },
                {
                    "facility": "Sunpharma site no 90",
                    "status": "RECRUITING",
                    "city": "Verona",
                    "zip": "37134",
                    "country": "Italy",
                    "geoPoint": {
                        "lat": 45.4299,
                        "lon": 10.98444
                    }
                },
                {
                    "facility": "Sunpharma site no 73",
                    "status": "RECRUITING",
                    "city": "Shinjuku-ku",
                    "state": "Tokyo",
                    "zip": "160-0023",
                    "country": "Japan",
                    "geoPoint": {
                        "lat": 35.2946,
                        "lon": 139.57059
                    }
                },
                {
                    "facility": "Sunpharma site no 45",
                    "status": "RECRUITING",
                    "city": "Fukuoka",
                    "zip": "802-8561",
                    "country": "Japan",
                    "geoPoint": {
                        "lat": 33.6,
                        "lon": 130.41667
                    }
                },
                {
                    "facility": "Sunpharma site no 84",
                    "status": "RECRUITING",
                    "city": "Itabashi-ku",
                    "zip": "173-8606",
                    "country": "Japan",
                    "geoPoint": {
                        "lat": 35.74893,
                        "lon": 139.71497
                    }
                },
                {
                    "facility": "Sunpharma site no 46",
                    "status": "RECRUITING",
                    "city": "Kumamoto-shi",
                    "zip": "860-8556",
                    "country": "Japan",
                    "geoPoint": {
                        "lat": 32.80589,
                        "lon": 130.69182
                    }
                },
                {
                    "facility": "Sunpharma site no 72",
                    "status": "RECRUITING",
                    "city": "Mitaka",
                    "zip": "181-8611",
                    "country": "Japan",
                    "geoPoint": {
                        "lat": 35.68351,
                        "lon": 139.55963
                    }
                },
                {
                    "facility": "Sunpharma site no 79",
                    "status": "RECRUITING",
                    "city": "Miyazaki",
                    "zip": "889-1692",
                    "country": "Japan",
                    "geoPoint": {
                        "lat": 31.91667,
                        "lon": 131.41667
                    }
                },
                {
                    "facility": "Sunpharma site no 78",
                    "status": "ACTIVE_NOT_RECRUITING",
                    "city": "Nagoya",
                    "zip": "467-8602",
                    "country": "Japan",
                    "geoPoint": {
                        "lat": 35.18147,
                        "lon": 136.90641
                    }
                },
                {
                    "facility": "Sunpharma site no 64",
                    "status": "RECRUITING",
                    "city": "Sendai-shi",
                    "zip": "545-8586",
                    "country": "Japan",
                    "geoPoint": {
                        "lat": 38.26667,
                        "lon": 140.86667
                    }
                },
                {
                    "facility": "Sunpharma site no 63",
                    "status": "RECRUITING",
                    "city": "Sendai-shi",
                    "zip": "980-8574",
                    "country": "Japan",
                    "geoPoint": {
                        "lat": 38.26667,
                        "lon": 140.86667
                    }
                },
                {
                    "facility": "Sunpharma site no 87",
                    "status": "RECRUITING",
                    "city": "Tsu",
                    "country": "Japan",
                    "geoPoint": {
                        "lat": 34.73333,
                        "lon": 136.51667
                    }
                },
                {
                    "facility": "Sunpharma site no 70",
                    "status": "RECRUITING",
                    "city": "Seoul",
                    "zip": "3080",
                    "country": "Korea, Republic of",
                    "geoPoint": {
                        "lat": 37.566,
                        "lon": 126.9784
                    }
                },
                {
                    "facility": "Sunpharma site no 43",
                    "status": "RECRUITING",
                    "city": "Bialystok",
                    "zip": "15-351",
                    "country": "Poland",
                    "geoPoint": {
                        "lat": 53.13333,
                        "lon": 23.16433
                    }
                },
                {
                    "facility": "Sunpharma site no 69",
                    "status": "RECRUITING",
                    "city": "Bialystok",
                    "zip": "15-879",
                    "country": "Poland",
                    "geoPoint": {
                        "lat": 53.13333,
                        "lon": 23.16433
                    }
                },
                {
                    "facility": "Sunpharma site no 56",
                    "status": "RECRUITING",
                    "city": "Krakow",
                    "zip": "30-033",
                    "country": "Poland",
                    "geoPoint": {
                        "lat": 50.06143,
                        "lon": 19.93658
                    }
                },
                {
                    "facility": "Sunpharma site no 81",
                    "status": "RECRUITING",
                    "city": "Lublin",
                    "zip": "20-607",
                    "country": "Poland",
                    "geoPoint": {
                        "lat": 51.25,
                        "lon": 22.56667
                    }
                },
                {
                    "facility": "Sunpharma site no 55",
                    "status": "RECRUITING",
                    "city": "Nadarzyn",
                    "zip": "05-830",
                    "country": "Poland",
                    "geoPoint": {
                        "lat": 52.09438,
                        "lon": 20.80776
                    }
                },
                {
                    "facility": "Sunpharma site no 85",
                    "status": "ACTIVE_NOT_RECRUITING",
                    "city": "Poznan",
                    "zip": "60-529",
                    "country": "Poland",
                    "geoPoint": {
                        "lat": 52.40692,
                        "lon": 16.92993
                    }
                },
                {
                    "facility": "Sunpharma site no 68",
                    "status": "RECRUITING",
                    "city": "Poznan",
                    "zip": "61-113",
                    "country": "Poland",
                    "geoPoint": {
                        "lat": 52.40692,
                        "lon": 16.92993
                    }
                },
                {
                    "facility": "Sunpharma site no 60",
                    "status": "RECRUITING",
                    "city": "Torun",
                    "zip": "87-100",
                    "country": "Poland",
                    "geoPoint": {
                        "lat": 53.01375,
                        "lon": 18.59814
                    }
                },
                {
                    "facility": "Sunpharma site no 61",
                    "status": "RECRUITING",
                    "city": "Warszawa",
                    "zip": "02-118",
                    "country": "Poland",
                    "geoPoint": {
                        "lat": 52.22977,
                        "lon": 21.01178
                    }
                },
                {
                    "facility": "Sunpharma site no 74",
                    "status": "RECRUITING",
                    "city": "Martin",
                    "zip": "036 01",
                    "country": "Slovakia",
                    "geoPoint": {
                        "lat": 49.06651,
                        "lon": 18.92399
                    }
                },
                {
                    "facility": "Sunpharma site no 42",
                    "status": "RECRUITING",
                    "city": "Nov\u00e9 Mesto Nad V\u00e1hom",
                    "zip": "915 01",
                    "country": "Slovakia",
                    "geoPoint": {
                        "lat": 48.75763,
                        "lon": 17.8309
                    }
                },
                {
                    "facility": "Sunpharma site no 41",
                    "status": "ACTIVE_NOT_RECRUITING",
                    "city": "Rimavska Sobota",
                    "zip": "97901",
                    "country": "Slovakia",
                    "geoPoint": {
                        "lat": 48.38284,
                        "lon": 20.02239
                    }
                },
                {
                    "facility": "Sunpharma site no 38",
                    "status": "RECRUITING",
                    "city": "Cordoba",
                    "zip": "14004",
                    "country": "Spain",
                    "geoPoint": {
                        "lat": 37.89155,
                        "lon": -4.77275
                    }
                },
                {
                    "facility": "SunPharma Site No 23",
                    "status": "RECRUITING",
                    "city": "C\u00f3rdoba",
                    "zip": "14004",
                    "country": "Spain",
                    "geoPoint": {
                        "lat": 37.89155,
                        "lon": -4.77275
                    }
                },
                {
                    "facility": "Sunpharma site no 57",
                    "status": "RECRUITING",
                    "city": "La Coru\u00f1a",
                    "zip": "15006",
                    "country": "Spain",
                    "geoPoint": {
                        "lat": 43.37135,
                        "lon": -8.396
                    }
                },
                {
                    "facility": "Sunpharma site no 86",
                    "status": "ACTIVE_NOT_RECRUITING",
                    "city": "Malaga",
                    "zip": "29009",
                    "country": "Spain",
                    "geoPoint": {
                        "lat": 36.72016,
                        "lon": -4.42034
                    }
                },
                {
                    "facility": "Sunpharma site no 88",
                    "status": "ACTIVE_NOT_RECRUITING",
                    "city": "Santiago De Compostela",
                    "zip": "15706",
                    "country": "Spain",
                    "geoPoint": {
                        "lat": 42.88052,
                        "lon": -8.54569
                    }
                },
                {
                    "facility": "Sunpharma site no 62",
                    "status": "RECRUITING",
                    "city": "Sevilla",
                    "zip": "41013",
                    "country": "Spain",
                    "geoPoint": {
                        "lat": 37.38283,
                        "lon": -5.97317
                    }
                },
                {
                    "facility": "Sunpharma site no 76",
                    "status": "RECRUITING",
                    "city": "Kaohsiung",
                    "zip": "833",
                    "country": "Taiwan",
                    "geoPoint": {
                        "lat": 22.61626,
                        "lon": 120.31333
                    }
                },
                {
                    "facility": "Sunpharma site no 54",
                    "status": "RECRUITING",
                    "city": "Taichung",
                    "zip": "402",
                    "country": "Taiwan",
                    "geoPoint": {
                        "lat": 24.1469,
                        "lon": 120.6839
                    }
                },
                {
                    "facility": "Sunpharma site no 75",
                    "status": "RECRUITING",
                    "city": "Tainan",
                    "zip": "710",
                    "country": "Taiwan",
                    "geoPoint": {
                        "lat": 22.99083,
                        "lon": 120.21333
                    }
                },
                {
                    "facility": "Sunpharma site no 77",
                    "status": "RECRUITING",
                    "city": "Taipei",
                    "zip": "112",
                    "country": "Taiwan",
                    "geoPoint": {
                        "lat": 25.04776,
                        "lon": 121.53185
                    }
                }
            ]
        },
        "ipdSharingStatementModule": {
            "ipdSharing": "NO"
        }
    },
    "derivedSection": {
        "miscInfoModule": {
            "versionHolder": "2024-07-30"
        },
        "conditionBrowseModule": {
            "meshes": [
                {
                    "id": "D000001168",
                    "term": "Arthritis"
                },
                {
                    "id": "D000015535",
                    "term": "Arthritis, Psoriatic"
                }
            ],
            "ancestors": [
                {
                    "id": "D000007592",
                    "term": "Joint Diseases"
                },
                {
                    "id": "D000009140",
                    "term": "Musculoskeletal Diseases"
                },
                {
                    "id": "D000025242",
                    "term": "Spondylarthropathies"
                },
                {
                    "id": "D000025241",
                    "term": "Spondylarthritis"
                },
                {
                    "id": "D000013166",
                    "term": "Spondylitis"
                },
                {
                    "id": "D000013122",
                    "term": "Spinal Diseases"
                },
                {
                    "id": "D000001847",
                    "term": "Bone Diseases"
                },
                {
                    "id": "D000011565",
                    "term": "Psoriasis"
                },
                {
                    "id": "D000017444",
                    "term": "Skin Diseases, Papulosquamous"
                },
                {
                    "id": "D000012871",
                    "term": "Skin Diseases"
                }
            ],
            "browseLeaves": [
                {
                    "id": "M4476",
                    "name": "Arthritis",
                    "asFound": "Arthritis",
                    "relevance": "HIGH"
                },
                {
                    "id": "M18178",
                    "name": "Arthritis, Psoriatic",
                    "asFound": "Psoriatic Arthritis",
                    "relevance": "HIGH"
                },
                {
                    "id": "M10621",
                    "name": "Joint Diseases",
                    "relevance": "LOW"
                },
                {
                    "id": "M12097",
                    "name": "Musculoskeletal Diseases",
                    "relevance": "LOW"
                },
                {
                    "id": "M23036",
                    "name": "Spondylarthropathies",
                    "relevance": "LOW"
                },
                {
                    "id": "M15961",
                    "name": "Spondylitis",
                    "relevance": "LOW"
                },
                {
                    "id": "M23035",
                    "name": "Spondylarthritis",
                    "relevance": "LOW"
                },
                {
                    "id": "M15919",
                    "name": "Spinal Diseases",
                    "relevance": "LOW"
                },
                {
                    "id": "M5126",
                    "name": "Bone Diseases",
                    "relevance": "LOW"
                },
                {
                    "id": "M14422",
                    "name": "Psoriasis",
                    "relevance": "LOW"
                },
                {
                    "id": "M15674",
                    "name": "Skin Diseases",
                    "relevance": "LOW"
                },
                {
                    "id": "M19713",
                    "name": "Skin Diseases, Papulosquamous",
                    "relevance": "LOW"
                },
                {
                    "id": "T5412",
                    "name": "Spondylarthropathy",
                    "relevance": "LOW"
                }
            ],
            "browseBranches": [
                {
                    "abbrev": "BC05",
                    "name": "Musculoskeletal Diseases"
                },
                {
                    "abbrev": "All",
                    "name": "All Conditions"
                },
                {
                    "abbrev": "BC17",
                    "name": "Skin and Connective Tissue Diseases"
                },
                {
                    "abbrev": "BC01",
                    "name": "Infections"
                },
                {
                    "abbrev": "Rare",
                    "name": "Rare Diseases"
                }
            ]
        }
    },
    "hasResults": false
}