{
    "protocolSection": {
        "identificationModule": {
            "nctId": "NCT04743141",
            "orgStudyIdInfo": {
                "id": "BHV3000-312"
            },
            "secondaryIdInfos": [
                {
                    "id": "C4951003",
                    "type": "OTHER",
                    "domain": "Alias Study Number"
                },
                {
                    "id": "2020-003761-18",
                    "type": "REGISTRY",
                    "domain": "CTIS (EU)"
                }
            ],
            "organization": {
                "fullName": "Pfizer",
                "class": "INDUSTRY"
            },
            "briefTitle": "Long-term Safety Study of Rimegepant in Pediatric Subjects for the Acute Treatment of Migraine",
            "officialTitle": "Phase 3, Multicenter, Open-label Study to Assess the Long-term Safety and Tolerability of Rimegepant for the Acute Treatment of Migraine (With or Without Aura) in Children and Adolescents \u2265 6 to < 18 Years of Age",
            "therapeuticArea": [
                "Neurology"
            ],
            "study": "long-term-safety-study-of-rimegepant-in-pediatric-subjects-for-the-acute-treatment-of-migraine"
        },
        "statusModule": {
            "statusVerifiedDate": "2024-05",
            "overallStatus": "RECRUITING",
            "expandedAccessInfo": {
                "hasExpandedAccess": false
            },
            "startDateStruct": {
                "date": "2021-04-28",
                "type": "ACTUAL"
            },
            "primaryCompletionDateStruct": {
                "date": "2024-12-31",
                "type": "ESTIMATED"
            },
            "completionDateStruct": {
                "date": "2024-12-31",
                "type": "ESTIMATED"
            },
            "studyFirstSubmitDate": "2021-02-04",
            "studyFirstSubmitQcDate": "2021-02-05",
            "studyFirstPostDateStruct": {
                "date": "2021-02-08",
                "type": "ACTUAL"
            },
            "lastUpdateSubmitDate": "2024-06-28",
            "lastUpdatePostDateStruct": {
                "date": "2024-07-01",
                "type": "ACTUAL"
            }
        },
        "sponsorCollaboratorsModule": {
            "responsibleParty": {
                "type": "SPONSOR"
            },
            "leadSponsor": {
                "name": "Pfizer",
                "class": "INDUSTRY"
            }
        },
        "oversightModule": {
            "isFdaRegulatedDrug": true,
            "isFdaRegulatedDevice": false
        },
        "descriptionModule": {
            "briefSummary": "The purpose of this study is to test the long-term safety of rimegepant in the acute treatment of moderate or severe migraine in children and adolescents (\u2265 6 to \\< 18 years of age)."
        },
        "conditionsModule": {
            "conditions": [
                "Acute Treatment of Migraine"
            ],
            "keywords": [
                "Long-term safety, acute treatment, migraine, phonophobia, photophobia, nausea, pediatric, children, adolescent"
            ]
        },
        "designModule": {
            "studyType": "INTERVENTIONAL",
            "phases": [
                "PHASE3"
            ],
            "designInfo": {
                "allocation": "NA",
                "interventionModel": "PARALLEL",
                "primaryPurpose": "TREATMENT",
                "maskingInfo": {
                    "masking": "NONE"
                }
            },
            "enrollmentInfo": {
                "count": 200,
                "type": "ESTIMATED"
            }
        },
        "armsInterventionsModule": {
            "armGroups": [
                {
                    "label": "Rimegepant / BHV3000",
                    "type": "EXPERIMENTAL",
                    "description": "BHV3000 (rimegepant) 75 mg or 50 mg ODT",
                    "interventionNames": [
                        "Drug: Rimegepant / BHV3000"
                    ]
                }
            ],
            "interventions": [
                {
                    "type": "DRUG",
                    "name": "Rimegepant / BHV3000",
                    "description": "BHV3000 (rimegepant) 75 mg or 50 mg ODT",
                    "armGroupLabels": [
                        "Rimegepant / BHV3000"
                    ]
                }
            ]
        },
        "outcomesModule": {
            "primaryOutcomes": [
                {
                    "measure": "The occurrence of treatment-emergent adverse events, serious adverse events",
                    "description": "To evaluate the safety and tolerability of rimegepant in children and adolescents (\u2265 6 to \\< 18 years of age).",
                    "timeFrame": "58 weeks"
                }
            ]
        },
        "eligibilityModule": {
            "eligibilityCriteria": "Inclusion Criteria:\n\n1. History of migraine (with or without aura) for \u2265 6 months before Screening\n2. History of 1 to 8 moderate or severe attacks per month during the 2 months prior to enrollment.\n3. 1 or more migraine days requiring treatment during the Observation Phase.\n4. Prophylactic migraine medication is permitted if the dose has been stable for at least 12 weeks prior to the Baseline Visit\n5. Ability to distinguish between migraine and other types of headaches.\n6. Weight \u2265 40 kg at the Screening Visit.\n7. Adequate venous access for blood sampling.\n8. Male and female participants \u2265 6 to \\< 18 years of age (participants must not reach their 18th birthday before enrollment into the study)\n\nExclusion Criteria:\n\n1. History of cluster headache or hemiplegic migraine headache.\n2. Confounding and clinically significant pain syndrome\n3. Current uncontrolled and/or untreated psychiatric condition for a minimum of 6 months prior to the Screening Visit (lifetime history of psychosis and/or mania are excluded).\n4. History of suicidal behavior or major psychiatric disorder.\n5. Current diagnosis or history of substance abuse; positive drug test at Screening.",
            "healthyVolunteers": false,
            "sex": "ALL",
            "minimumAge": "6 Years",
            "maximumAge": "17 Years",
            "stdAges": [
                "CHILD"
            ]
        },
        "contactsLocationsModule": {
            "centralContacts": [
                {
                    "name": "Pfizer Pfizer CT.gov Call Center",
                    "role": "CONTACT",
                    "phone": "1-800-718-1021",
                    "email": "ClinicalTrials.gov_Inquiries@pfizer.com"
                }
            ],
            "overallOfficials": [
                {
                    "name": "Pfizer CT.gov Call Center",
                    "affiliation": "Pfizer",
                    "role": "STUDY_DIRECTOR"
                }
            ],
            "locations": [
                {
                    "facility": "Physicians Research Group",
                    "status": "RECRUITING",
                    "city": "Chandler",
                    "state": "Arizona",
                    "zip": "85224",
                    "country": "United States",
                    "geoPoint": {
                        "lat": 33.30616,
                        "lon": -111.84125
                    }
                },
                {
                    "facility": "Perseverance Research Center, LLC",
                    "status": "RECRUITING",
                    "city": "Scottsdale",
                    "state": "Arizona",
                    "zip": "85253",
                    "country": "United States",
                    "geoPoint": {
                        "lat": 33.50921,
                        "lon": -111.89903
                    }
                },
                {
                    "facility": "Perseverance Research Center, LLC",
                    "status": "RECRUITING",
                    "city": "Scottsdale",
                    "state": "Arizona",
                    "zip": "85254",
                    "country": "United States",
                    "geoPoint": {
                        "lat": 33.50921,
                        "lon": -111.89903
                    }
                },
                {
                    "facility": "Physicians Research Group",
                    "status": "RECRUITING",
                    "city": "Tempe",
                    "state": "Arizona",
                    "zip": "85284",
                    "country": "United States",
                    "geoPoint": {
                        "lat": 33.41477,
                        "lon": -111.90931
                    }
                },
                {
                    "facility": "Advanced Research Center, Inc.",
                    "status": "RECRUITING",
                    "city": "Anaheim",
                    "state": "California",
                    "zip": "92805",
                    "country": "United States",
                    "geoPoint": {
                        "lat": 33.83529,
                        "lon": -117.9145
                    }
                },
                {
                    "facility": "Velocity Clinical Research- Banning",
                    "status": "RECRUITING",
                    "city": "Banning",
                    "state": "California",
                    "zip": "92220",
                    "country": "United States",
                    "geoPoint": {
                        "lat": 33.92557,
                        "lon": -116.87641
                    }
                },
                {
                    "facility": "The Neuron Clinic",
                    "status": "RECRUITING",
                    "city": "Chula Vista",
                    "state": "California",
                    "zip": "91910",
                    "country": "United States",
                    "geoPoint": {
                        "lat": 32.64005,
                        "lon": -117.0842
                    }
                },
                {
                    "facility": "ProScience Research Group",
                    "status": "RECRUITING",
                    "city": "Culver City",
                    "state": "California",
                    "zip": "90230",
                    "country": "United States",
                    "geoPoint": {
                        "lat": 34.02112,
                        "lon": -118.39647
                    }
                },
                {
                    "facility": "Neuro-Pain Medical Center",
                    "status": "RECRUITING",
                    "city": "Fresno",
                    "state": "California",
                    "zip": "93710",
                    "country": "United States",
                    "geoPoint": {
                        "lat": 36.74773,
                        "lon": -119.77237
                    }
                },
                {
                    "facility": "Sunwise Clinical Research",
                    "status": "RECRUITING",
                    "city": "Lafayette",
                    "state": "California",
                    "zip": "94549",
                    "country": "United States",
                    "geoPoint": {
                        "lat": 37.88576,
                        "lon": -122.11802
                    }
                },
                {
                    "facility": "Miller Children's & Women's Hospital Long Beach",
                    "status": "NOT_YET_RECRUITING",
                    "city": "Long Beach",
                    "state": "California",
                    "zip": "90806",
                    "country": "United States",
                    "geoPoint": {
                        "lat": 33.76696,
                        "lon": -118.18923
                    }
                },
                {
                    "facility": "Children's Hospital Los Angeles - Children's Hospital Los Angeles Dept of Pharmacy",
                    "status": "NOT_YET_RECRUITING",
                    "city": "Los Angeles",
                    "state": "California",
                    "zip": "90027",
                    "country": "United States",
                    "geoPoint": {
                        "lat": 34.05223,
                        "lon": -118.24368
                    }
                },
                {
                    "facility": "Children's Hospital Los Angeles, Division of Neurology",
                    "status": "NOT_YET_RECRUITING",
                    "city": "Los Angeles",
                    "state": "California",
                    "zip": "90027",
                    "country": "United States",
                    "geoPoint": {
                        "lat": 34.05223,
                        "lon": -118.24368
                    }
                },
                {
                    "facility": "National Research Institute",
                    "status": "RECRUITING",
                    "city": "Los Angeles",
                    "state": "California",
                    "zip": "90057",
                    "country": "United States",
                    "geoPoint": {
                        "lat": 34.05223,
                        "lon": -118.24368
                    }
                },
                {
                    "facility": "Velocity Clinical Research - North Hollywood",
                    "status": "RECRUITING",
                    "city": "North Hollywood",
                    "state": "California",
                    "zip": "91606",
                    "country": "United States",
                    "geoPoint": {
                        "lat": 34.17223,
                        "lon": -118.37897
                    }
                },
                {
                    "facility": "The Neurology Group",
                    "status": "RECRUITING",
                    "city": "Pomona",
                    "state": "California",
                    "zip": "91767",
                    "country": "United States",
                    "geoPoint": {
                        "lat": 34.05529,
                        "lon": -117.75228
                    }
                },
                {
                    "facility": "UC Davis Medical Center, Investigational Drug Service (IDS) Pharmacy",
                    "status": "RECRUITING",
                    "city": "Sacramento",
                    "state": "California",
                    "zip": "95817",
                    "country": "United States",
                    "geoPoint": {
                        "lat": 38.58157,
                        "lon": -121.4944
                    }
                },
                {
                    "facility": "UC Davis",
                    "status": "RECRUITING",
                    "city": "Sacramento",
                    "state": "California",
                    "zip": "95817",
                    "country": "United States",
                    "geoPoint": {
                        "lat": 38.58157,
                        "lon": -121.4944
                    }
                },
                {
                    "facility": "University of California, Davis Clinical and Translational Science Center Clinical Research Center",
                    "status": "RECRUITING",
                    "city": "Sacramento",
                    "state": "California",
                    "zip": "95817",
                    "country": "United States",
                    "geoPoint": {
                        "lat": 38.58157,
                        "lon": -121.4944
                    }
                },
                {
                    "facility": "University of California, Davis Midtown Clinic",
                    "status": "RECRUITING",
                    "city": "Sacramento",
                    "state": "California",
                    "zip": "95817",
                    "country": "United States",
                    "geoPoint": {
                        "lat": 38.58157,
                        "lon": -121.4944
                    }
                },
                {
                    "facility": "Rady Children's Hospital",
                    "status": "NOT_YET_RECRUITING",
                    "city": "San Diego",
                    "state": "California",
                    "zip": "92123",
                    "country": "United States",
                    "geoPoint": {
                        "lat": 32.71533,
                        "lon": -117.15726
                    }
                },
                {
                    "facility": "Pacific Clinical Research Management Group LLC",
                    "status": "RECRUITING",
                    "city": "Upland",
                    "state": "California",
                    "zip": "91786",
                    "country": "United States",
                    "geoPoint": {
                        "lat": 34.09751,
                        "lon": -117.64839
                    }
                },
                {
                    "facility": "Children's Hospital Colorado Investigational Drug Services",
                    "status": "RECRUITING",
                    "city": "Aurora",
                    "state": "Colorado",
                    "zip": "80045",
                    "country": "United States",
                    "geoPoint": {
                        "lat": 39.72943,
                        "lon": -104.83192
                    }
                },
                {
                    "facility": "Children's Hospital Colorado- Investigational Drug Services",
                    "status": "RECRUITING",
                    "city": "Aurora",
                    "state": "Colorado",
                    "zip": "80045",
                    "country": "United States",
                    "geoPoint": {
                        "lat": 39.72943,
                        "lon": -104.83192
                    }
                },
                {
                    "facility": "Children's Hospital Colorado",
                    "status": "RECRUITING",
                    "city": "Aurora",
                    "state": "Colorado",
                    "zip": "80045",
                    "country": "United States",
                    "geoPoint": {
                        "lat": 39.72943,
                        "lon": -104.83192
                    }
                },
                {
                    "facility": "Colorado Springs Neurological Associates",
                    "status": "RECRUITING",
                    "city": "Colorado Springs",
                    "state": "Colorado",
                    "zip": "80907",
                    "country": "United States",
                    "geoPoint": {
                        "lat": 38.83388,
                        "lon": -104.82136
                    }
                },
                {
                    "facility": "Boeson Research GJT",
                    "status": "TERMINATED",
                    "city": "Grand Junction",
                    "state": "Colorado",
                    "zip": "81501",
                    "country": "United States",
                    "geoPoint": {
                        "lat": 39.06387,
                        "lon": -108.55065
                    }
                },
                {
                    "facility": "Dinosaur Pediatrics",
                    "status": "RECRUITING",
                    "city": "Grand Junction",
                    "state": "Colorado",
                    "zip": "81501",
                    "country": "United States",
                    "geoPoint": {
                        "lat": 39.06387,
                        "lon": -108.55065
                    }
                },
                {
                    "facility": "Dinosaur Pediatrics",
                    "status": "TERMINATED",
                    "city": "Grand Junction",
                    "state": "Colorado",
                    "zip": "81501",
                    "country": "United States",
                    "geoPoint": {
                        "lat": 39.06387,
                        "lon": -108.55065
                    }
                },
                {
                    "facility": "Boeson Research - Grand Junction, CO",
                    "status": "RECRUITING",
                    "city": "Grand Junction",
                    "state": "Colorado",
                    "zip": "81505",
                    "country": "United States",
                    "geoPoint": {
                        "lat": 39.06387,
                        "lon": -108.55065
                    }
                },
                {
                    "facility": "Boeson Research GJT",
                    "status": "TERMINATED",
                    "city": "Grand Junction",
                    "state": "Colorado",
                    "zip": "81505",
                    "country": "United States",
                    "geoPoint": {
                        "lat": 39.06387,
                        "lon": -108.55065
                    }
                },
                {
                    "facility": "CT Clinical Research",
                    "status": "RECRUITING",
                    "city": "Cromwell",
                    "state": "Connecticut",
                    "zip": "06416",
                    "country": "United States",
                    "geoPoint": {
                        "lat": 41.5951,
                        "lon": -72.64537
                    }
                },
                {
                    "facility": "Connecticut Children's Medical Center",
                    "status": "RECRUITING",
                    "city": "Hartford",
                    "state": "Connecticut",
                    "zip": "06106",
                    "country": "United States",
                    "geoPoint": {
                        "lat": 41.76371,
                        "lon": -72.68509
                    }
                },
                {
                    "facility": "Ki Health Partners, LLc, dba New England Institute for Clinical Research",
                    "status": "RECRUITING",
                    "city": "Stamford",
                    "state": "Connecticut",
                    "zip": "06905",
                    "country": "United States",
                    "geoPoint": {
                        "lat": 41.05343,
                        "lon": -73.53873
                    }
                },
                {
                    "facility": "Sarkis Clinical Trials",
                    "status": "RECRUITING",
                    "city": "Gainesville",
                    "state": "Florida",
                    "zip": "32607",
                    "country": "United States",
                    "geoPoint": {
                        "lat": 29.65163,
                        "lon": -82.32483
                    }
                },
                {
                    "facility": "Multi-Specialty Research Associates, Inc.",
                    "status": "RECRUITING",
                    "city": "Lake City",
                    "state": "Florida",
                    "zip": "32055",
                    "country": "United States",
                    "geoPoint": {
                        "lat": 30.18968,
                        "lon": -82.63929
                    }
                },
                {
                    "facility": "South Florida Research Phase I-IV, Inc",
                    "status": "RECRUITING",
                    "city": "Miami Springs",
                    "state": "Florida",
                    "zip": "33166",
                    "country": "United States",
                    "geoPoint": {
                        "lat": 25.82232,
                        "lon": -80.2895
                    }
                },
                {
                    "facility": "AppleMed Research Group, LLC",
                    "status": "RECRUITING",
                    "city": "Miami",
                    "state": "Florida",
                    "zip": "33126",
                    "country": "United States",
                    "geoPoint": {
                        "lat": 25.77427,
                        "lon": -80.19366
                    }
                },
                {
                    "facility": "Medical Research Center of Miami II, Inc",
                    "status": "ACTIVE_NOT_RECRUITING",
                    "city": "Miami",
                    "state": "Florida",
                    "zip": "33134",
                    "country": "United States",
                    "geoPoint": {
                        "lat": 25.77427,
                        "lon": -80.19366
                    }
                },
                {
                    "facility": "Brainstorm Research",
                    "status": "RECRUITING",
                    "city": "Miami",
                    "state": "Florida",
                    "zip": "33176",
                    "country": "United States",
                    "geoPoint": {
                        "lat": 25.77427,
                        "lon": -80.19366
                    }
                },
                {
                    "facility": "Coastal Clinical Research Specialists",
                    "status": "RECRUITING",
                    "city": "Orange Park",
                    "state": "Florida",
                    "zip": "32073",
                    "country": "United States",
                    "geoPoint": {
                        "lat": 30.16607,
                        "lon": -81.70648
                    }
                },
                {
                    "facility": "Orlando Health Arnold Palmer Hospital for Children-Pediatric Specialty Practice",
                    "status": "NOT_YET_RECRUITING",
                    "city": "Orlando",
                    "state": "Florida",
                    "zip": "32806",
                    "country": "United States",
                    "geoPoint": {
                        "lat": 28.53834,
                        "lon": -81.37924
                    }
                },
                {
                    "facility": "Orlando Health Arnold Palmer Hospital for Children",
                    "status": "NOT_YET_RECRUITING",
                    "city": "Orlando",
                    "state": "Florida",
                    "zip": "32806",
                    "country": "United States",
                    "geoPoint": {
                        "lat": 28.53834,
                        "lon": -81.37924
                    }
                },
                {
                    "facility": "ForCare Clinical Research",
                    "status": "RECRUITING",
                    "city": "Tampa",
                    "state": "Florida",
                    "zip": "33613",
                    "country": "United States",
                    "geoPoint": {
                        "lat": 27.94752,
                        "lon": -82.45843
                    }
                },
                {
                    "facility": "Premiere Research Institute at Palm Beach Neurology",
                    "status": "ACTIVE_NOT_RECRUITING",
                    "city": "West Palm Beach",
                    "state": "Florida",
                    "zip": "33407",
                    "country": "United States",
                    "geoPoint": {
                        "lat": 26.71534,
                        "lon": -80.05337
                    }
                },
                {
                    "facility": "Children's Healthcare of Atlanta - Center for Advanced Pediatrics",
                    "status": "RECRUITING",
                    "city": "Atlanta",
                    "state": "Georgia",
                    "zip": "30329",
                    "country": "United States",
                    "geoPoint": {
                        "lat": 33.749,
                        "lon": -84.38798
                    }
                },
                {
                    "facility": "Rare Disease Research LLC",
                    "status": "RECRUITING",
                    "city": "Atlanta",
                    "state": "Georgia",
                    "zip": "30329",
                    "country": "United States",
                    "geoPoint": {
                        "lat": 33.749,
                        "lon": -84.38798
                    }
                },
                {
                    "facility": "Pivotal Clinical Research & Associates, LLC",
                    "status": "RECRUITING",
                    "city": "Brunswick",
                    "state": "Georgia",
                    "zip": "31520",
                    "country": "United States",
                    "geoPoint": {
                        "lat": 31.14995,
                        "lon": -81.49149
                    }
                },
                {
                    "facility": "CenExel iResearch, LLC",
                    "status": "RECRUITING",
                    "city": "Decatur",
                    "state": "Georgia",
                    "zip": "30030",
                    "country": "United States",
                    "geoPoint": {
                        "lat": 33.77483,
                        "lon": -84.29631
                    }
                },
                {
                    "facility": "Chicago Headache Center & Research Institute",
                    "status": "RECRUITING",
                    "city": "Chicago",
                    "state": "Illinois",
                    "zip": "10028",
                    "country": "United States",
                    "geoPoint": {
                        "lat": 41.85003,
                        "lon": -87.65005
                    }
                },
                {
                    "facility": "Chicago Headache Center & Research Institute",
                    "status": "RECRUITING",
                    "city": "Chicago",
                    "state": "Illinois",
                    "zip": "60657",
                    "country": "United States",
                    "geoPoint": {
                        "lat": 41.85003,
                        "lon": -87.65005
                    }
                },
                {
                    "facility": "Children's Clinical Research Center at Riley Hospital for Children at IU Health",
                    "status": "RECRUITING",
                    "city": "Indianapolis",
                    "state": "Indiana",
                    "zip": "46202",
                    "country": "United States",
                    "geoPoint": {
                        "lat": 39.76838,
                        "lon": -86.15804
                    }
                },
                {
                    "facility": "Riley Hospital for Children at IU Health",
                    "status": "RECRUITING",
                    "city": "Indianapolis",
                    "state": "Indiana",
                    "zip": "46202",
                    "country": "United States",
                    "geoPoint": {
                        "lat": 39.76838,
                        "lon": -86.15804
                    }
                },
                {
                    "facility": "Physicians Research Group (Administrative Office Location)",
                    "status": "RECRUITING",
                    "city": "Noblesville",
                    "state": "Indiana",
                    "zip": "46060",
                    "country": "United States",
                    "geoPoint": {
                        "lat": 40.04559,
                        "lon": -86.0086
                    }
                },
                {
                    "facility": "College Park Family Care Center Physician Service Group - Neruology Research Department",
                    "status": "RECRUITING",
                    "city": "Overland Park",
                    "state": "Kansas",
                    "zip": "66212",
                    "country": "United States",
                    "geoPoint": {
                        "lat": 38.98223,
                        "lon": -94.67079
                    }
                },
                {
                    "facility": "University of Kentucky Hospital",
                    "status": "ACTIVE_NOT_RECRUITING",
                    "city": "Lexington",
                    "state": "Kentucky",
                    "zip": "40536",
                    "country": "United States",
                    "geoPoint": {
                        "lat": 37.98869,
                        "lon": -84.47772
                    }
                },
                {
                    "facility": "Ochsner Clinic Foundation",
                    "status": "TERMINATED",
                    "city": "New Orleans",
                    "state": "Louisiana",
                    "zip": "70121",
                    "country": "United States",
                    "geoPoint": {
                        "lat": 29.95465,
                        "lon": -90.07507
                    }
                },
                {
                    "facility": "Boston Clinical Trials",
                    "status": "RECRUITING",
                    "city": "Boston",
                    "state": "Massachusetts",
                    "zip": "02131",
                    "country": "United States",
                    "geoPoint": {
                        "lat": 42.35843,
                        "lon": -71.05977
                    }
                },
                {
                    "facility": "MedVadis Research Corporation",
                    "status": "RECRUITING",
                    "city": "Waltham",
                    "state": "Massachusetts",
                    "zip": "02451",
                    "country": "United States",
                    "geoPoint": {
                        "lat": 42.37649,
                        "lon": -71.23561
                    }
                },
                {
                    "facility": "MedVadis Research",
                    "status": "RECRUITING",
                    "city": "Waltham",
                    "state": "Massachusetts",
                    "zip": "02451",
                    "country": "United States",
                    "geoPoint": {
                        "lat": 42.37649,
                        "lon": -71.23561
                    }
                },
                {
                    "facility": "Michigan Head Pain and Neurological Institute",
                    "status": "RECRUITING",
                    "city": "Ann Arbor",
                    "state": "Michigan",
                    "zip": "48104",
                    "country": "United States",
                    "geoPoint": {
                        "lat": 42.27756,
                        "lon": -83.74088
                    }
                },
                {
                    "facility": "Corewell Health, for and on behalf of Spectrum Health Hospital and Corewell Health Medical Group",
                    "status": "RECRUITING",
                    "city": "Grand Rapids",
                    "state": "Michigan",
                    "zip": "49503",
                    "country": "United States",
                    "geoPoint": {
                        "lat": 42.96336,
                        "lon": -85.66809
                    }
                },
                {
                    "facility": "Corewell Health, Helen DeVos Children's Hospital",
                    "status": "RECRUITING",
                    "city": "Grand Rapids",
                    "state": "Michigan",
                    "zip": "49503",
                    "country": "United States",
                    "geoPoint": {
                        "lat": 42.96336,
                        "lon": -85.66809
                    }
                },
                {
                    "facility": "Outpatient Pediatric Neurology Clinic",
                    "status": "RECRUITING",
                    "city": "Grand Rapids",
                    "state": "Michigan",
                    "zip": "49503",
                    "country": "United States",
                    "geoPoint": {
                        "lat": 42.96336,
                        "lon": -85.66809
                    }
                },
                {
                    "facility": "Wellnow Urgent Care and Research",
                    "status": "TERMINATED",
                    "city": "Kalamazoo",
                    "state": "Michigan",
                    "zip": "49048",
                    "country": "United States",
                    "geoPoint": {
                        "lat": 42.29171,
                        "lon": -85.58723
                    }
                },
                {
                    "facility": "Beaumont Hospital, Royal Oak Campus",
                    "status": "RECRUITING",
                    "city": "Royal Oak",
                    "state": "Michigan",
                    "zip": "48073",
                    "country": "United States",
                    "geoPoint": {
                        "lat": 42.48948,
                        "lon": -83.14465
                    }
                },
                {
                    "facility": "Sharlin Health Neuroscience Research Center",
                    "status": "RECRUITING",
                    "city": "Ozark",
                    "state": "Missouri",
                    "zip": "65721",
                    "country": "United States",
                    "geoPoint": {
                        "lat": 37.02089,
                        "lon": -93.20602
                    }
                },
                {
                    "facility": "Clinvest Research, LLC",
                    "status": "RECRUITING",
                    "city": "Springfield",
                    "state": "Missouri",
                    "zip": "65807",
                    "country": "United States",
                    "geoPoint": {
                        "lat": 37.21533,
                        "lon": -93.29824
                    }
                },
                {
                    "facility": "Clinvest Research, LLC",
                    "status": "RECRUITING",
                    "city": "Springfield",
                    "state": "Missouri",
                    "zip": "65810",
                    "country": "United States",
                    "geoPoint": {
                        "lat": 37.21533,
                        "lon": -93.29824
                    }
                },
                {
                    "facility": "Boeson Research",
                    "status": "RECRUITING",
                    "city": "Great Falls",
                    "state": "Montana",
                    "zip": "59405",
                    "country": "United States",
                    "geoPoint": {
                        "lat": 47.50024,
                        "lon": -111.30081
                    }
                },
                {
                    "facility": "Northwest Physicians",
                    "status": "RECRUITING",
                    "city": "Great Falls",
                    "state": "Montana",
                    "zip": "59405",
                    "country": "United States",
                    "geoPoint": {
                        "lat": 47.50024,
                        "lon": -111.30081
                    }
                },
                {
                    "facility": "Boeson Research (HLN)",
                    "status": "RECRUITING",
                    "city": "Helena",
                    "state": "Montana",
                    "zip": "59601",
                    "country": "United States",
                    "geoPoint": {
                        "lat": 46.59271,
                        "lon": -112.03611
                    }
                },
                {
                    "facility": "Boeson Research,LLC",
                    "status": "RECRUITING",
                    "city": "Kalispell",
                    "state": "Montana",
                    "zip": "59901",
                    "country": "United States",
                    "geoPoint": {
                        "lat": 48.19579,
                        "lon": -114.31291
                    }
                },
                {
                    "facility": "Boeson Research",
                    "status": "RECRUITING",
                    "city": "Missoula",
                    "state": "Montana",
                    "zip": "59804",
                    "country": "United States",
                    "geoPoint": {
                        "lat": 46.87215,
                        "lon": -113.994
                    }
                },
                {
                    "facility": "Alivation Research, LLC",
                    "status": "TERMINATED",
                    "city": "Lincoln",
                    "state": "Nebraska",
                    "zip": "68526",
                    "country": "United States",
                    "geoPoint": {
                        "lat": 40.8,
                        "lon": -96.66696
                    }
                },
                {
                    "facility": "HMH Jersey Shore University Medical Center",
                    "status": "NOT_YET_RECRUITING",
                    "city": "Neptune",
                    "state": "New Jersey",
                    "zip": "07753",
                    "country": "United States",
                    "geoPoint": {
                        "lat": 40.20011,
                        "lon": -74.02792
                    }
                },
                {
                    "facility": "Dent Neurosciences Research Center",
                    "status": "RECRUITING",
                    "city": "Amherst",
                    "state": "New York",
                    "zip": "14226",
                    "country": "United States",
                    "geoPoint": {
                        "lat": 42.97839,
                        "lon": -78.79976
                    }
                },
                {
                    "facility": "New York Neurology Associates",
                    "status": "RECRUITING",
                    "city": "New York",
                    "state": "New York",
                    "zip": "10003",
                    "country": "United States",
                    "geoPoint": {
                        "lat": 40.71427,
                        "lon": -74.00597
                    }
                },
                {
                    "facility": "Mount Sinai Hospital - Pharmacy Department",
                    "status": "NOT_YET_RECRUITING",
                    "city": "New York",
                    "state": "New York",
                    "zip": "10028",
                    "country": "United States",
                    "geoPoint": {
                        "lat": 40.71427,
                        "lon": -74.00597
                    }
                },
                {
                    "facility": "Mount Sinai Hospital - Pharmacy Department",
                    "status": "RECRUITING",
                    "city": "New York",
                    "state": "New York",
                    "zip": "10029",
                    "country": "United States",
                    "geoPoint": {
                        "lat": 40.71427,
                        "lon": -74.00597
                    }
                },
                {
                    "facility": "Columbia University Medical Center Research Pharmacy",
                    "status": "RECRUITING",
                    "city": "New York",
                    "state": "New York",
                    "zip": "10032",
                    "country": "United States",
                    "geoPoint": {
                        "lat": 40.71427,
                        "lon": -74.00597
                    }
                },
                {
                    "facility": "Columbia University Pediatric Neuromuscular Center",
                    "status": "RECRUITING",
                    "city": "New York",
                    "state": "New York",
                    "zip": "10032",
                    "country": "United States",
                    "geoPoint": {
                        "lat": 40.71427,
                        "lon": -74.00597
                    }
                },
                {
                    "facility": "Irving Center for Clinical and Translational Research, Outpatient Clinical Research Unit",
                    "status": "RECRUITING",
                    "city": "New York",
                    "state": "New York",
                    "zip": "10032",
                    "country": "United States",
                    "geoPoint": {
                        "lat": 40.71427,
                        "lon": -74.00597
                    }
                },
                {
                    "facility": "The Neurological Institute of New York",
                    "status": "RECRUITING",
                    "city": "New York",
                    "state": "New York",
                    "zip": "10032",
                    "country": "United States",
                    "geoPoint": {
                        "lat": 40.71427,
                        "lon": -74.00597
                    }
                },
                {
                    "facility": "North Suffolk Neurology",
                    "status": "RECRUITING",
                    "city": "Port Jefferson Station",
                    "state": "New York",
                    "zip": "11776",
                    "country": "United States",
                    "geoPoint": {
                        "lat": 40.92538,
                        "lon": -73.04733
                    }
                },
                {
                    "facility": "Headache Wellness Center, PC",
                    "status": "RECRUITING",
                    "city": "Greensboro",
                    "state": "North Carolina",
                    "zip": "27405",
                    "country": "United States",
                    "geoPoint": {
                        "lat": 36.07264,
                        "lon": -79.79198
                    }
                },
                {
                    "facility": "Headache Wellness Center",
                    "status": "RECRUITING",
                    "city": "Greensboro",
                    "state": "North Carolina",
                    "zip": "27405",
                    "country": "United States",
                    "geoPoint": {
                        "lat": 36.07264,
                        "lon": -79.79198
                    }
                },
                {
                    "facility": "Atrium Health Wake Forest Baptist",
                    "status": "NOT_YET_RECRUITING",
                    "city": "Winston-Salem",
                    "state": "North Carolina",
                    "zip": "27157",
                    "country": "United States",
                    "geoPoint": {
                        "lat": 36.09986,
                        "lon": -80.24422
                    }
                },
                {
                    "facility": "WellNow Urgent Care and Research",
                    "status": "ACTIVE_NOT_RECRUITING",
                    "city": "Cincinnati",
                    "state": "Ohio",
                    "zip": "45215",
                    "country": "United States",
                    "geoPoint": {
                        "lat": 39.12713,
                        "lon": -84.51435
                    }
                },
                {
                    "facility": "Cincinnati Children's Hospital",
                    "status": "RECRUITING",
                    "city": "Cincinnati",
                    "state": "Ohio",
                    "zip": "45229",
                    "country": "United States",
                    "geoPoint": {
                        "lat": 39.12713,
                        "lon": -84.51435
                    }
                },
                {
                    "facility": "Drug Delivery-Cincinnati Children's IDS Denise Lagory",
                    "status": "RECRUITING",
                    "city": "Cincinnati",
                    "state": "Ohio",
                    "zip": "45229",
                    "country": "United States",
                    "geoPoint": {
                        "lat": 39.12713,
                        "lon": -84.51435
                    }
                },
                {
                    "facility": "Velocity Clinical Research - Cincinnati",
                    "status": "RECRUITING",
                    "city": "Cincinnati",
                    "state": "Ohio",
                    "zip": "45242",
                    "country": "United States",
                    "geoPoint": {
                        "lat": 39.12713,
                        "lon": -84.51435
                    }
                },
                {
                    "facility": "University Hospitals Cleveland Medical Center",
                    "status": "RECRUITING",
                    "city": "Cleveland",
                    "state": "Ohio",
                    "zip": "44106",
                    "country": "United States",
                    "geoPoint": {
                        "lat": 41.4995,
                        "lon": -81.69541
                    }
                },
                {
                    "facility": "Wellnow Urgent Care and Research",
                    "status": "RECRUITING",
                    "city": "Columbus",
                    "state": "Ohio",
                    "zip": "43214",
                    "country": "United States",
                    "geoPoint": {
                        "lat": 39.96118,
                        "lon": -82.99879
                    }
                },
                {
                    "facility": "Wellnow Urgent Care and Research",
                    "status": "RECRUITING",
                    "city": "Columbus",
                    "state": "Ohio",
                    "zip": "43228",
                    "country": "United States",
                    "geoPoint": {
                        "lat": 39.96118,
                        "lon": -82.99879
                    }
                },
                {
                    "facility": "Wellnow Urgent Care and Research",
                    "status": "RECRUITING",
                    "city": "Dayton",
                    "state": "Ohio",
                    "zip": "45424",
                    "country": "United States",
                    "geoPoint": {
                        "lat": 39.75895,
                        "lon": -84.19161
                    }
                },
                {
                    "facility": "IPS Research Company",
                    "status": "ACTIVE_NOT_RECRUITING",
                    "city": "Oklahoma City",
                    "state": "Oklahoma",
                    "zip": "73106",
                    "country": "United States",
                    "geoPoint": {
                        "lat": 35.46756,
                        "lon": -97.51643
                    }
                },
                {
                    "facility": "Velocity Clinical Research, Grants Pass",
                    "status": "RECRUITING",
                    "city": "Grants Pass",
                    "state": "Oregon",
                    "zip": "97527",
                    "country": "United States",
                    "geoPoint": {
                        "lat": 42.43933,
                        "lon": -123.33067
                    }
                },
                {
                    "facility": "Providence Portland Medical Center",
                    "status": "RECRUITING",
                    "city": "Portland",
                    "state": "Oregon",
                    "zip": "97213",
                    "country": "United States",
                    "geoPoint": {
                        "lat": 45.52345,
                        "lon": -122.67621
                    }
                },
                {
                    "facility": "Providence Brain & Spine Institute-research coordinator's office",
                    "status": "RECRUITING",
                    "city": "Portland",
                    "state": "Oregon",
                    "zip": "97225",
                    "country": "United States",
                    "geoPoint": {
                        "lat": 45.52345,
                        "lon": -122.67621
                    }
                },
                {
                    "facility": "Providence Health & Services Investigational Drug Services Westside",
                    "status": "RECRUITING",
                    "city": "Portland",
                    "state": "Oregon",
                    "zip": "97225",
                    "country": "United States",
                    "geoPoint": {
                        "lat": 45.52345,
                        "lon": -122.67621
                    }
                },
                {
                    "facility": "Providence St. Vincent Medical Center",
                    "status": "RECRUITING",
                    "city": "Portland",
                    "state": "Oregon",
                    "zip": "97225",
                    "country": "United States",
                    "geoPoint": {
                        "lat": 45.52345,
                        "lon": -122.67621
                    }
                },
                {
                    "facility": "Children's Hospital of Philadelphia",
                    "status": "RECRUITING",
                    "city": "Philadelphia",
                    "state": "Pennsylvania",
                    "zip": "19104",
                    "country": "United States",
                    "geoPoint": {
                        "lat": 39.95233,
                        "lon": -75.16379
                    }
                },
                {
                    "facility": "Velocity Clinical Research-Providence",
                    "status": "RECRUITING",
                    "city": "East Greenwich",
                    "state": "Rhode Island",
                    "zip": "02818",
                    "country": "United States",
                    "geoPoint": {
                        "lat": 41.66038,
                        "lon": -71.45589
                    }
                },
                {
                    "facility": "Tribe Clinical Research LLC",
                    "status": "RECRUITING",
                    "city": "Greenville",
                    "state": "South Carolina",
                    "zip": "29607",
                    "country": "United States",
                    "geoPoint": {
                        "lat": 34.85262,
                        "lon": -82.39401
                    }
                },
                {
                    "facility": "Velocity Clinical Research- Greenville",
                    "status": "RECRUITING",
                    "city": "Greenville",
                    "state": "South Carolina",
                    "zip": "29615",
                    "country": "United States",
                    "geoPoint": {
                        "lat": 34.85262,
                        "lon": -82.39401
                    }
                },
                {
                    "facility": "Premier Neurology",
                    "status": "ACTIVE_NOT_RECRUITING",
                    "city": "Greer",
                    "state": "South Carolina",
                    "zip": "29650",
                    "country": "United States",
                    "geoPoint": {
                        "lat": 34.93873,
                        "lon": -82.22706
                    }
                },
                {
                    "facility": "Coastal Carolina Research Center",
                    "status": "RECRUITING",
                    "city": "North Charleston",
                    "state": "South Carolina",
                    "zip": "29405",
                    "country": "United States",
                    "geoPoint": {
                        "lat": 32.85462,
                        "lon": -79.97481
                    }
                },
                {
                    "facility": "Novaceut Clinical Research",
                    "status": "RECRUITING",
                    "city": "Clarksville",
                    "state": "Tennessee",
                    "zip": "37043",
                    "country": "United States",
                    "geoPoint": {
                        "lat": 36.52977,
                        "lon": -87.35945
                    }
                },
                {
                    "facility": "Le Bonheur Children's Hospital",
                    "status": "RECRUITING",
                    "city": "Memphis",
                    "state": "Tennessee",
                    "zip": "38103",
                    "country": "United States",
                    "geoPoint": {
                        "lat": 35.14953,
                        "lon": -90.04898
                    }
                },
                {
                    "facility": "Le Bonheur Childrens Hospital - Childrens Foundation Research Institute",
                    "status": "RECRUITING",
                    "city": "Memphis",
                    "state": "Tennessee",
                    "zip": "38103",
                    "country": "United States",
                    "geoPoint": {
                        "lat": 35.14953,
                        "lon": -90.04898
                    }
                },
                {
                    "facility": "Le Bonheur Childrens Hospital - Outpatient Building",
                    "status": "RECRUITING",
                    "city": "Memphis",
                    "state": "Tennessee",
                    "zip": "38103",
                    "country": "United States",
                    "geoPoint": {
                        "lat": 35.14953,
                        "lon": -90.04898
                    }
                },
                {
                    "facility": "Access Clinical Trials, Inc.",
                    "status": "TERMINATED",
                    "city": "Nashville",
                    "state": "Tennessee",
                    "zip": "37203",
                    "country": "United States",
                    "geoPoint": {
                        "lat": 36.16589,
                        "lon": -86.78444
                    }
                },
                {
                    "facility": "Dell Children's Medical Center",
                    "status": "NOT_YET_RECRUITING",
                    "city": "Austin",
                    "state": "Texas",
                    "zip": "78723",
                    "country": "United States",
                    "geoPoint": {
                        "lat": 30.26715,
                        "lon": -97.74306
                    }
                },
                {
                    "facility": "Child Neurology Consultants of Austin - South Austin",
                    "status": "RECRUITING",
                    "city": "Austin",
                    "state": "Texas",
                    "zip": "78749",
                    "country": "United States",
                    "geoPoint": {
                        "lat": 30.26715,
                        "lon": -97.74306
                    }
                },
                {
                    "facility": "Child Neurology Consultants of Austin - Central Austin",
                    "status": "RECRUITING",
                    "city": "Austin",
                    "state": "Texas",
                    "zip": "78757",
                    "country": "United States",
                    "geoPoint": {
                        "lat": 30.26715,
                        "lon": -97.74306
                    }
                },
                {
                    "facility": "Houston Clinical Trials, LLC",
                    "status": "RECRUITING",
                    "city": "Bellaire",
                    "state": "Texas",
                    "zip": "77401",
                    "country": "United States",
                    "geoPoint": {
                        "lat": 29.70579,
                        "lon": -95.45883
                    }
                },
                {
                    "facility": "Cedar Health Research",
                    "status": "RECRUITING",
                    "city": "Dallas",
                    "state": "Texas",
                    "zip": "75251",
                    "country": "United States",
                    "geoPoint": {
                        "lat": 32.78306,
                        "lon": -96.80667
                    }
                },
                {
                    "facility": "ANRC Research",
                    "status": "RECRUITING",
                    "city": "El Paso",
                    "state": "Texas",
                    "zip": "79912",
                    "country": "United States",
                    "geoPoint": {
                        "lat": 31.75872,
                        "lon": -106.48693
                    }
                },
                {
                    "facility": "North Texas Institute of Neurology and Headache",
                    "status": "RECRUITING",
                    "city": "Frisco",
                    "state": "Texas",
                    "zip": "75034",
                    "country": "United States",
                    "geoPoint": {
                        "lat": 33.15067,
                        "lon": -96.82361
                    }
                },
                {
                    "facility": "North Texas Institute of Neurology and Headache",
                    "status": "ACTIVE_NOT_RECRUITING",
                    "city": "Frisco",
                    "state": "Texas",
                    "zip": "75034",
                    "country": "United States",
                    "geoPoint": {
                        "lat": 33.15067,
                        "lon": -96.82361
                    }
                },
                {
                    "facility": "Trio Clinical Trials, LLC.",
                    "status": "RECRUITING",
                    "city": "Houston",
                    "state": "Texas",
                    "zip": "77008",
                    "country": "United States",
                    "geoPoint": {
                        "lat": 29.76328,
                        "lon": -95.36327
                    }
                },
                {
                    "facility": "Pain and Headache Centers of Texas",
                    "status": "RECRUITING",
                    "city": "Houston",
                    "state": "Texas",
                    "zip": "77054",
                    "country": "United States",
                    "geoPoint": {
                        "lat": 29.76328,
                        "lon": -95.36327
                    }
                },
                {
                    "facility": "SCLA Management",
                    "status": "RECRUITING",
                    "city": "Houston",
                    "state": "Texas",
                    "zip": "77079",
                    "country": "United States",
                    "geoPoint": {
                        "lat": 29.76328,
                        "lon": -95.36327
                    }
                },
                {
                    "facility": "Houston Clinical Research,LLC.",
                    "status": "TERMINATED",
                    "city": "Houston",
                    "state": "Texas",
                    "zip": "77081",
                    "country": "United States",
                    "geoPoint": {
                        "lat": 29.76328,
                        "lon": -95.36327
                    }
                },
                {
                    "facility": "AIM Trials, LLC",
                    "status": "RECRUITING",
                    "city": "Plano",
                    "state": "Texas",
                    "zip": "75093",
                    "country": "United States",
                    "geoPoint": {
                        "lat": 33.01984,
                        "lon": -96.69889
                    }
                },
                {
                    "facility": "JBR Clinical Research",
                    "status": "RECRUITING",
                    "city": "Salt Lake City",
                    "state": "Utah",
                    "zip": "84107",
                    "country": "United States",
                    "geoPoint": {
                        "lat": 40.76078,
                        "lon": -111.89105
                    }
                },
                {
                    "facility": "Wasatch Clinical Research , LLC(Administrative Location)",
                    "status": "RECRUITING",
                    "city": "Salt Lake City",
                    "state": "Utah",
                    "zip": "84107",
                    "country": "United States",
                    "geoPoint": {
                        "lat": 40.76078,
                        "lon": -111.89105
                    }
                },
                {
                    "facility": "Children's Hospital of The King's Daughters",
                    "status": "RECRUITING",
                    "city": "Norfolk",
                    "state": "Virginia",
                    "zip": "23507",
                    "country": "United States",
                    "geoPoint": {
                        "lat": 36.84681,
                        "lon": -76.28522
                    }
                },
                {
                    "facility": "Children's Specialty Group, PLLC , Division of Childhood & Adolescent Neurology",
                    "status": "RECRUITING",
                    "city": "Norfolk",
                    "state": "Virginia",
                    "zip": "23510",
                    "country": "United States",
                    "geoPoint": {
                        "lat": 36.84681,
                        "lon": -76.28522
                    }
                },
                {
                    "facility": "National Clinical Research, Inc.",
                    "status": "TERMINATED",
                    "city": "Richmond",
                    "state": "Virginia",
                    "zip": "23294",
                    "country": "United States",
                    "geoPoint": {
                        "lat": 37.55376,
                        "lon": -77.46026
                    }
                },
                {
                    "facility": "Northwest Clinical Research Center",
                    "status": "RECRUITING",
                    "city": "Bellevue",
                    "state": "Washington",
                    "zip": "98007",
                    "country": "United States",
                    "geoPoint": {
                        "lat": 47.61038,
                        "lon": -122.20068
                    }
                },
                {
                    "facility": "Eastside Therapeutic Resource, Inc. dba Core Clinical Research",
                    "status": "NOT_YET_RECRUITING",
                    "city": "Everett",
                    "state": "Washington",
                    "zip": "98201",
                    "country": "United States",
                    "geoPoint": {
                        "lat": 47.97898,
                        "lon": -122.20208
                    }
                },
                {
                    "facility": "Seattle Children's Hospital Investigational Drug Services",
                    "status": "NOT_YET_RECRUITING",
                    "city": "Seattle",
                    "state": "Washington",
                    "zip": "98105",
                    "country": "United States",
                    "geoPoint": {
                        "lat": 47.60621,
                        "lon": -122.33207
                    }
                },
                {
                    "facility": "Seattle Children's Hospital",
                    "status": "NOT_YET_RECRUITING",
                    "city": "Seattle",
                    "state": "Washington",
                    "zip": "98105",
                    "country": "United States",
                    "geoPoint": {
                        "lat": 47.60621,
                        "lon": -122.33207
                    }
                },
                {
                    "facility": "University Hospital",
                    "status": "RECRUITING",
                    "city": "Madison",
                    "state": "Wisconsin",
                    "zip": "53792",
                    "country": "United States",
                    "geoPoint": {
                        "lat": 43.07305,
                        "lon": -89.40123
                    }
                },
                {
                    "facility": "University of Wisconsin-Madison",
                    "status": "RECRUITING",
                    "city": "Madison",
                    "state": "Wisconsin",
                    "zip": "53792",
                    "country": "United States",
                    "geoPoint": {
                        "lat": 43.07305,
                        "lon": -89.40123
                    }
                },
                {
                    "facility": "Wojewodzki Specjalistyczny Szpital Dzieciecy im. Sw. Ludwika w Krakowie Oddzial Kliniczny Dzieci",
                    "status": "RECRUITING",
                    "city": "Karkow",
                    "zip": "31-503",
                    "country": "Poland"
                },
                {
                    "facility": "NZOZ Wielospecjalistyczna Poradnia Lekarska SYNAPSIS, Lech Szczechowski",
                    "status": "RECRUITING",
                    "city": "Katowice",
                    "zip": "10-123",
                    "country": "Poland",
                    "geoPoint": {
                        "lat": 50.25841,
                        "lon": 19.02754
                    }
                },
                {
                    "facility": "NZOZ Wielospecjalistyczna Poradnia Lekarska SYNAPSIS, Lech Szczechowski",
                    "status": "TERMINATED",
                    "city": "Katowice",
                    "zip": "40-123",
                    "country": "Poland",
                    "geoPoint": {
                        "lat": 50.25841,
                        "lon": 19.02754
                    }
                },
                {
                    "facility": "Centrum Medyczne Plejady",
                    "status": "RECRUITING",
                    "city": "Krakow",
                    "zip": "30-363",
                    "country": "Poland",
                    "geoPoint": {
                        "lat": 50.06143,
                        "lon": 19.93658
                    }
                },
                {
                    "facility": "Wojewodzki Specjalistyczny Szpital Dzieciecy im. Sw. Ludwika w Krakowie Oddzial Kliniczny Dzieci",
                    "status": "RECRUITING",
                    "city": "Krakow",
                    "zip": "31-503",
                    "country": "Poland",
                    "geoPoint": {
                        "lat": 50.06143,
                        "lon": 19.93658
                    }
                },
                {
                    "facility": "Centrum Medyczne Plejady",
                    "status": "RECRUITING",
                    "city": "Krak\u00f3w",
                    "zip": "30-363",
                    "country": "Poland",
                    "geoPoint": {
                        "lat": 50.06143,
                        "lon": 19.93658
                    }
                },
                {
                    "facility": "Clinical Research Center Sp. z o.o.",
                    "status": "RECRUITING",
                    "city": "Pozna\u0144",
                    "zip": "60-848",
                    "country": "Poland",
                    "geoPoint": {
                        "lat": 52.40692,
                        "lon": 16.92993
                    }
                },
                {
                    "facility": "Clinical Research Center Sp\u00f3\u0142ka z ograniczon\u0105 odpowiedzialno\u015bci\u0105 MEDIC-R Sp.k",
                    "status": "RECRUITING",
                    "city": "Pozna\u0144",
                    "zip": "61-731",
                    "country": "Poland",
                    "geoPoint": {
                        "lat": 52.40692,
                        "lon": 16.92993
                    }
                },
                {
                    "facility": "Euromedis Sp. z o.o. Osrodek B",
                    "status": "RECRUITING",
                    "city": "Szczecin,",
                    "zip": "70-111,",
                    "country": "Poland",
                    "geoPoint": {
                        "lat": 53.42894,
                        "lon": 14.55302
                    }
                },
                {
                    "facility": "Pracownia Badan Klinicznych SALUS",
                    "status": "RECRUITING",
                    "city": "Wroclaw",
                    "zip": "52-210",
                    "country": "Poland",
                    "geoPoint": {
                        "lat": 51.1,
                        "lon": 17.03333
                    }
                },
                {
                    "facility": "Centrum Medyczne Oporow",
                    "status": "RECRUITING",
                    "city": "Wroclaw",
                    "zip": "52-416",
                    "country": "Poland",
                    "geoPoint": {
                        "lat": 51.1,
                        "lon": 17.03333
                    }
                },
                {
                    "facility": "Centre Atencio Primaria (CAP) Balenya",
                    "status": "ACTIVE_NOT_RECRUITING",
                    "city": "Balenya",
                    "state": "Barcelona",
                    "zip": "08550",
                    "country": "Spain"
                },
                {
                    "facility": "Hospital Universitario Marques de Valdecilla",
                    "status": "NOT_YET_RECRUITING",
                    "city": "Santander",
                    "state": "Cantabria",
                    "zip": "39008",
                    "country": "Spain",
                    "geoPoint": {
                        "lat": 43.46472,
                        "lon": -3.80444
                    }
                },
                {
                    "facility": "Hospital Universitari Vall d'Hebron",
                    "status": "RECRUITING",
                    "city": "Barcelona",
                    "zip": "08035",
                    "country": "Spain",
                    "geoPoint": {
                        "lat": 41.38879,
                        "lon": 2.15899
                    }
                },
                {
                    "facility": "Hospital Universitari Vall dHebron",
                    "status": "RECRUITING",
                    "city": "Barcelona",
                    "zip": "08035",
                    "country": "Spain",
                    "geoPoint": {
                        "lat": 41.38879,
                        "lon": 2.15899
                    }
                },
                {
                    "facility": "Hospital Universitario Vall d'Hebron",
                    "status": "RECRUITING",
                    "city": "Barcelona",
                    "zip": "08035",
                    "country": "Spain",
                    "geoPoint": {
                        "lat": 41.38879,
                        "lon": 2.15899
                    }
                },
                {
                    "facility": "CAP Baleny\u00e0",
                    "status": "ACTIVE_NOT_RECRUITING",
                    "city": "Barcelona",
                    "zip": "08550",
                    "country": "Spain",
                    "geoPoint": {
                        "lat": 41.38879,
                        "lon": 2.15899
                    }
                },
                {
                    "facility": "Instituto de Investigaciones del Sueno",
                    "status": "RECRUITING",
                    "city": "Madrid",
                    "zip": "28036",
                    "country": "Spain",
                    "geoPoint": {
                        "lat": 40.4165,
                        "lon": -3.70256
                    }
                },
                {
                    "facility": "Hospital Universitario Marques de Valdecilla",
                    "status": "RECRUITING",
                    "city": "Santander",
                    "zip": "39008",
                    "country": "Spain",
                    "geoPoint": {
                        "lat": 43.46472,
                        "lon": -3.80444
                    }
                },
                {
                    "facility": "Hospital Universitario Virgen del Rocio (HUVR)",
                    "status": "RECRUITING",
                    "city": "Sevilla",
                    "zip": "41013",
                    "country": "Spain",
                    "geoPoint": {
                        "lat": 37.38283,
                        "lon": -5.97317
                    }
                },
                {
                    "facility": "Hospital Universitario Virgen del Rocio",
                    "status": "RECRUITING",
                    "city": "Sevilla",
                    "zip": "41013",
                    "country": "Spain",
                    "geoPoint": {
                        "lat": 37.38283,
                        "lon": -5.97317
                    }
                },
                {
                    "facility": "Hospital Clinico Universitario de Valladolid",
                    "status": "RECRUITING",
                    "city": "Valladolid",
                    "zip": "47003",
                    "country": "Spain",
                    "geoPoint": {
                        "lat": 41.65518,
                        "lon": -4.72372
                    }
                }
            ]
        },
        "referencesModule": {
            "seeAlsoLinks": [
                {
                    "label": "To obtain contact information for a study center near you, click here.",
                    "url": "https://pmiform.com/clinical-trial-info-request?StudyID=BHV3000-312"
                }
            ]
        },
        "ipdSharingStatementModule": {
            "ipdSharing": "YES",
            "description": "Pfizer will provide access to individual de-identified participant data and related study documents (e.g. protocol, Statistical Analysis Plan (SAP), Clinical Study Report (CSR)) upon request from qualified researchers, and subject to certain criteria, conditions, and exceptions. Further details on Pfizer's data sharing criteria and process for requesting access can be found at: https://www.pfizer.com/science/clinical_trials/trial_data_and_results/data_requests.",
            "url": "https://www.pfizer.com/science/clinical_trials/trial_data_and_results/data_requests"
        }
    },
    "derivedSection": {
        "miscInfoModule": {
            "versionHolder": "2024-07-30"
        },
        "conditionBrowseModule": {
            "meshes": [
                {
                    "id": "D000008881",
                    "term": "Migraine Disorders"
                }
            ],
            "ancestors": [
                {
                    "id": "D000051270",
                    "term": "Headache Disorders, Primary"
                },
                {
                    "id": "D000020773",
                    "term": "Headache Disorders"
                },
                {
                    "id": "D000001927",
                    "term": "Brain Diseases"
                },
                {
                    "id": "D000002493",
                    "term": "Central Nervous System Diseases"
                },
                {
                    "id": "D000009422",
                    "term": "Nervous System Diseases"
                }
            ],
            "browseLeaves": [
                {
                    "id": "M11852",
                    "name": "Migraine Disorders",
                    "asFound": "Migraine",
                    "relevance": "HIGH"
                },
                {
                    "id": "M12273",
                    "name": "Nausea",
                    "relevance": "LOW"
                },
                {
                    "id": "M22550",
                    "name": "Photophobia",
                    "relevance": "LOW"
                },
                {
                    "id": "M9351",
                    "name": "Headache",
                    "relevance": "LOW"
                },
                {
                    "id": "M22529",
                    "name": "Headache Disorders",
                    "relevance": "LOW"
                },
                {
                    "id": "M26657",
                    "name": "Headache Disorders, Primary",
                    "relevance": "LOW"
                },
                {
                    "id": "M5204",
                    "name": "Brain Diseases",
                    "relevance": "LOW"
                },
                {
                    "id": "M5742",
                    "name": "Central Nervous System Diseases",
                    "relevance": "LOW"
                },
                {
                    "id": "T170",
                    "name": "Acute Graft Versus Host Disease",
                    "relevance": "LOW"
                }
            ],
            "browseBranches": [
                {
                    "abbrev": "BC10",
                    "name": "Nervous System Diseases"
                },
                {
                    "abbrev": "All",
                    "name": "All Conditions"
                },
                {
                    "abbrev": "BC23",
                    "name": "Symptoms and General Pathology"
                },
                {
                    "abbrev": "BC11",
                    "name": "Eye Diseases"
                },
                {
                    "abbrev": "Rare",
                    "name": "Rare Diseases"
                }
            ]
        }
    },
    "hasResults": false
}