{
    "protocolSection": {
        "identificationModule": {
            "nctId": "NCT05232929",
            "orgStudyIdInfo": {
                "id": "ML43702"
            },
            "organization": {
                "fullName": "Genentech, Inc.",
                "class": "INDUSTRY"
            },
            "briefTitle": "Long-Term Follow-Up Study of Risdiplam in Participants With Spinal Muscular Atrophy (SMA)",
            "officialTitle": "Long-Term Follow-Up Study of Patients With Spinal Muscular Atrophy Receiving Risdiplam Treatment",
            "acronym": "WeSMA",
            "therapeuticArea": [
                "Other"
            ],
            "study": "long-term-follow-up-study-of-risdiplam-in-participants-with-spinal-muscular-atrophy-sma"
        },
        "statusModule": {
            "statusVerifiedDate": "2024-07",
            "overallStatus": "RECRUITING",
            "expandedAccessInfo": {
                "hasExpandedAccess": false
            },
            "startDateStruct": {
                "date": "2022-06-14",
                "type": "ACTUAL"
            },
            "primaryCompletionDateStruct": {
                "date": "2029-06-01",
                "type": "ESTIMATED"
            },
            "completionDateStruct": {
                "date": "2029-06-01",
                "type": "ESTIMATED"
            },
            "studyFirstSubmitDate": "2022-01-31",
            "studyFirstSubmitQcDate": "2022-01-31",
            "studyFirstPostDateStruct": {
                "date": "2022-02-10",
                "type": "ACTUAL"
            },
            "lastUpdateSubmitDate": "2024-07-18",
            "lastUpdatePostDateStruct": {
                "date": "2024-07-19",
                "type": "ACTUAL"
            }
        },
        "sponsorCollaboratorsModule": {
            "responsibleParty": {
                "type": "SPONSOR"
            },
            "leadSponsor": {
                "name": "Genentech, Inc.",
                "class": "INDUSTRY"
            }
        },
        "oversightModule": {
            "isFdaRegulatedDrug": true,
            "isFdaRegulatedDevice": false,
            "isUsExport": false
        },
        "descriptionModule": {
            "briefSummary": "A multi-center, longitudinal, prospective, non-comparative study to investigate the long-term safety and effectiveness of risdiplam, prescribed based on clinician judgment as per the Evrysdi\u00ae U.S. Package Insert (USPI) in adult and pediatric participants with spinal muscular atrophy (SMA). In this study, participants will be followed for up to 5 years from enrollment or until withdrawal of consent, loss to follow-up, or death. Participants who discontinue risdiplam may still remain in the study, if they agree to continue participating in the follow-up assessments."
        },
        "conditionsModule": {
            "conditions": [
                "Spinal Muscular Atrophy"
            ]
        },
        "designModule": {
            "studyType": "INTERVENTIONAL",
            "phases": [
                "PHASE4"
            ],
            "designInfo": {
                "allocation": "NA",
                "interventionModel": "SINGLE_GROUP",
                "primaryPurpose": "TREATMENT",
                "maskingInfo": {
                    "masking": "NONE"
                }
            },
            "enrollmentInfo": {
                "count": 500,
                "type": "ESTIMATED"
            }
        },
        "armsInterventionsModule": {
            "armGroups": [
                {
                    "label": "Risdiplam",
                    "type": "EXPERIMENTAL",
                    "description": "Participants will receive risdiplam prescribed based on clinician judgment, as per the Evrysdi\u00ae USPI.",
                    "interventionNames": [
                        "Drug: Risdiplam"
                    ]
                }
            ],
            "interventions": [
                {
                    "type": "DRUG",
                    "name": "Risdiplam",
                    "description": "Participants will receive risdiplam orally.",
                    "armGroupLabels": [
                        "Risdiplam"
                    ],
                    "otherNames": [
                        "Evrysdi\u00ae"
                    ]
                }
            ]
        },
        "outcomesModule": {
            "primaryOutcomes": [
                {
                    "measure": "Number of Participants With Adverse Events (AEs), Adverse Events of Special Interest (AESIs), and Serious Adverse Events (SAEs)",
                    "description": "An adverse event (AE) is any untoward medical occurrence in a participant administered a pharmaceutical product and which does not necessarily have to have a causal relationship with the treatment. An adverse event can therefore be any unfavorable and unintended sign (including an abnormal laboratory finding, for example), symptom, or disease temporally associated with the use of a pharmaceutical product, whether or not considered related to the pharmaceutical product. Pre-existing conditions which worsen during a study are also considered as adverse events.",
                    "timeFrame": "Up to 5 years"
                }
            ],
            "secondaryOutcomes": [
                {
                    "measure": "Percentage of Participants Considered Improved on the Clinical Global Impression of Change (CGI-C) Scale",
                    "description": "The Clinical Global Impression of Change (CGI-C) is used to score a clinician's impression of a participant's change in global health. The CGI-C is a single item measure of change in global health, using seven response options: \"very much improved\", \"much improved\", \"minimally improved\", \"no change\", \"minimally worse\", \"much worse\", and \"very much worse\". Participants considered as \"improved\" include responses of \"very much improved, \"much improved\" and \"minimally improved\".",
                    "timeFrame": "Up to 5 years"
                }
            ]
        },
        "eligibilityModule": {
            "eligibilityCriteria": "Inclusion Criteria:\n\n* Confirmed diagnosis of 5q-autosomal recessive SMA\n* Prescribed or continued risdiplam based on clinical judgment of prescriber, as per the Evrysdi\u00ae USPI, after U.S. FDA approval (07 August 2020)\n\nExclusion Criteria:\n\n* Hypersensitivity to risdiplam\n* Participated in a registrational trial for risdiplam (i.e., Firefish \\[NCT02913482\\], Sunfish \\[NCT02908685\\], Jewelfish \\[NCT03032172\\], and Rainbowfish \\[NCT03779334\\])",
            "healthyVolunteers": false,
            "sex": "ALL",
            "stdAges": [
                "CHILD",
                "ADULT",
                "OLDER_ADULT"
            ]
        },
        "contactsLocationsModule": {
            "centralContacts": [
                {
                    "name": "Reference Study ID Number: ML43702 https://forpatients.roche.com/",
                    "role": "CONTACT",
                    "phone": "888-662-6728 (U.S. Only)",
                    "email": "global-roche-genentech-trials@gene.com"
                }
            ],
            "overallOfficials": [
                {
                    "name": "Clinical Trials",
                    "affiliation": "Hoffmann-La Roche",
                    "role": "STUDY_DIRECTOR"
                }
            ],
            "locations": [
                {
                    "facility": "Barrow Neurological Institute",
                    "status": "RECRUITING",
                    "city": "Phoenix",
                    "state": "Arizona",
                    "zip": "85013",
                    "country": "United States",
                    "geoPoint": {
                        "lat": 33.44838,
                        "lon": -112.07404
                    }
                },
                {
                    "facility": "Phoenix Children's Hospital",
                    "status": "RECRUITING",
                    "city": "Phoenix",
                    "state": "Arizona",
                    "zip": "85016",
                    "country": "United States",
                    "geoPoint": {
                        "lat": 33.44838,
                        "lon": -112.07404
                    }
                },
                {
                    "facility": "University of Arkansas for Medical Sciences",
                    "status": "RECRUITING",
                    "city": "Little Rock",
                    "state": "Arkansas",
                    "zip": "72103",
                    "country": "United States",
                    "geoPoint": {
                        "lat": 34.74648,
                        "lon": -92.28959
                    }
                },
                {
                    "facility": "Loma Linda University Health Care; Clinical Trial Center",
                    "status": "RECRUITING",
                    "city": "Loma Linda",
                    "state": "California",
                    "zip": "92354",
                    "country": "United States",
                    "geoPoint": {
                        "lat": 34.04835,
                        "lon": -117.26115
                    }
                },
                {
                    "facility": "Children's Hospital Los Angeles",
                    "status": "RECRUITING",
                    "city": "Los Angeles",
                    "state": "California",
                    "zip": "90010",
                    "country": "United States",
                    "geoPoint": {
                        "lat": 34.05223,
                        "lon": -118.24368
                    }
                },
                {
                    "facility": "Valley Children's Hospital",
                    "status": "RECRUITING",
                    "city": "Madera",
                    "state": "California",
                    "zip": "93636",
                    "country": "United States",
                    "geoPoint": {
                        "lat": 36.96134,
                        "lon": -120.06072
                    }
                },
                {
                    "facility": "University California - Irvine",
                    "status": "RECRUITING",
                    "city": "Orange",
                    "state": "California",
                    "zip": "92868",
                    "country": "United States",
                    "geoPoint": {
                        "lat": 33.78779,
                        "lon": -117.85311
                    }
                },
                {
                    "facility": "University of California Davis Medical Center",
                    "status": "RECRUITING",
                    "city": "Sacramento",
                    "state": "California",
                    "zip": "95817",
                    "country": "United States",
                    "geoPoint": {
                        "lat": 38.58157,
                        "lon": -121.4944
                    }
                },
                {
                    "facility": "University of Colorado; Anschutz Medical Campus Department of Neurology",
                    "status": "RECRUITING",
                    "city": "Aurora",
                    "state": "Colorado",
                    "zip": "80045",
                    "country": "United States",
                    "geoPoint": {
                        "lat": 39.72943,
                        "lon": -104.83192
                    }
                },
                {
                    "facility": "Medstar Georgetown University Hospital",
                    "status": "RECRUITING",
                    "city": "Washington",
                    "state": "District of Columbia",
                    "zip": "20007",
                    "country": "United States",
                    "geoPoint": {
                        "lat": 38.89511,
                        "lon": -77.03637
                    }
                },
                {
                    "facility": "Children's National Hospital",
                    "status": "RECRUITING",
                    "city": "Washington",
                    "state": "District of Columbia",
                    "zip": "20010",
                    "country": "United States",
                    "geoPoint": {
                        "lat": 38.89511,
                        "lon": -77.03637
                    }
                },
                {
                    "facility": "Advent Health Orlando",
                    "status": "RECRUITING",
                    "city": "Orlando",
                    "state": "Florida",
                    "zip": "32804",
                    "country": "United States",
                    "geoPoint": {
                        "lat": 28.53834,
                        "lon": -81.37924
                    }
                },
                {
                    "facility": "Nemour's Children's Hospital, Florida",
                    "status": "RECRUITING",
                    "city": "Orlando",
                    "state": "Florida",
                    "zip": "32827",
                    "country": "United States",
                    "geoPoint": {
                        "lat": 28.53834,
                        "lon": -81.37924
                    }
                },
                {
                    "facility": "Rare Disease Research, LLC",
                    "status": "RECRUITING",
                    "city": "Atlanta",
                    "state": "Georgia",
                    "zip": "30318",
                    "country": "United States",
                    "geoPoint": {
                        "lat": 33.749,
                        "lon": -84.38798
                    }
                },
                {
                    "facility": "University of Kansas Medical Center",
                    "status": "RECRUITING",
                    "city": "Kansas City",
                    "state": "Kansas",
                    "zip": "66160",
                    "country": "United States",
                    "geoPoint": {
                        "lat": 39.11417,
                        "lon": -94.62746
                    }
                },
                {
                    "facility": "University of Kentucky Medical Center",
                    "status": "RECRUITING",
                    "city": "Lexington",
                    "state": "Kentucky",
                    "zip": "40536",
                    "country": "United States",
                    "geoPoint": {
                        "lat": 37.98869,
                        "lon": -84.47772
                    }
                },
                {
                    "facility": "Norton Children's Hospital",
                    "status": "RECRUITING",
                    "city": "Louisville",
                    "state": "Kentucky",
                    "zip": "40202",
                    "country": "United States",
                    "geoPoint": {
                        "lat": 38.25424,
                        "lon": -85.75941
                    }
                },
                {
                    "facility": "Massachusetts General Hospital; Neurological Clinical Research Institute (NCRI)",
                    "status": "RECRUITING",
                    "city": "Boston",
                    "state": "Massachusetts",
                    "zip": "02114",
                    "country": "United States",
                    "geoPoint": {
                        "lat": 42.35843,
                        "lon": -71.05977
                    }
                },
                {
                    "facility": "University of Michigan Pediatric Rehabilitation Center",
                    "status": "RECRUITING",
                    "city": "Ann Arbor",
                    "state": "Michigan",
                    "zip": "48109",
                    "country": "United States",
                    "geoPoint": {
                        "lat": 42.27756,
                        "lon": -83.74088
                    }
                },
                {
                    "facility": "Helen DeVos Children's Hospital at Spectrum Health",
                    "status": "RECRUITING",
                    "city": "Grand Rapids",
                    "state": "Michigan",
                    "zip": "49503",
                    "country": "United States",
                    "geoPoint": {
                        "lat": 42.96336,
                        "lon": -85.66809
                    }
                },
                {
                    "facility": "Gillette Children's Specialty Healthcare",
                    "status": "RECRUITING",
                    "city": "Minnetonka",
                    "state": "Minnesota",
                    "zip": "55343",
                    "country": "United States",
                    "geoPoint": {
                        "lat": 44.9133,
                        "lon": -93.50329
                    }
                },
                {
                    "facility": "Mayo Clinic",
                    "status": "RECRUITING",
                    "city": "Rochester",
                    "state": "Minnesota",
                    "zip": "55905",
                    "country": "United States",
                    "geoPoint": {
                        "lat": 44.02163,
                        "lon": -92.4699
                    }
                },
                {
                    "facility": "Washington University; Wash Uni. Sch. Of Med; Barnes-Jewish Hospital",
                    "status": "RECRUITING",
                    "city": "Saint Louis",
                    "state": "Missouri",
                    "zip": "63110",
                    "country": "United States",
                    "geoPoint": {
                        "lat": 38.62727,
                        "lon": -90.19789
                    }
                },
                {
                    "facility": "NYU Hospital for Joint Diseases",
                    "status": "RECRUITING",
                    "city": "New York",
                    "state": "New York",
                    "zip": "10003",
                    "country": "United States",
                    "geoPoint": {
                        "lat": 40.71427,
                        "lon": -74.00597
                    }
                },
                {
                    "facility": "Columbia University Med Center",
                    "status": "RECRUITING",
                    "city": "New York",
                    "state": "New York",
                    "zip": "10032",
                    "country": "United States",
                    "geoPoint": {
                        "lat": 40.71427,
                        "lon": -74.00597
                    }
                },
                {
                    "facility": "Cincinnati Childrens Hospital",
                    "status": "RECRUITING",
                    "city": "Cincinnati",
                    "state": "Ohio",
                    "zip": "45229",
                    "country": "United States",
                    "geoPoint": {
                        "lat": 39.12713,
                        "lon": -84.51435
                    }
                },
                {
                    "facility": "Penn State Milton S. Hershey Medical Center",
                    "status": "RECRUITING",
                    "city": "Hershey",
                    "state": "Pennsylvania",
                    "zip": "17033",
                    "country": "United States",
                    "geoPoint": {
                        "lat": 40.28592,
                        "lon": -76.65025
                    }
                },
                {
                    "facility": "Childrens Hospital of Philadelphia",
                    "status": "RECRUITING",
                    "city": "Philadelphia",
                    "state": "Pennsylvania",
                    "zip": "19104",
                    "country": "United States",
                    "geoPoint": {
                        "lat": 39.95233,
                        "lon": -75.16379
                    }
                },
                {
                    "facility": "University of Texas at Austin Health sciences, Dell Medical School",
                    "status": "RECRUITING",
                    "city": "Austin",
                    "state": "Texas",
                    "zip": "78723",
                    "country": "United States",
                    "geoPoint": {
                        "lat": 30.26715,
                        "lon": -97.74306
                    }
                },
                {
                    "facility": "Neurology & Neuromuscular Care Center",
                    "status": "RECRUITING",
                    "city": "Denton",
                    "state": "Texas",
                    "zip": "76208",
                    "country": "United States",
                    "geoPoint": {
                        "lat": 33.21484,
                        "lon": -97.13307
                    }
                },
                {
                    "facility": "Central Texas Neurology Consultants",
                    "status": "RECRUITING",
                    "city": "Round Rock",
                    "state": "Texas",
                    "zip": "78681",
                    "country": "United States",
                    "geoPoint": {
                        "lat": 30.50826,
                        "lon": -97.6789
                    }
                },
                {
                    "facility": "Methodist Children's Hospital of South Texas",
                    "status": "RECRUITING",
                    "city": "San Antonio",
                    "state": "Texas",
                    "zip": "78229",
                    "country": "United States",
                    "geoPoint": {
                        "lat": 29.42412,
                        "lon": -98.49363
                    }
                },
                {
                    "facility": "University Of Utah",
                    "status": "RECRUITING",
                    "city": "Salt Lake City",
                    "state": "Utah",
                    "zip": "84108",
                    "country": "United States",
                    "geoPoint": {
                        "lat": 40.76078,
                        "lon": -111.89105
                    }
                },
                {
                    "facility": "University of Virginia Children?s Hospital; Developmental",
                    "status": "RECRUITING",
                    "city": "Charlottesville",
                    "state": "Virginia",
                    "zip": "22903",
                    "country": "United States",
                    "geoPoint": {
                        "lat": 38.02931,
                        "lon": -78.47668
                    }
                },
                {
                    "facility": "MultiCare Health System Institute for Research and Innovation",
                    "status": "RECRUITING",
                    "city": "Tacoma",
                    "state": "Washington",
                    "zip": "98405",
                    "country": "United States",
                    "geoPoint": {
                        "lat": 47.25288,
                        "lon": -122.44429
                    }
                },
                {
                    "facility": "UBC (Remote Coordinating Center, no physical facility)",
                    "status": "RECRUITING",
                    "city": "Morgantown",
                    "state": "West Virginia",
                    "zip": "26508",
                    "country": "United States",
                    "geoPoint": {
                        "lat": 39.62953,
                        "lon": -79.9559
                    }
                },
                {
                    "facility": "Childrens Hospital of Wisconsin",
                    "status": "RECRUITING",
                    "city": "Milwaukee",
                    "state": "Wisconsin",
                    "zip": "53201",
                    "country": "United States",
                    "geoPoint": {
                        "lat": 43.0389,
                        "lon": -87.90647
                    }
                },
                {
                    "facility": "Instituto de Rehabilitaci\u00f3n del Caribe",
                    "status": "RECRUITING",
                    "city": "Santurce",
                    "zip": "00912",
                    "country": "Puerto Rico",
                    "geoPoint": {
                        "lat": 18.19523,
                        "lon": -67.14018
                    }
                }
            ]
        },
        "ipdSharingStatementModule": {
            "ipdSharing": "YES",
            "description": "Qualified researchers may request access to individual patient level data through the clinical study data request platform (www.vivli.org). Further details on Roche's criteria for eligible studies are available here (https://vivli.org/ourmember/roche/). For further details on Roche's Global Policy on the Sharing of Clinical Information and how to request access to related clinical study documents, see here (https://www.roche.com/research_and_development/who_we_are_how_we_work/clinical_trials/our_commitment_to_data_sharing.htm)."
        }
    },
    "derivedSection": {
        "miscInfoModule": {
            "versionHolder": "2024-07-30"
        },
        "conditionBrowseModule": {
            "meshes": [
                {
                    "id": "D000009133",
                    "term": "Muscular Atrophy"
                },
                {
                    "id": "D000009134",
                    "term": "Muscular Atrophy, Spinal"
                },
                {
                    "id": "D000001284",
                    "term": "Atrophy"
                }
            ],
            "ancestors": [
                {
                    "id": "D000020763",
                    "term": "Pathological Conditions, Anatomical"
                },
                {
                    "id": "D000020879",
                    "term": "Neuromuscular Manifestations"
                },
                {
                    "id": "D000009461",
                    "term": "Neurologic Manifestations"
                },
                {
                    "id": "D000009422",
                    "term": "Nervous System Diseases"
                },
                {
                    "id": "D000013118",
                    "term": "Spinal Cord Diseases"
                },
                {
                    "id": "D000002493",
                    "term": "Central Nervous System Diseases"
                },
                {
                    "id": "D000016472",
                    "term": "Motor Neuron Disease"
                },
                {
                    "id": "D000019636",
                    "term": "Neurodegenerative Diseases"
                },
                {
                    "id": "D000009468",
                    "term": "Neuromuscular Diseases"
                }
            ],
            "browseLeaves": [
                {
                    "id": "M4589",
                    "name": "Atrophy",
                    "asFound": "Atrophy",
                    "relevance": "HIGH"
                },
                {
                    "id": "M12090",
                    "name": "Muscular Atrophy",
                    "asFound": "Muscular Atrophy",
                    "relevance": "HIGH"
                },
                {
                    "id": "M12091",
                    "name": "Muscular Atrophy, Spinal",
                    "asFound": "Spinal Muscular Atrophy",
                    "relevance": "HIGH"
                },
                {
                    "id": "M22519",
                    "name": "Pathological Conditions, Anatomical",
                    "relevance": "LOW"
                },
                {
                    "id": "M22619",
                    "name": "Neuromuscular Manifestations",
                    "relevance": "LOW"
                },
                {
                    "id": "M12404",
                    "name": "Neurologic Manifestations",
                    "relevance": "LOW"
                },
                {
                    "id": "M15915",
                    "name": "Spinal Cord Diseases",
                    "relevance": "LOW"
                },
                {
                    "id": "M5742",
                    "name": "Central Nervous System Diseases",
                    "relevance": "LOW"
                },
                {
                    "id": "M18879",
                    "name": "Motor Neuron Disease",
                    "relevance": "LOW"
                },
                {
                    "id": "M4024",
                    "name": "Amyotrophic Lateral Sclerosis",
                    "relevance": "LOW"
                },
                {
                    "id": "M21558",
                    "name": "Neurodegenerative Diseases",
                    "relevance": "LOW"
                },
                {
                    "id": "M12411",
                    "name": "Neuromuscular Diseases",
                    "relevance": "LOW"
                },
                {
                    "id": "T5342",
                    "name": "Spinal Muscular Atrophy",
                    "asFound": "Spinal Muscular Atrophy",
                    "relevance": "HIGH"
                },
                {
                    "id": "T349",
                    "name": "Amyotrophic Lateral Sclerosis",
                    "relevance": "LOW"
                }
            ],
            "browseBranches": [
                {
                    "abbrev": "BC23",
                    "name": "Symptoms and General Pathology"
                },
                {
                    "abbrev": "All",
                    "name": "All Conditions"
                },
                {
                    "abbrev": "BC10",
                    "name": "Nervous System Diseases"
                },
                {
                    "abbrev": "BC18",
                    "name": "Nutritional and Metabolic Diseases"
                },
                {
                    "abbrev": "Rare",
                    "name": "Rare Diseases"
                }
            ]
        },
        "interventionBrowseModule": {
            "meshes": [
                {
                    "id": "C000629884",
                    "term": "Risdiplam"
                }
            ],
            "ancestors": [
                {
                    "id": "D000009465",
                    "term": "Neuromuscular Agents"
                },
                {
                    "id": "D000018373",
                    "term": "Peripheral Nervous System Agents"
                },
                {
                    "id": "D000045505",
                    "term": "Physiological Effects of Drugs"
                }
            ],
            "browseLeaves": [
                {
                    "id": "M264314",
                    "name": "Risdiplam",
                    "asFound": "Streptococcus salivarius",
                    "relevance": "HIGH"
                }
            ],
            "browseBranches": [
                {
                    "abbrev": "All",
                    "name": "All Drugs and Chemicals"
                }
            ]
        }
    },
    "hasResults": false
}