{
    "protocolSection": {
        "identificationModule": {
            "nctId": "NCT05144997",
            "orgStudyIdInfo": {
                "id": "B7461039"
            },
            "secondaryIdInfos": [
                {
                    "id": "2021-005569-42",
                    "type": "EUDRACT_NUMBER"
                }
            ],
            "organization": {
                "fullName": "Pfizer",
                "class": "INDUSTRY"
            },
            "briefTitle": "Lorlatinib Continuation Study",
            "officialTitle": "LORLATINIB (PF-06463922) CONTINUATION PROTOCOL: AN OPEN-LABEL, SINGLE-ARM CONTINUATION STUDY FOR PARTICIPANTS WITH ALK-POSITIVE OR ROS1-POSITIVE NON-SMALL CELL LUNG CANCER (NSCLC) CONTINUING FROM PFIZER SPONSORED LORLATINIB CLINICAL STUDIES",
            "therapeuticArea": [
                "Oncology and Hematology",
                "Other"
            ],
            "study": "lorlatinib-continuation-study"
        },
        "statusModule": {
            "statusVerifiedDate": "2024-07",
            "overallStatus": "RECRUITING",
            "expandedAccessInfo": {
                "hasExpandedAccess": false
            },
            "startDateStruct": {
                "date": "2021-12-28",
                "type": "ACTUAL"
            },
            "primaryCompletionDateStruct": {
                "date": "2026-12-28",
                "type": "ESTIMATED"
            },
            "completionDateStruct": {
                "date": "2026-12-28",
                "type": "ESTIMATED"
            },
            "studyFirstSubmitDate": "2021-11-22",
            "studyFirstSubmitQcDate": "2021-11-22",
            "studyFirstPostDateStruct": {
                "date": "2021-12-06",
                "type": "ACTUAL"
            },
            "lastUpdateSubmitDate": "2024-07-23",
            "lastUpdatePostDateStruct": {
                "date": "2024-07-24",
                "type": "ACTUAL"
            }
        },
        "sponsorCollaboratorsModule": {
            "responsibleParty": {
                "type": "SPONSOR"
            },
            "leadSponsor": {
                "name": "Pfizer",
                "class": "INDUSTRY"
            }
        },
        "oversightModule": {
            "oversightHasDmc": false,
            "isFdaRegulatedDrug": true,
            "isFdaRegulatedDevice": false
        },
        "descriptionModule": {
            "briefSummary": "The purpose of this protocol is to provide continued treatment access and safety follow-up for eligible participants who continue to derive a benefit from study intervention in the Pfizer sponsored lorlatinib parent studies that will be closed. Additional follow-up safety data collection will permit further characterization of the safety profile of lorlatinib in participants continuing to receive study intervention"
        },
        "conditionsModule": {
            "conditions": [
                "Non-Small-Cell Lung Cancer",
                "NSCLC"
            ],
            "keywords": [
                "ALK",
                "anaplastic lymphoma kinase"
            ]
        },
        "designModule": {
            "studyType": "INTERVENTIONAL",
            "phases": [
                "PHASE4"
            ],
            "designInfo": {
                "allocation": "NA",
                "interventionModel": "SINGLE_GROUP",
                "primaryPurpose": "TREATMENT",
                "maskingInfo": {
                    "masking": "NONE"
                }
            },
            "enrollmentInfo": {
                "count": 200,
                "type": "ESTIMATED"
            }
        },
        "armsInterventionsModule": {
            "armGroups": [
                {
                    "label": "Lorlatinib",
                    "type": "EXPERIMENTAL",
                    "description": "Lorlatinib single agent, 100 mg (4 x 25 mg) oral tables, QD, continuously",
                    "interventionNames": [
                        "Drug: Lorlatinib"
                    ]
                }
            ],
            "interventions": [
                {
                    "type": "DRUG",
                    "name": "Lorlatinib",
                    "description": "ALK-positive NSCL treatment",
                    "armGroupLabels": [
                        "Lorlatinib"
                    ],
                    "otherNames": [
                        "PF-06463922"
                    ]
                }
            ]
        },
        "outcomesModule": {
            "primaryOutcomes": [
                {
                    "measure": "Number of participants with adverse events leading to permanent discontinuation of study intervention",
                    "description": "Safety collection in this study will permit further characterization of the safety profile of lorlatinib",
                    "timeFrame": "Baseline up to approximately 5 years"
                },
                {
                    "measure": "Number of serious adverse events reported for all participants",
                    "description": "Safety collection in this study will permit further characterization of the safety profile of lorlatinib",
                    "timeFrame": "Baseline up to approximately 5 years"
                }
            ]
        },
        "eligibilityModule": {
            "eligibilityCriteria": "Inclusion Criteria:\n\n1 - Any participant who is receiving study treatment and deriving clinical benefit (as determined by the Principal Investigator) in a Pfizer-sponsored Lorlatinib Parent Study.\n\n2- Participants must agree to follow the reproductive criteria. 3- Adequate Bone Marrow, Liver, Renal, Pancreatic Function\n\nExclusion Criteria:\n\n1 - Female participants who are pregnant or breastfeeding. 2- Any medical reason that, in the opinion of the Investigator or Sponsor, precludes the participant from inclusion in the study.",
            "healthyVolunteers": false,
            "sex": "ALL",
            "minimumAge": "18 Years",
            "stdAges": [
                "ADULT",
                "OLDER_ADULT"
            ]
        },
        "contactsLocationsModule": {
            "centralContacts": [
                {
                    "name": "Pfizer CT.gov Call Center",
                    "role": "CONTACT",
                    "phone": "1-800-718-1021",
                    "email": "ClinicalTrials.gov_Inquiries@pfizer.com"
                }
            ],
            "overallOfficials": [
                {
                    "name": "Pfizer CT.gov Call Center",
                    "affiliation": "Pfizer",
                    "role": "STUDY_DIRECTOR"
                }
            ],
            "locations": [
                {
                    "facility": "UC Irvine Health",
                    "status": "RECRUITING",
                    "city": "Orange",
                    "state": "California",
                    "zip": "92868-3201",
                    "country": "United States",
                    "geoPoint": {
                        "lat": 33.78779,
                        "lon": -117.85311
                    }
                },
                {
                    "facility": "The First affiliated Hospital of Anhui Medical University",
                    "status": "RECRUITING",
                    "city": "Hefei",
                    "state": "Anhui",
                    "zip": "230022",
                    "country": "China",
                    "geoPoint": {
                        "lat": 31.86389,
                        "lon": 117.28083
                    }
                },
                {
                    "facility": "Beijing Chest Hospital, Capital Medical University",
                    "status": "RECRUITING",
                    "city": "Beijing",
                    "state": "Beijing",
                    "zip": "100000",
                    "country": "China",
                    "geoPoint": {
                        "lat": 39.9075,
                        "lon": 116.39723
                    }
                },
                {
                    "facility": "Beijing Cancer Hospital",
                    "status": "RECRUITING",
                    "city": "Beijing",
                    "state": "Beijing",
                    "zip": "100142",
                    "country": "China",
                    "geoPoint": {
                        "lat": 39.9075,
                        "lon": 116.39723
                    }
                },
                {
                    "facility": "Fujian Cancer Hospital",
                    "status": "RECRUITING",
                    "city": "Fuzhou",
                    "state": "Fujian",
                    "zip": "350014",
                    "country": "China",
                    "geoPoint": {
                        "lat": 26.06139,
                        "lon": 119.30611
                    }
                },
                {
                    "facility": "Guangdong Provincial People's Hospital",
                    "status": "RECRUITING",
                    "city": "Guangzhou",
                    "state": "Guangdong",
                    "zip": "510080",
                    "country": "China",
                    "geoPoint": {
                        "lat": 23.11667,
                        "lon": 113.25
                    }
                },
                {
                    "facility": "Hunan Cancer Hospital",
                    "status": "NOT_YET_RECRUITING",
                    "city": "Changsha",
                    "state": "Hunan",
                    "zip": "410006",
                    "country": "China",
                    "geoPoint": {
                        "lat": 28.19874,
                        "lon": 112.97087
                    }
                },
                {
                    "facility": "General Hospital of Eastern Theater Command",
                    "status": "NOT_YET_RECRUITING",
                    "city": "Nanjing",
                    "state": "Jiangsu",
                    "zip": "210002",
                    "country": "China",
                    "geoPoint": {
                        "lat": 32.06167,
                        "lon": 118.77778
                    }
                },
                {
                    "facility": "The first hospital of jilin university",
                    "status": "NOT_YET_RECRUITING",
                    "city": "Changchun City",
                    "state": "Jilin",
                    "zip": "130021",
                    "country": "China"
                },
                {
                    "facility": "Jilin Cancer Hospital",
                    "status": "NOT_YET_RECRUITING",
                    "city": "Changchun",
                    "state": "Jilin",
                    "zip": "130000",
                    "country": "China",
                    "geoPoint": {
                        "lat": 43.88,
                        "lon": 125.32278
                    }
                },
                {
                    "facility": "Jilin Cancer Hospital",
                    "status": "RECRUITING",
                    "city": "Changchun",
                    "state": "Jilin",
                    "zip": "130000",
                    "country": "China",
                    "geoPoint": {
                        "lat": 43.88,
                        "lon": 125.32278
                    }
                },
                {
                    "facility": "Jilin Cancer Hospital",
                    "status": "NOT_YET_RECRUITING",
                    "city": "Changchun",
                    "state": "Jilin",
                    "zip": "130028",
                    "country": "China",
                    "geoPoint": {
                        "lat": 43.88,
                        "lon": 125.32278
                    }
                },
                {
                    "facility": "Sir Run Shaw Hospital",
                    "status": "RECRUITING",
                    "city": "Hangzhou",
                    "state": "Qiantang District",
                    "zip": "310016",
                    "country": "China",
                    "geoPoint": {
                        "lat": 30.29365,
                        "lon": 120.16142
                    }
                },
                {
                    "facility": "The Second Affiliated Hospital of PLA Air Force Medical University",
                    "status": "NOT_YET_RECRUITING",
                    "city": "Xi'an City",
                    "state": "Shaanxi",
                    "zip": "710038",
                    "country": "China"
                },
                {
                    "facility": "Shanghai Chest Hospital",
                    "status": "RECRUITING",
                    "city": "Shanghai",
                    "state": "Shanghai",
                    "zip": "200030",
                    "country": "China",
                    "geoPoint": {
                        "lat": 31.22222,
                        "lon": 121.45806
                    }
                },
                {
                    "facility": "Sichuan Cancer Hospital",
                    "status": "NOT_YET_RECRUITING",
                    "city": "Chengdu",
                    "state": "Sichuan",
                    "zip": "610000",
                    "country": "China",
                    "geoPoint": {
                        "lat": 30.66667,
                        "lon": 104.06667
                    }
                },
                {
                    "facility": "Sichuan Cancer Hospital",
                    "status": "NOT_YET_RECRUITING",
                    "city": "Chengdu",
                    "state": "Sichuan",
                    "zip": "610041",
                    "country": "China",
                    "geoPoint": {
                        "lat": 30.66667,
                        "lon": 104.06667
                    }
                },
                {
                    "facility": "Sichuan Cancer hospital",
                    "status": "RECRUITING",
                    "city": "Chengdu",
                    "state": "Sichuan",
                    "zip": "610041",
                    "country": "China",
                    "geoPoint": {
                        "lat": 30.66667,
                        "lon": 104.06667
                    }
                },
                {
                    "facility": "Zhejiang Cancer Hospital",
                    "status": "NOT_YET_RECRUITING",
                    "city": "Hangzhou",
                    "state": "Zhejiang",
                    "zip": "310022",
                    "country": "China",
                    "geoPoint": {
                        "lat": 30.29365,
                        "lon": 120.16142
                    }
                },
                {
                    "facility": "University Cancer Hospital",
                    "status": "NOT_YET_RECRUITING",
                    "city": "Beijing",
                    "zip": "100000",
                    "country": "China",
                    "geoPoint": {
                        "lat": 39.9075,
                        "lon": 116.39723
                    }
                },
                {
                    "facility": "Beijing Chest Hospital, Capital Medical University",
                    "status": "NOT_YET_RECRUITING",
                    "city": "Beijing",
                    "zip": "101149",
                    "country": "China",
                    "geoPoint": {
                        "lat": 39.9075,
                        "lon": 116.39723
                    }
                },
                {
                    "facility": "Fudan University Shanghai Cancer Center",
                    "status": "RECRUITING",
                    "city": "Shanghai",
                    "zip": "200032",
                    "country": "China",
                    "geoPoint": {
                        "lat": 31.22222,
                        "lon": 121.45806
                    }
                },
                {
                    "facility": "CHU de Rennes - H\u00f4pital Pontchaillou",
                    "status": "RECRUITING",
                    "city": "Rennes",
                    "zip": "35033",
                    "country": "France",
                    "geoPoint": {
                        "lat": 48.11198,
                        "lon": -1.67429
                    }
                },
                {
                    "facility": "Institut Gustave Roussy",
                    "status": "RECRUITING",
                    "city": "Villejuif Cedex",
                    "zip": "94805",
                    "country": "France",
                    "geoPoint": {
                        "lat": 48.7939,
                        "lon": 2.35992
                    }
                },
                {
                    "facility": "Aichi Cancer Center Hospital",
                    "status": "RECRUITING",
                    "city": "Nagoya",
                    "state": "Aichi",
                    "zip": "464-8681",
                    "country": "Japan",
                    "geoPoint": {
                        "lat": 35.18147,
                        "lon": 136.90641
                    }
                },
                {
                    "facility": "National University Hospital",
                    "status": "RECRUITING",
                    "city": "Singapore",
                    "zip": "119074",
                    "country": "Singapore",
                    "geoPoint": {
                        "lat": 1.28967,
                        "lon": 103.85007
                    }
                },
                {
                    "facility": "National Cancer Centre Singapore",
                    "status": "ACTIVE_NOT_RECRUITING",
                    "city": "Singapore",
                    "zip": "168583",
                    "country": "Singapore",
                    "geoPoint": {
                        "lat": 1.28967,
                        "lon": 103.85007
                    }
                },
                {
                    "facility": "National Cancer Centre Singapore",
                    "status": "RECRUITING",
                    "city": "Singapore",
                    "zip": "169610",
                    "country": "Singapore",
                    "geoPoint": {
                        "lat": 1.28967,
                        "lon": 103.85007
                    }
                },
                {
                    "facility": "Hospital Vall D\u00b4Hebron",
                    "status": "RECRUITING",
                    "city": "Barcelona",
                    "state": "Catalu\u00f1a",
                    "zip": "08035",
                    "country": "Spain",
                    "geoPoint": {
                        "lat": 41.38879,
                        "lon": 2.15899
                    }
                },
                {
                    "facility": "Hospital Universitari Vall d'Hebron",
                    "status": "RECRUITING",
                    "city": "Barcelona",
                    "zip": "08035",
                    "country": "Spain",
                    "geoPoint": {
                        "lat": 41.38879,
                        "lon": 2.15899
                    }
                },
                {
                    "facility": "National Taiwan University Hospital",
                    "status": "RECRUITING",
                    "city": "Taipei",
                    "zip": "10002",
                    "country": "Taiwan",
                    "geoPoint": {
                        "lat": 25.04776,
                        "lon": 121.53185
                    }
                }
            ]
        },
        "referencesModule": {
            "seeAlsoLinks": [
                {
                    "label": "To obtain contact information for a study center near you, click here.",
                    "url": "https://pmiform.com/clinical-trial-info-request?StudyID=B7461039"
                }
            ]
        },
        "ipdSharingStatementModule": {
            "ipdSharing": "YES",
            "description": "Pfizer will provide access to individual de-identified participant data and related study documents (e.g. protocol, Statistical Analysis Plan (SAP), Clinical Study Report (CSR)) upon request from qualified researchers, and subject to certain criteria, conditions, and exceptions. Further details on Pfizer's data sharing criteria and process for requesting access can be found at: https://www.pfizer.com/science/clinical_trials/trial_data_and_results/data_requests.",
            "url": "https://www.pfizer.com/science/clinical_trials/trial_data_and_results/data_requests"
        }
    },
    "derivedSection": {
        "miscInfoModule": {
            "versionHolder": "2024-07-30"
        },
        "conditionBrowseModule": {
            "meshes": [
                {
                    "id": "D000008175",
                    "term": "Lung Neoplasms"
                },
                {
                    "id": "D000002289",
                    "term": "Carcinoma, Non-Small-Cell Lung"
                }
            ],
            "ancestors": [
                {
                    "id": "D000012142",
                    "term": "Respiratory Tract Neoplasms"
                },
                {
                    "id": "D000013899",
                    "term": "Thoracic Neoplasms"
                },
                {
                    "id": "D000009371",
                    "term": "Neoplasms by Site"
                },
                {
                    "id": "D000009369",
                    "term": "Neoplasms"
                },
                {
                    "id": "D000008171",
                    "term": "Lung Diseases"
                },
                {
                    "id": "D000012140",
                    "term": "Respiratory Tract Diseases"
                },
                {
                    "id": "D000002283",
                    "term": "Carcinoma, Bronchogenic"
                },
                {
                    "id": "D000001984",
                    "term": "Bronchial Neoplasms"
                }
            ],
            "browseLeaves": [
                {
                    "id": "M5546",
                    "name": "Carcinoma, Non-Small-Cell Lung",
                    "asFound": "Non-small Cell Lung Cancer",
                    "relevance": "HIGH"
                },
                {
                    "id": "M11220",
                    "name": "Lymphoma",
                    "relevance": "LOW"
                },
                {
                    "id": "M11172",
                    "name": "Lung Neoplasms",
                    "asFound": "Lung Cancer",
                    "relevance": "HIGH"
                },
                {
                    "id": "M5534",
                    "name": "Carcinoma",
                    "relevance": "LOW"
                },
                {
                    "id": "M14979",
                    "name": "Respiratory Tract Neoplasms",
                    "relevance": "LOW"
                },
                {
                    "id": "M16658",
                    "name": "Thoracic Neoplasms",
                    "relevance": "LOW"
                },
                {
                    "id": "M11168",
                    "name": "Lung Diseases",
                    "relevance": "LOW"
                },
                {
                    "id": "M14977",
                    "name": "Respiratory Tract Diseases",
                    "relevance": "LOW"
                },
                {
                    "id": "M5540",
                    "name": "Carcinoma, Bronchogenic",
                    "relevance": "LOW"
                },
                {
                    "id": "M5260",
                    "name": "Bronchial Neoplasms",
                    "relevance": "LOW"
                },
                {
                    "id": "T3543",
                    "name": "Lymphosarcoma",
                    "relevance": "LOW"
                }
            ],
            "browseBranches": [
                {
                    "abbrev": "BC04",
                    "name": "Neoplasms"
                },
                {
                    "abbrev": "BC08",
                    "name": "Respiratory Tract (Lung and Bronchial) Diseases"
                },
                {
                    "abbrev": "All",
                    "name": "All Conditions"
                },
                {
                    "abbrev": "BC15",
                    "name": "Blood and Lymph Conditions"
                },
                {
                    "abbrev": "BC20",
                    "name": "Immune System Diseases"
                },
                {
                    "abbrev": "Rare",
                    "name": "Rare Diseases"
                }
            ]
        }
    },
    "hasResults": false
}