{
    "protocolSection": {
        "identificationModule": {
            "nctId": "NCT00144794",
            "orgStudyIdInfo": {
                "id": "DIREGC07008"
            },
            "secondaryIdInfos": [
                {
                    "id": "U1111-1294-8266",
                    "type": "REGISTRY",
                    "domain": "ICTRP"
                }
            ],
            "organization": {
                "fullName": "Sanofi",
                "class": "INDUSTRY"
            },
            "briefTitle": "Mucopolysaccharidosis I (MPS I) Registry",
            "officialTitle": "Mucopolysaccharidosis I (MPS I) Registry",
            "therapeuticArea": [
                "Other"
            ],
            "study": "mucopolysaccharidosis-i-mps-i-registry"
        },
        "statusModule": {
            "statusVerifiedDate": "2024-06",
            "overallStatus": "RECRUITING",
            "expandedAccessInfo": {
                "hasExpandedAccess": false
            },
            "startDateStruct": {
                "date": "2003-11-20",
                "type": "ACTUAL"
            },
            "primaryCompletionDateStruct": {
                "date": "2034-01-31",
                "type": "ESTIMATED"
            },
            "completionDateStruct": {
                "date": "2034-01-31",
                "type": "ESTIMATED"
            },
            "studyFirstSubmitDate": "2005-09-02",
            "studyFirstSubmitQcDate": "2005-09-02",
            "studyFirstPostDateStruct": {
                "date": "2005-09-05",
                "type": "ESTIMATED"
            },
            "lastUpdateSubmitDate": "2024-06-07",
            "lastUpdatePostDateStruct": {
                "date": "2024-06-10",
                "type": "ACTUAL"
            }
        },
        "sponsorCollaboratorsModule": {
            "responsibleParty": {
                "type": "SPONSOR"
            },
            "leadSponsor": {
                "name": "Genzyme, a Sanofi Company",
                "class": "INDUSTRY"
            }
        },
        "oversightModule": {
            "oversightHasDmc": false
        },
        "descriptionModule": {
            "briefSummary": "The Mucopolysaccharidosis I (MPS I) Registry is an ongoing, observational database that tracks the outcomes of patients with MPS I. The data collected by the MPS I Registry will provide information to better characterize the natural history and progression of MPS I as well as the clinical responses of patients receiving enzyme replacement therapy, such as Aldurazyme (Recombinant Human Alpha-L-Iduronidase), or other treatment modalities.\n\nThe objectives of the Registry are:\n\n* To evaluate the long-term effectiveness and safety of Aldurazyme\u00ae (laronidase)\n* To characterize and describe the MPS I population as a whole, including the variability, progression, and natural history of MPS I\n* To help the MPS I medical community with the development of recommendations for monitoring patients and reports on patient outcomes to optimize patient care",
            "detailedDescription": "The MPS I Registry is an international program; in addition to the central contact information provided under the \"Location\" heading, patients may contact:\n\n* In Asia-Pacific - Vivian Liu, +65-6431-2548, Vivian.liu@genzyme.com\n* In Europe - +31-35-699-1232, europe@mpsiregistry.com\n* In Latin America - +617-591-5500, help@mpsiregistry.com\n* In North America - +617-591-5500, help@mpsiregistry.com"
        },
        "conditionsModule": {
            "conditions": [
                "Mucopolysaccharidosis I (MPS I)"
            ],
            "keywords": [
                "Hurler's Syndrome",
                "Hurler-Scheie Syndrome",
                "Scheie Syndrome"
            ]
        },
        "designModule": {
            "studyType": "OBSERVATIONAL",
            "designInfo": {
                "observationalModel": "COHORT",
                "timePerspective": "OTHER"
            },
            "enrollmentInfo": {
                "count": 1500,
                "type": "ESTIMATED"
            }
        },
        "outcomesModule": {
            "primaryOutcomes": [
                {
                    "measure": "To evaluate the long-term effectiveness of Aldurazyme",
                    "timeFrame": "Approximately 17 Years"
                }
            ]
        },
        "eligibilityModule": {
            "eligibilityCriteria": "Inclusion Criteria:\n\n* All patients with a confirmed diagnosis of MPS I are eligible for inclusion. Confirmed diagnosis is defined as: A. documented biochemical evidence of a deficiency in alpha (a)-L-iduronidase enzyme activity and/or B. mutation(s) in the gene coding for a-L-iduronidase, or measurable clinical signs and symptoms of MPS I\n* For all patients there should be a completed patient authorization form\n\nExclusion Criteria:\n\n* No exclusion criteria for participation in the MPS I Registry. NOTE: Registry participation does not exclude participation in other clinical studies.",
            "healthyVolunteers": false,
            "sex": "ALL",
            "stdAges": [
                "CHILD",
                "ADULT",
                "OLDER_ADULT"
            ],
            "studyPopulation": "All Patients with MPS I",
            "samplingMethod": "PROBABILITY_SAMPLE"
        },
        "contactsLocationsModule": {
            "centralContacts": [
                {
                    "name": "For site information, send an email with site number to",
                    "role": "CONTACT",
                    "email": "Contact-Us@sanofi.com"
                },
                {
                    "name": "MPS I Registry HelpLine",
                    "role": "CONTACT",
                    "phone": "617-591-5500",
                    "email": "help@MPSIRegistry.com"
                }
            ],
            "overallOfficials": [
                {
                    "name": "Medical Monitor",
                    "affiliation": "Genzyme, a Sanofi Company",
                    "role": "STUDY_DIRECTOR"
                }
            ],
            "locations": [
                {
                    "facility": "Phoenix Children's Hospital Site Number : 840003",
                    "status": "RECRUITING",
                    "city": "Phoenix",
                    "state": "Arizona",
                    "zip": "85013",
                    "country": "United States",
                    "geoPoint": {
                        "lat": 33.44838,
                        "lon": -112.07404
                    }
                },
                {
                    "facility": "Arkansas Childrens Hospital Site Number : 840109",
                    "status": "RECRUITING",
                    "city": "Little Rock",
                    "state": "Arkansas",
                    "zip": "72202",
                    "country": "United States",
                    "geoPoint": {
                        "lat": 34.74648,
                        "lon": -92.28959
                    }
                },
                {
                    "facility": "Southern California Permanente Medical Group Site Number : 840108",
                    "status": "RECRUITING",
                    "city": "Los Angeles",
                    "state": "California",
                    "zip": "90027",
                    "country": "United States",
                    "geoPoint": {
                        "lat": 34.05223,
                        "lon": -118.24368
                    }
                },
                {
                    "facility": "USC Health Sciences Center Dept of Genetics Site Number : 840082",
                    "status": "RECRUITING",
                    "city": "Los Angeles",
                    "state": "California",
                    "zip": "90033",
                    "country": "United States",
                    "geoPoint": {
                        "lat": 34.05223,
                        "lon": -118.24368
                    }
                },
                {
                    "facility": "Children's Hospital Oakland Site Number : 840029",
                    "status": "COMPLETED",
                    "city": "Oakland",
                    "state": "California",
                    "zip": "94609",
                    "country": "United States",
                    "geoPoint": {
                        "lat": 37.80437,
                        "lon": -122.2708
                    }
                },
                {
                    "facility": "Children's Hospital of Orange County Site Number : 840074",
                    "status": "RECRUITING",
                    "city": "Orange",
                    "state": "California",
                    "zip": "92868",
                    "country": "United States",
                    "geoPoint": {
                        "lat": 33.78779,
                        "lon": -117.85311
                    }
                },
                {
                    "facility": "Stanford Unviersity MC Dept of Genetics Site Number : 840022",
                    "status": "RECRUITING",
                    "city": "Palo Alto",
                    "state": "California",
                    "zip": "94305",
                    "country": "United States",
                    "geoPoint": {
                        "lat": 37.44188,
                        "lon": -122.14302
                    }
                },
                {
                    "facility": "UC Davis MIND Institute Site Number : 840010",
                    "status": "RECRUITING",
                    "city": "Sacramento",
                    "state": "California",
                    "zip": "95817",
                    "country": "United States",
                    "geoPoint": {
                        "lat": 38.58157,
                        "lon": -121.4944
                    }
                },
                {
                    "facility": "Loma Linda University Children's Hospital Site Number : 840117",
                    "status": "RECRUITING",
                    "city": "San Bernardino",
                    "state": "California",
                    "zip": "92408",
                    "country": "United States",
                    "geoPoint": {
                        "lat": 34.10834,
                        "lon": -117.28977
                    }
                },
                {
                    "facility": "University of California at San Diego Site Number : 840007",
                    "status": "COMPLETED",
                    "city": "San Diego",
                    "state": "California",
                    "zip": "92093",
                    "country": "United States",
                    "geoPoint": {
                        "lat": 32.71533,
                        "lon": -117.15726
                    }
                },
                {
                    "facility": "University of California at San Francisco Site Number : 840051",
                    "status": "RECRUITING",
                    "city": "San Francisco",
                    "state": "California",
                    "country": "United States",
                    "geoPoint": {
                        "lat": 37.77493,
                        "lon": -122.41942
                    }
                },
                {
                    "facility": "Children's Hospital IMD Clinic Site Number : 840069",
                    "status": "COMPLETED",
                    "city": "Aurora",
                    "state": "Colorado",
                    "zip": "80045",
                    "country": "United States",
                    "geoPoint": {
                        "lat": 39.72943,
                        "lon": -104.83192
                    }
                },
                {
                    "facility": "University of Colorado at Denver Genetics Site Number : 840068",
                    "status": "RECRUITING",
                    "city": "Aurora",
                    "state": "Colorado",
                    "zip": "80045",
                    "country": "United States",
                    "geoPoint": {
                        "lat": 39.72943,
                        "lon": -104.83192
                    }
                },
                {
                    "facility": "Yale Site Number : 840047",
                    "status": "RECRUITING",
                    "city": "New Haven",
                    "state": "Connecticut",
                    "zip": "06520",
                    "country": "United States",
                    "geoPoint": {
                        "lat": 41.30815,
                        "lon": -72.92816
                    }
                },
                {
                    "facility": "Children's National Medical Center Site Number : 840067",
                    "status": "RECRUITING",
                    "city": "Washington",
                    "state": "District of Columbia",
                    "zip": "20010",
                    "country": "United States",
                    "geoPoint": {
                        "lat": 38.89511,
                        "lon": -77.03637
                    }
                },
                {
                    "facility": "University of Florida Dept of Genetics Site Number : 840083",
                    "status": "RECRUITING",
                    "city": "Gainesville",
                    "state": "Florida",
                    "zip": "32610",
                    "country": "United States",
                    "geoPoint": {
                        "lat": 29.65163,
                        "lon": -82.32483
                    }
                },
                {
                    "facility": "University of Florida Pediatrics Genetics Site Number : 840121",
                    "status": "RECRUITING",
                    "city": "Jacksonville",
                    "state": "Florida",
                    "zip": "32207",
                    "country": "United States",
                    "geoPoint": {
                        "lat": 30.33218,
                        "lon": -81.65565
                    }
                },
                {
                    "facility": "The Atwal Clinic Site Number : 840112",
                    "status": "RECRUITING",
                    "city": "Jacksonville",
                    "state": "Florida",
                    "zip": "32216",
                    "country": "United States",
                    "geoPoint": {
                        "lat": 30.33218,
                        "lon": -81.65565
                    }
                },
                {
                    "facility": "University Of Miami SOM Site Number : 840006",
                    "status": "RECRUITING",
                    "city": "Miami",
                    "state": "Florida",
                    "zip": "33136",
                    "country": "United States",
                    "geoPoint": {
                        "lat": 25.77427,
                        "lon": -80.19366
                    }
                },
                {
                    "facility": "Pediatric Endocrine Associates Site Number : 840017",
                    "status": "RECRUITING",
                    "city": "Tampa",
                    "state": "Florida",
                    "zip": "33612",
                    "country": "United States",
                    "geoPoint": {
                        "lat": 27.94752,
                        "lon": -82.45843
                    }
                },
                {
                    "facility": "Emory University School of Medicine- Human Genetics Site Number : 840060",
                    "status": "RECRUITING",
                    "city": "Decatur",
                    "state": "Georgia",
                    "zip": "30033",
                    "country": "United States",
                    "geoPoint": {
                        "lat": 33.77483,
                        "lon": -84.29631
                    }
                },
                {
                    "facility": "Ann and Robert Lurie Children's Hospital Site Number : 840011",
                    "status": "RECRUITING",
                    "city": "Chicago",
                    "state": "Illinois",
                    "zip": "60611",
                    "country": "United States",
                    "geoPoint": {
                        "lat": 41.85003,
                        "lon": -87.65005
                    }
                },
                {
                    "facility": "Rush University Medical Center Genetics Site Number : 840079",
                    "status": "RECRUITING",
                    "city": "Chicago",
                    "state": "Illinois",
                    "zip": "60612",
                    "country": "United States",
                    "geoPoint": {
                        "lat": 41.85003,
                        "lon": -87.65005
                    }
                },
                {
                    "facility": "Indianapolis University School of Medicine Site Number : 840027",
                    "status": "RECRUITING",
                    "city": "Indianapolis",
                    "state": "Indiana",
                    "zip": "46202",
                    "country": "United States",
                    "geoPoint": {
                        "lat": 39.76838,
                        "lon": -86.15804
                    }
                },
                {
                    "facility": "University of Iowa Site Number : 840032",
                    "status": "RECRUITING",
                    "city": "Iowa City",
                    "state": "Iowa",
                    "zip": "52242",
                    "country": "United States",
                    "geoPoint": {
                        "lat": 41.66113,
                        "lon": -91.53017
                    }
                },
                {
                    "facility": "University of Louisville- Genetics Site Number : 840030",
                    "status": "RECRUITING",
                    "city": "Louisville",
                    "state": "Kentucky",
                    "zip": "40202",
                    "country": "United States",
                    "geoPoint": {
                        "lat": 38.25424,
                        "lon": -85.75941
                    }
                },
                {
                    "facility": "Ochsner Medical Center Site Number : 840120",
                    "status": "RECRUITING",
                    "city": "New Orleans",
                    "state": "Louisiana",
                    "zip": "70121",
                    "country": "United States",
                    "geoPoint": {
                        "lat": 29.95465,
                        "lon": -90.07507
                    }
                },
                {
                    "facility": "John Hopkins Site Number : 840044",
                    "status": "RECRUITING",
                    "city": "Baltimore",
                    "state": "Maryland",
                    "country": "United States",
                    "geoPoint": {
                        "lat": 39.29038,
                        "lon": -76.61219
                    }
                },
                {
                    "facility": "Massachusetts General Hospital-Genetics Site Number : 840062",
                    "status": "RECRUITING",
                    "city": "Boston",
                    "state": "Massachusetts",
                    "zip": "02114",
                    "country": "United States",
                    "geoPoint": {
                        "lat": 42.35843,
                        "lon": -71.05977
                    }
                },
                {
                    "facility": "Boston Children's Hospital Site Number : 840093",
                    "status": "RECRUITING",
                    "city": "Boston",
                    "state": "Massachusetts",
                    "zip": "2115",
                    "country": "United States",
                    "geoPoint": {
                        "lat": 42.35843,
                        "lon": -71.05977
                    }
                },
                {
                    "facility": "Baystate Health Site Number : 840002",
                    "status": "RECRUITING",
                    "city": "Springfield",
                    "state": "Massachusetts",
                    "zip": "01199",
                    "country": "United States",
                    "geoPoint": {
                        "lat": 42.10148,
                        "lon": -72.58981
                    }
                },
                {
                    "facility": "University of Michigan Pediatrics Site Number : 840107",
                    "status": "RECRUITING",
                    "city": "Ann Arbor",
                    "state": "Michigan",
                    "zip": "48109",
                    "country": "United States",
                    "geoPoint": {
                        "lat": 42.27756,
                        "lon": -83.74088
                    }
                },
                {
                    "facility": "Children's Hospital of Michigan Site Number : 840066",
                    "status": "RECRUITING",
                    "city": "Detroit",
                    "state": "Michigan",
                    "zip": "48201",
                    "country": "United States",
                    "geoPoint": {
                        "lat": 42.33143,
                        "lon": -83.04575
                    }
                },
                {
                    "facility": "Children's Health Care Site Number : 840114",
                    "status": "RECRUITING",
                    "city": "Minneapolis",
                    "state": "Minnesota",
                    "zip": "55404",
                    "country": "United States",
                    "geoPoint": {
                        "lat": 44.97997,
                        "lon": -93.26384
                    }
                },
                {
                    "facility": "University of Minnesota Medical Center Pediatrics Site Number : 840076",
                    "status": "RECRUITING",
                    "city": "Minneapolis",
                    "state": "Minnesota",
                    "zip": "55455",
                    "country": "United States",
                    "geoPoint": {
                        "lat": 44.97997,
                        "lon": -93.26384
                    }
                },
                {
                    "facility": "Washington University of St. Louis Site Number : 840100",
                    "status": "RECRUITING",
                    "city": "Saint Louis",
                    "state": "Missouri",
                    "zip": "63110",
                    "country": "United States",
                    "geoPoint": {
                        "lat": 38.62727,
                        "lon": -90.19789
                    }
                },
                {
                    "facility": "University of Nebraska Medical Center- Pediatrics Site Number : 840084",
                    "status": "RECRUITING",
                    "city": "Omaha",
                    "state": "Nebraska",
                    "zip": "68198",
                    "country": "United States",
                    "geoPoint": {
                        "lat": 41.25626,
                        "lon": -95.94043
                    }
                },
                {
                    "facility": "Children's Specialty Center of Nevada Site Number : 840008",
                    "status": "RECRUITING",
                    "city": "Las Vegas",
                    "state": "Nevada",
                    "zip": "89109",
                    "country": "United States",
                    "geoPoint": {
                        "lat": 36.17497,
                        "lon": -115.13722
                    }
                },
                {
                    "facility": "Joseph M. Sanzari Children's Hospital Site Number : 840101",
                    "status": "RECRUITING",
                    "city": "Hackensack",
                    "state": "New Jersey",
                    "zip": "07601",
                    "country": "United States",
                    "geoPoint": {
                        "lat": 40.88593,
                        "lon": -74.04347
                    }
                },
                {
                    "facility": "Atlantic Health System Site Number : 840099",
                    "status": "RECRUITING",
                    "city": "Morristown",
                    "state": "New Jersey",
                    "zip": "07960",
                    "country": "United States",
                    "geoPoint": {
                        "lat": 40.79677,
                        "lon": -74.48154
                    }
                },
                {
                    "facility": "St. Peter's University Hospital Site Number : 840016",
                    "status": "RECRUITING",
                    "city": "New Brunswick",
                    "state": "New Jersey",
                    "zip": "08901",
                    "country": "United States",
                    "geoPoint": {
                        "lat": 40.48622,
                        "lon": -74.45182
                    }
                },
                {
                    "facility": "St. Joseph's Children's Hospital Site Number : 840057",
                    "status": "RECRUITING",
                    "city": "Paterson",
                    "state": "New Jersey",
                    "zip": "07503",
                    "country": "United States",
                    "geoPoint": {
                        "lat": 40.91677,
                        "lon": -74.17181
                    }
                },
                {
                    "facility": "Northwell Health Site Number : 840102",
                    "status": "RECRUITING",
                    "city": "Manhasset",
                    "state": "New York",
                    "zip": "11030",
                    "country": "United States",
                    "geoPoint": {
                        "lat": 40.79788,
                        "lon": -73.69957
                    }
                },
                {
                    "facility": "New York University School Of Medicine Site Number : 840040",
                    "status": "RECRUITING",
                    "city": "New York",
                    "state": "New York",
                    "zip": "10016",
                    "country": "United States",
                    "geoPoint": {
                        "lat": 40.71427,
                        "lon": -74.00597
                    }
                },
                {
                    "facility": "Metropolitan Hospital Center Site Number : 840110",
                    "status": "RECRUITING",
                    "city": "New York",
                    "state": "New York",
                    "zip": "10029-7494",
                    "country": "United States",
                    "geoPoint": {
                        "lat": 40.71427,
                        "lon": -74.00597
                    }
                },
                {
                    "facility": "University of Rochester Medical Center SOM Site Number : 840105",
                    "status": "RECRUITING",
                    "city": "Rochester",
                    "state": "New York",
                    "zip": "14642",
                    "country": "United States",
                    "geoPoint": {
                        "lat": 43.15478,
                        "lon": -77.61556
                    }
                },
                {
                    "facility": "State University of New York Site Number : 840052",
                    "status": "RECRUITING",
                    "city": "Syracuse",
                    "state": "New York",
                    "zip": "13210",
                    "country": "United States",
                    "geoPoint": {
                        "lat": 43.04812,
                        "lon": -76.14742
                    }
                },
                {
                    "facility": "Duke University Medical Center Genetics Dept Site Number : 840037",
                    "status": "RECRUITING",
                    "city": "Durham",
                    "state": "North Carolina",
                    "zip": "27710",
                    "country": "United States",
                    "geoPoint": {
                        "lat": 35.99403,
                        "lon": -78.89862
                    }
                },
                {
                    "facility": "Cincinnati Children's Hospital-Genetics Site Number : 840041",
                    "status": "RECRUITING",
                    "city": "Cincinnati",
                    "state": "Ohio",
                    "country": "United States",
                    "geoPoint": {
                        "lat": 39.12713,
                        "lon": -84.51435
                    }
                },
                {
                    "facility": "UHCMC Site Number : 840119",
                    "status": "RECRUITING",
                    "city": "Cleveland",
                    "state": "Ohio",
                    "zip": "44106",
                    "country": "United States",
                    "geoPoint": {
                        "lat": 41.4995,
                        "lon": -81.69541
                    }
                },
                {
                    "facility": "Nationwide Children's Hospital Site Number : 840091",
                    "status": "RECRUITING",
                    "city": "Columbus",
                    "state": "Ohio",
                    "zip": "43205-2664",
                    "country": "United States",
                    "geoPoint": {
                        "lat": 39.96118,
                        "lon": -82.99879
                    }
                },
                {
                    "facility": "LSD Data Registry Site LLC Site Number : 840094",
                    "status": "RECRUITING",
                    "city": "Dublin",
                    "state": "Ohio",
                    "zip": "43017",
                    "country": "United States",
                    "geoPoint": {
                        "lat": 40.09923,
                        "lon": -83.11408
                    }
                },
                {
                    "facility": "Oregon Health & Science University Site Number : 840080",
                    "status": "RECRUITING",
                    "city": "Portland",
                    "state": "Oregon",
                    "zip": "97239",
                    "country": "United States",
                    "geoPoint": {
                        "lat": 45.52345,
                        "lon": -122.67621
                    }
                },
                {
                    "facility": "Children's Hospital of Philadelphia HUP Medical Genetics Site Number : 840089",
                    "status": "RECRUITING",
                    "city": "Philadelphia",
                    "state": "Pennsylvania",
                    "zip": "19104",
                    "country": "United States",
                    "geoPoint": {
                        "lat": 39.95233,
                        "lon": -75.16379
                    }
                },
                {
                    "facility": "Children's Hospital of Philadelphia Site Number : 840034",
                    "status": "RECRUITING",
                    "city": "Philadelphia",
                    "state": "Pennsylvania",
                    "country": "United States",
                    "geoPoint": {
                        "lat": 39.95233,
                        "lon": -75.16379
                    }
                },
                {
                    "facility": "University of Pittsburgh Site Number : 840023",
                    "status": "RECRUITING",
                    "city": "Pittsburgh",
                    "state": "Pennsylvania",
                    "zip": "15224",
                    "country": "United States",
                    "geoPoint": {
                        "lat": 40.44062,
                        "lon": -79.99589
                    }
                },
                {
                    "facility": "Rhode Island Hospital Genetics Site Number : 840053",
                    "status": "RECRUITING",
                    "city": "Providence",
                    "state": "Rhode Island",
                    "zip": "02903",
                    "country": "United States",
                    "geoPoint": {
                        "lat": 41.82399,
                        "lon": -71.41283
                    }
                },
                {
                    "facility": "Greenwood Genetcs Site Number : 840055",
                    "status": "RECRUITING",
                    "city": "Greenville",
                    "state": "South Carolina",
                    "zip": "29605",
                    "country": "United States",
                    "geoPoint": {
                        "lat": 34.85262,
                        "lon": -82.39401
                    }
                },
                {
                    "facility": "Baylor Research Center Site Number : 840058",
                    "status": "RECRUITING",
                    "city": "Dallas",
                    "state": "Texas",
                    "zip": "75226",
                    "country": "United States",
                    "geoPoint": {
                        "lat": 32.78306,
                        "lon": -96.80667
                    }
                },
                {
                    "facility": "University of Utah Medical Center Site Number : 840092",
                    "status": "RECRUITING",
                    "city": "Salt Lake City",
                    "state": "Utah",
                    "zip": "84132",
                    "country": "United States",
                    "geoPoint": {
                        "lat": 40.76078,
                        "lon": -111.89105
                    }
                },
                {
                    "facility": "University of Virginia School of Medicine-Pediatrics Site Number : 840078",
                    "status": "RECRUITING",
                    "city": "Charlottesville",
                    "state": "Virginia",
                    "zip": "22908",
                    "country": "United States",
                    "geoPoint": {
                        "lat": 38.02931,
                        "lon": -78.47668
                    }
                },
                {
                    "facility": "Children's Hospital of the Kings Daughters Site Number : 840072",
                    "status": "RECRUITING",
                    "city": "Norfolk",
                    "state": "Virginia",
                    "zip": "23507",
                    "country": "United States",
                    "geoPoint": {
                        "lat": 36.84681,
                        "lon": -76.28522
                    }
                },
                {
                    "facility": "Seattle Children's Hospital Site Number : 840028",
                    "status": "RECRUITING",
                    "city": "Seattle",
                    "state": "Washington",
                    "zip": "98105",
                    "country": "United States",
                    "geoPoint": {
                        "lat": 47.60621,
                        "lon": -122.33207
                    }
                },
                {
                    "facility": "University Of Washington Medical Center Site Number : 840059",
                    "status": "RECRUITING",
                    "city": "Seattle",
                    "state": "Washington",
                    "zip": "98195",
                    "country": "United States",
                    "geoPoint": {
                        "lat": 47.60621,
                        "lon": -122.33207
                    }
                },
                {
                    "facility": "Multicare Health System \u00bf Mary Bridge Childrens Hospital Site Number : 840115",
                    "status": "RECRUITING",
                    "city": "Tacoma",
                    "state": "Washington",
                    "zip": "98415",
                    "country": "United States",
                    "geoPoint": {
                        "lat": 47.25288,
                        "lon": -122.44429
                    }
                },
                {
                    "facility": "Children's Hospital of Wisconsin-Pediatrics Site Number : 840054",
                    "status": "RECRUITING",
                    "city": "Milwaukee",
                    "state": "Wisconsin",
                    "zip": "53226",
                    "country": "United States",
                    "geoPoint": {
                        "lat": 43.0389,
                        "lon": -87.90647
                    }
                },
                {
                    "facility": "Investigational Site Number : 153032",
                    "status": "RECRUITING",
                    "city": "Ciudad Aut\u00f3noma de Buenos Aires",
                    "state": "Buenos Aires",
                    "zip": "1425",
                    "country": "Argentina",
                    "geoPoint": {
                        "lat": -34.61315,
                        "lon": -58.37723
                    }
                },
                {
                    "facility": "Investigational Site Number : 153130",
                    "status": "RECRUITING",
                    "city": "Buenos Aires",
                    "zip": "1629",
                    "country": "Argentina",
                    "geoPoint": {
                        "lat": -34.61315,
                        "lon": -58.37723
                    }
                },
                {
                    "facility": "Investigational Site Number : 151069",
                    "status": "RECRUITING",
                    "city": "Westmead",
                    "state": "New South Wales",
                    "zip": "2145",
                    "country": "Australia",
                    "geoPoint": {
                        "lat": -33.80383,
                        "lon": 150.98768
                    }
                },
                {
                    "facility": "Investigational Site Number : 152096",
                    "status": "RECRUITING",
                    "city": "Brisbane",
                    "state": "Queensland",
                    "zip": "4101",
                    "country": "Australia",
                    "geoPoint": {
                        "lat": -27.46794,
                        "lon": 153.02809
                    }
                },
                {
                    "facility": "Investigational Site Number : 150944",
                    "status": "RECRUITING",
                    "city": "Brussel",
                    "zip": "1090",
                    "country": "Belgium",
                    "geoPoint": {
                        "lat": 50.85045,
                        "lon": 4.34878
                    }
                },
                {
                    "facility": "Investigational Site Number : 150517",
                    "status": "RECRUITING",
                    "city": "Bruxelles",
                    "zip": "1200",
                    "country": "Belgium",
                    "geoPoint": {
                        "lat": 50.85045,
                        "lon": 4.34878
                    }
                },
                {
                    "facility": "Investigational Site Number : 151668",
                    "status": "RECRUITING",
                    "city": "Leuven",
                    "zip": "3000",
                    "country": "Belgium",
                    "geoPoint": {
                        "lat": 50.87959,
                        "lon": 4.70093
                    }
                },
                {
                    "facility": "Investigational Site Number : 154008",
                    "status": "RECRUITING",
                    "city": "Roeselare",
                    "zip": "8800",
                    "country": "Belgium",
                    "geoPoint": {
                        "lat": 50.94653,
                        "lon": 3.12269
                    }
                },
                {
                    "facility": "Centro de Pesquisa Cl\u00ednica Pr\u00e9dio 21, 2o andar Hospital de Cl\u00ednicas de Porto Alegre Site Number : 076001",
                    "status": "RECRUITING",
                    "city": "Porto Alegre",
                    "state": "Rio Grande Do Sul",
                    "zip": "90035-903",
                    "country": "Brazil",
                    "geoPoint": {
                        "lat": -30.03306,
                        "lon": -51.23
                    }
                },
                {
                    "facility": "PUC Campinas - Sociedade Campineira de Educa\u00e7ao e Instru\u00e7ao Site Number : 076007",
                    "status": "RECRUITING",
                    "city": "Campinas",
                    "state": "S\u00e3o Paulo",
                    "zip": "13059-900",
                    "country": "Brazil",
                    "geoPoint": {
                        "lat": -22.90556,
                        "lon": -47.06083
                    }
                },
                {
                    "facility": "Instituto Fernandes Figueira - FIOCRUZ Site Number : 076004",
                    "status": "RECRUITING",
                    "city": "Rio de Janeiro",
                    "zip": "22250020",
                    "country": "Brazil",
                    "geoPoint": {
                        "lat": -22.90278,
                        "lon": -43.2075
                    }
                },
                {
                    "facility": "Instituto de Gen\u00e9tica e Erros Inatos do Metabolismo - IGEIM Site Number : 076002",
                    "status": "RECRUITING",
                    "city": "S\u00e3o Paulo",
                    "zip": "04020-041",
                    "country": "Brazil",
                    "geoPoint": {
                        "lat": -23.5475,
                        "lon": -46.63611
                    }
                },
                {
                    "facility": "Investigational Site Number : 124014",
                    "status": "RECRUITING",
                    "city": "Calgary",
                    "state": "Alberta",
                    "zip": "T2M 0L6",
                    "country": "Canada",
                    "geoPoint": {
                        "lat": 51.05011,
                        "lon": -114.08529
                    }
                },
                {
                    "facility": "Investigational Site Number : 124002",
                    "status": "RECRUITING",
                    "city": "Edmonton",
                    "state": "Alberta",
                    "zip": "TG62B7",
                    "country": "Canada",
                    "geoPoint": {
                        "lat": 53.55014,
                        "lon": -113.46871
                    }
                },
                {
                    "facility": "Investigational Site Number : 124011",
                    "status": "RECRUITING",
                    "city": "Vancouver",
                    "state": "British Columbia",
                    "zip": "V6H3N1",
                    "country": "Canada",
                    "geoPoint": {
                        "lat": 49.24966,
                        "lon": -123.11934
                    }
                },
                {
                    "facility": "Investigational Site Number : 124019",
                    "status": "RECRUITING",
                    "city": "Winnipeg",
                    "state": "Manitoba",
                    "zip": "R3A1R9",
                    "country": "Canada",
                    "geoPoint": {
                        "lat": 49.8844,
                        "lon": -97.14704
                    }
                },
                {
                    "facility": "Investigational Site Number : 124022",
                    "status": "RECRUITING",
                    "city": "Moncton",
                    "state": "New Brunswick",
                    "zip": "E1C2Z3",
                    "country": "Canada",
                    "geoPoint": {
                        "lat": 46.09454,
                        "lon": -64.7965
                    }
                },
                {
                    "facility": "Investigational Site Number : 124021",
                    "status": "RECRUITING",
                    "city": "London",
                    "state": "Ontario",
                    "zip": "N6A 5W9",
                    "country": "Canada",
                    "geoPoint": {
                        "lat": 42.98339,
                        "lon": -81.23304
                    }
                },
                {
                    "facility": "Investigational Site Number : 124006",
                    "status": "RECRUITING",
                    "city": "Toronto",
                    "state": "Ontario",
                    "zip": "M5G 1X8",
                    "country": "Canada",
                    "geoPoint": {
                        "lat": 43.70011,
                        "lon": -79.4163
                    }
                },
                {
                    "facility": "Investigational Site Number : 124018",
                    "status": "RECRUITING",
                    "city": "Montreal",
                    "state": "Quebec",
                    "zip": "H4A3J1",
                    "country": "Canada",
                    "geoPoint": {
                        "lat": 45.50884,
                        "lon": -73.58781
                    }
                },
                {
                    "facility": "Investigational Site Number : 124001",
                    "status": "RECRUITING",
                    "city": "Sherbrooke",
                    "state": "Quebec",
                    "zip": "J1H5N4",
                    "country": "Canada",
                    "geoPoint": {
                        "lat": 45.40008,
                        "lon": -71.89908
                    }
                },
                {
                    "facility": "Investigational Site Number : 152003",
                    "status": "RECRUITING",
                    "city": "Los Angeles",
                    "country": "Chile",
                    "geoPoint": {
                        "lat": -37.46973,
                        "lon": -72.35366
                    }
                },
                {
                    "facility": "Investigational Site Number : 152001",
                    "status": "RECRUITING",
                    "city": "Talcahuano",
                    "country": "Chile",
                    "geoPoint": {
                        "lat": -36.72494,
                        "lon": -73.11684
                    }
                },
                {
                    "facility": "Investigational Site Number : 170001",
                    "status": "RECRUITING",
                    "city": "Bogot\u00e1",
                    "country": "Colombia",
                    "geoPoint": {
                        "lat": 4.60971,
                        "lon": -74.08175
                    }
                },
                {
                    "facility": "Investigational Site Number : 1910001",
                    "status": "RECRUITING",
                    "city": "Zagreb",
                    "zip": "10000",
                    "country": "Croatia",
                    "geoPoint": {
                        "lat": 45.81444,
                        "lon": 15.97798
                    }
                },
                {
                    "facility": "Investigational Site Number : 150659",
                    "status": "RECRUITING",
                    "city": "Praha 2",
                    "zip": "12808",
                    "country": "Czechia",
                    "geoPoint": {
                        "lat": 50.08804,
                        "lon": 14.42076
                    }
                },
                {
                    "facility": "Investigational Site Number : 151229",
                    "status": "RECRUITING",
                    "city": "K\u00f8benhavn \u00d8",
                    "zip": "2100",
                    "country": "Denmark",
                    "geoPoint": {
                        "lat": 55.67594,
                        "lon": 12.56553
                    }
                },
                {
                    "facility": "Investigational Site Number : 818002",
                    "status": "RECRUITING",
                    "city": "Cairo",
                    "zip": "12622",
                    "country": "Egypt",
                    "geoPoint": {
                        "lat": 30.06263,
                        "lon": 31.24967
                    }
                },
                {
                    "facility": "Investigational Site Number : 818001",
                    "status": "RECRUITING",
                    "city": "Cairo",
                    "country": "Egypt",
                    "geoPoint": {
                        "lat": 30.06263,
                        "lon": 31.24967
                    }
                },
                {
                    "facility": "Investigational Site Number : 250004",
                    "status": "RECRUITING",
                    "city": "Bordeaux",
                    "zip": "33000",
                    "country": "France",
                    "geoPoint": {
                        "lat": 44.84044,
                        "lon": -0.5805
                    }
                },
                {
                    "facility": "Investigational Site Number : 250001",
                    "status": "RECRUITING",
                    "city": "BRON Cedex",
                    "zip": "69677",
                    "country": "France",
                    "geoPoint": {
                        "lat": 45.73333,
                        "lon": 4.91667
                    }
                },
                {
                    "facility": "Investigational Site Number : 250002",
                    "status": "COMPLETED",
                    "city": "Marseille Cedex 05",
                    "zip": "13385",
                    "country": "France",
                    "geoPoint": {
                        "lat": 43.29551,
                        "lon": 5.38958
                    }
                },
                {
                    "facility": "Investigational Site Number : 250005",
                    "status": "RECRUITING",
                    "city": "Paris Cedex 12",
                    "zip": "75571",
                    "country": "France",
                    "geoPoint": {
                        "lat": 48.85341,
                        "lon": 2.3488
                    }
                },
                {
                    "facility": "Investigational Site Number : 250003",
                    "status": "RECRUITING",
                    "city": "Paris",
                    "zip": "75015",
                    "country": "France",
                    "geoPoint": {
                        "lat": 48.85341,
                        "lon": 2.3488
                    }
                },
                {
                    "facility": "Investigational Site Number : 250006",
                    "status": "COMPLETED",
                    "city": "Vandoeuvre Les Nancy Cedex",
                    "zip": "54511",
                    "country": "France",
                    "geoPoint": {
                        "lat": 48.65,
                        "lon": 6.18333
                    }
                },
                {
                    "facility": "Investigational Site Number : 151368",
                    "status": "RECRUITING",
                    "city": "Hamburg",
                    "zip": "20246",
                    "country": "Germany",
                    "geoPoint": {
                        "lat": 53.57532,
                        "lon": 10.01534
                    }
                },
                {
                    "facility": "Investigational Site Number : 150031",
                    "status": "RECRUITING",
                    "city": "Mainz",
                    "zip": "55131",
                    "country": "Germany",
                    "geoPoint": {
                        "lat": 49.98419,
                        "lon": 8.2791
                    }
                },
                {
                    "facility": "Investigational Site Number : 344001",
                    "status": "RECRUITING",
                    "city": "Kowloon",
                    "country": "Hong Kong",
                    "geoPoint": {
                        "lat": 22.31667,
                        "lon": 114.18333
                    }
                },
                {
                    "facility": "Investigational Site Number : 3480005",
                    "status": "RECRUITING",
                    "city": "P\u00e9cs",
                    "zip": "7623",
                    "country": "Hungary",
                    "geoPoint": {
                        "lat": 46.08333,
                        "lon": 18.23333
                    }
                },
                {
                    "facility": "Investigational Site Number : 356003",
                    "status": "RECRUITING",
                    "city": "Ahmedabad",
                    "zip": "380015",
                    "country": "India",
                    "geoPoint": {
                        "lat": 23.02579,
                        "lon": 72.58727
                    }
                },
                {
                    "facility": "Investigational Site Number : 356001",
                    "status": "RECRUITING",
                    "city": "Kolkata",
                    "zip": "700017",
                    "country": "India",
                    "geoPoint": {
                        "lat": 22.56263,
                        "lon": 88.36304
                    }
                },
                {
                    "facility": "Investigational Site Number : 3560004",
                    "status": "RECRUITING",
                    "city": "Secunderabad",
                    "zip": "500026",
                    "country": "India",
                    "geoPoint": {
                        "lat": 17.50427,
                        "lon": 78.54263
                    }
                },
                {
                    "facility": "Investigational Site Number : 356002",
                    "status": "RECRUITING",
                    "city": "Vellore",
                    "zip": "632004",
                    "country": "India",
                    "geoPoint": {
                        "lat": 12.9184,
                        "lon": 79.13255
                    }
                },
                {
                    "facility": "Investigational Site Number : 360001",
                    "status": "RECRUITING",
                    "city": "Jakarta",
                    "country": "Indonesia",
                    "geoPoint": {
                        "lat": -6.21462,
                        "lon": 106.84513
                    }
                },
                {
                    "facility": "Investigational Site Number : 154161",
                    "status": "RECRUITING",
                    "city": "Dublin",
                    "zip": "Dublin1",
                    "country": "Ireland",
                    "geoPoint": {
                        "lat": 53.33306,
                        "lon": -6.24889
                    }
                },
                {
                    "facility": "Investigational Site Number : 380002",
                    "status": "COMPLETED",
                    "city": "Ancona",
                    "zip": "60126",
                    "country": "Italy",
                    "geoPoint": {
                        "lat": 43.5942,
                        "lon": 13.50337
                    }
                },
                {
                    "facility": "Investigational Site Number : 380004",
                    "status": "RECRUITING",
                    "city": "Cusano Milanino",
                    "country": "Italy",
                    "geoPoint": {
                        "lat": 45.55187,
                        "lon": 9.18373
                    }
                },
                {
                    "facility": "Investigational Site Number : 380009",
                    "status": "RECRUITING",
                    "city": "Firenze",
                    "zip": "50141",
                    "country": "Italy",
                    "geoPoint": {
                        "lat": 43.77925,
                        "lon": 11.24626
                    }
                },
                {
                    "facility": "Investigational Site Number : 380003",
                    "status": "RECRUITING",
                    "city": "Genova",
                    "zip": "16147",
                    "country": "Italy",
                    "geoPoint": {
                        "lat": 44.40478,
                        "lon": 8.94438
                    }
                },
                {
                    "facility": "Investigational Site Number : 380007",
                    "status": "COMPLETED",
                    "city": "Milano",
                    "zip": "20142",
                    "country": "Italy",
                    "geoPoint": {
                        "lat": 45.46427,
                        "lon": 9.18951
                    }
                },
                {
                    "facility": "Investigational Site Number : 380005",
                    "status": "RECRUITING",
                    "city": "Napoli",
                    "country": "Italy",
                    "geoPoint": {
                        "lat": 40.85216,
                        "lon": 14.26811
                    }
                },
                {
                    "facility": "Investigational Site Number : 380008",
                    "status": "RECRUITING",
                    "city": "Padova",
                    "zip": "35128",
                    "country": "Italy",
                    "geoPoint": {
                        "lat": 45.40797,
                        "lon": 11.88586
                    }
                },
                {
                    "facility": "Investigational Site Number : 380006",
                    "status": "RECRUITING",
                    "city": "Roma",
                    "zip": "00165",
                    "country": "Italy",
                    "geoPoint": {
                        "lat": 41.89193,
                        "lon": 12.51133
                    }
                },
                {
                    "facility": "Investigational Site Number : 380001",
                    "status": "RECRUITING",
                    "city": "Udine",
                    "country": "Italy",
                    "geoPoint": {
                        "lat": 46.0693,
                        "lon": 13.23715
                    }
                },
                {
                    "facility": "Investigational Site Number : 392102",
                    "status": "RECRUITING",
                    "city": "Nangoku-shi",
                    "state": "Kochi",
                    "zip": "783-0043",
                    "country": "Japan",
                    "geoPoint": {
                        "lat": 40.40899,
                        "lon": 141.4541
                    }
                },
                {
                    "facility": "Investigational Site Number : 392101",
                    "status": "RECRUITING",
                    "city": "Setagaya",
                    "state": "Tokyo",
                    "zip": "157-0074",
                    "country": "Japan",
                    "geoPoint": {
                        "lat": 35.64825,
                        "lon": 139.65376
                    }
                },
                {
                    "facility": "Investigational Site Number : 154286",
                    "status": "RECRUITING",
                    "city": "Changwon-si",
                    "state": "Gyeongsangnam-do",
                    "zip": "51353",
                    "country": "Korea, Republic of"
                },
                {
                    "facility": "Investigational Site Number : 153178",
                    "status": "RECRUITING",
                    "city": "Yangsan-si",
                    "state": "Gyeongsangnam-do",
                    "zip": "50612",
                    "country": "Korea, Republic of"
                },
                {
                    "facility": "Investigational Site Number : 154148",
                    "status": "RECRUITING",
                    "city": "Yangsan",
                    "state": "Gyeongsangnam-do",
                    "zip": "50612",
                    "country": "Korea, Republic of",
                    "geoPoint": {
                        "lat": 35.34199,
                        "lon": 129.03358
                    }
                },
                {
                    "facility": "Investigational Site Number : 153191",
                    "status": "RECRUITING",
                    "city": "Daejeon",
                    "country": "Korea, Republic of",
                    "geoPoint": {
                        "lat": 36.32139,
                        "lon": 127.41972
                    }
                },
                {
                    "facility": "Investigational Site Number : 153225",
                    "status": "RECRUITING",
                    "city": "Jeonnam",
                    "country": "Korea, Republic of"
                },
                {
                    "facility": "Investigational Site Number : 153180",
                    "status": "RECRUITING",
                    "city": "Seoul",
                    "zip": "03080",
                    "country": "Korea, Republic of",
                    "geoPoint": {
                        "lat": 37.566,
                        "lon": 126.9784
                    }
                },
                {
                    "facility": "Investigational Site Number : 153196",
                    "status": "RECRUITING",
                    "city": "Seoul",
                    "zip": "03080",
                    "country": "Korea, Republic of",
                    "geoPoint": {
                        "lat": 37.566,
                        "lon": 126.9784
                    }
                },
                {
                    "facility": "Investigational Site Number : 153192",
                    "status": "RECRUITING",
                    "city": "Seoul",
                    "zip": "04401",
                    "country": "Korea, Republic of",
                    "geoPoint": {
                        "lat": 37.566,
                        "lon": 126.9784
                    }
                },
                {
                    "facility": "Investigational Site Number : 151149",
                    "status": "RECRUITING",
                    "city": "Seoul",
                    "zip": "05505",
                    "country": "Korea, Republic of",
                    "geoPoint": {
                        "lat": 37.566,
                        "lon": 126.9784
                    }
                },
                {
                    "facility": "Investigational Site Number : 153212",
                    "status": "RECRUITING",
                    "city": "Seoul",
                    "country": "Korea, Republic of",
                    "geoPoint": {
                        "lat": 37.566,
                        "lon": 126.9784
                    }
                },
                {
                    "facility": "Investigational Site Number : 153222",
                    "status": "RECRUITING",
                    "city": "Seoul",
                    "country": "Korea, Republic of",
                    "geoPoint": {
                        "lat": 37.566,
                        "lon": 126.9784
                    }
                },
                {
                    "facility": "Investigational Site Number : 154225",
                    "status": "RECRUITING",
                    "city": "Kuwait",
                    "country": "Kuwait",
                    "geoPoint": {
                        "lat": 29.36972,
                        "lon": 47.97833
                    }
                },
                {
                    "facility": "Investigational Site Number : 4220004",
                    "status": "RECRUITING",
                    "city": "Beirut",
                    "zip": "11072210",
                    "country": "Lebanon",
                    "geoPoint": {
                        "lat": 33.88894,
                        "lon": 35.49442
                    }
                },
                {
                    "facility": "Investigational Site Number : 458001",
                    "status": "RECRUITING",
                    "city": "Jalan Pahang",
                    "zip": "50586",
                    "country": "Malaysia"
                },
                {
                    "facility": "Investigational Site Number : 458002",
                    "status": "RECRUITING",
                    "city": "Kuala Lumpur",
                    "zip": "59100",
                    "country": "Malaysia",
                    "geoPoint": {
                        "lat": 3.1412,
                        "lon": 101.68653
                    }
                },
                {
                    "facility": "Investigational Site Number : 151171",
                    "status": "COMPLETED",
                    "city": "Amsterdam",
                    "country": "Netherlands",
                    "geoPoint": {
                        "lat": 52.37403,
                        "lon": 4.88969
                    }
                },
                {
                    "facility": "Investigational Site Number : 152029",
                    "status": "RECRUITING",
                    "city": "Rotterdam",
                    "zip": "3015GD",
                    "country": "Netherlands",
                    "geoPoint": {
                        "lat": 51.9225,
                        "lon": 4.47917
                    }
                },
                {
                    "facility": "Investigational Site Number : 154264",
                    "status": "RECRUITING",
                    "city": "Lahore",
                    "country": "Pakistan",
                    "geoPoint": {
                        "lat": 31.558,
                        "lon": 74.35071
                    }
                },
                {
                    "facility": "Investigational Site Number : 154266",
                    "status": "RECRUITING",
                    "city": "Lahore",
                    "country": "Pakistan",
                    "geoPoint": {
                        "lat": 31.558,
                        "lon": 74.35071
                    }
                },
                {
                    "facility": "Investigational Site Number : 608001",
                    "status": "RECRUITING",
                    "city": "Manila",
                    "zip": "1000",
                    "country": "Philippines",
                    "geoPoint": {
                        "lat": 14.6042,
                        "lon": 120.9822
                    }
                },
                {
                    "facility": "Investigational Site Number : 150575",
                    "status": "RECRUITING",
                    "city": "Warszawa",
                    "zip": "04-730",
                    "country": "Poland",
                    "geoPoint": {
                        "lat": 52.22977,
                        "lon": 21.01178
                    }
                },
                {
                    "facility": "Investigational Site Number : 6200002",
                    "status": "RECRUITING",
                    "city": "Coimbra",
                    "zip": "3000-075",
                    "country": "Portugal",
                    "geoPoint": {
                        "lat": 40.20564,
                        "lon": -8.41955
                    }
                },
                {
                    "facility": "Investigational Site Number : 154177",
                    "status": "RECRUITING",
                    "city": "Cluj Napoca",
                    "zip": "400370",
                    "country": "Romania",
                    "geoPoint": {
                        "lat": 46.76667,
                        "lon": 23.6
                    }
                },
                {
                    "facility": "Investigational Site Number : 643001",
                    "status": "RECRUITING",
                    "city": "Moscow",
                    "zip": "119571",
                    "country": "Russian Federation",
                    "geoPoint": {
                        "lat": 55.75222,
                        "lon": 37.61556
                    }
                },
                {
                    "facility": "Investigational Site Number : 643002",
                    "status": "RECRUITING",
                    "city": "Moscow",
                    "zip": "125412",
                    "country": "Russian Federation",
                    "geoPoint": {
                        "lat": 55.75222,
                        "lon": 37.61556
                    }
                },
                {
                    "facility": "Investigational Site Number : 682004",
                    "status": "RECRUITING",
                    "city": "Makkah",
                    "zip": "21955",
                    "country": "Saudi Arabia"
                },
                {
                    "facility": "Investigational Site Number : 682001",
                    "status": "RECRUITING",
                    "city": "Qatif",
                    "country": "Saudi Arabia"
                },
                {
                    "facility": "Investigational Site Number : 702001",
                    "status": "RECRUITING",
                    "city": "Singapore",
                    "zip": "229899",
                    "country": "Singapore",
                    "geoPoint": {
                        "lat": 1.28967,
                        "lon": 103.85007
                    }
                },
                {
                    "facility": "Investigational Site Number : 703001",
                    "status": "RECRUITING",
                    "city": "Bratislava",
                    "zip": "83340",
                    "country": "Slovakia",
                    "geoPoint": {
                        "lat": 48.14816,
                        "lon": 17.10674
                    }
                },
                {
                    "facility": "Investigational Site Number : 7520001",
                    "status": "RECRUITING",
                    "city": "Stockholm",
                    "zip": "17176",
                    "country": "Sweden",
                    "geoPoint": {
                        "lat": 59.33258,
                        "lon": 18.0649
                    }
                },
                {
                    "facility": "Investigational Site Number : 154093",
                    "status": "RECRUITING",
                    "city": "Chiayi",
                    "country": "Taiwan"
                },
                {
                    "facility": "Investigational Site Number : 152152",
                    "status": "RECRUITING",
                    "city": "Hualien",
                    "country": "Taiwan"
                },
                {
                    "facility": "Investigational Site Number : 152246",
                    "status": "RECRUITING",
                    "city": "Kaohsiung Hsien,",
                    "country": "Taiwan"
                },
                {
                    "facility": "Investigational Site Number : 152244",
                    "status": "RECRUITING",
                    "city": "Kaohsiung",
                    "zip": "807",
                    "country": "Taiwan",
                    "geoPoint": {
                        "lat": 22.61626,
                        "lon": 120.31333
                    }
                },
                {
                    "facility": "Investigational Site Number : 151534",
                    "status": "RECRUITING",
                    "city": "New Taipei City",
                    "zip": "23142",
                    "country": "Taiwan",
                    "geoPoint": {
                        "lat": 25.01111,
                        "lon": 121.44583
                    }
                },
                {
                    "facility": "Investigational Site Number : 151500",
                    "status": "RECRUITING",
                    "city": "Putz City, Chia-yi",
                    "country": "Taiwan"
                },
                {
                    "facility": "Investigational Site Number : 151179",
                    "status": "RECRUITING",
                    "city": "Taichung City",
                    "zip": "404",
                    "country": "Taiwan",
                    "geoPoint": {
                        "lat": 24.1469,
                        "lon": 120.6839
                    }
                },
                {
                    "facility": "Investigational Site Number : 151181",
                    "status": "RECRUITING",
                    "city": "Taichung",
                    "zip": "00407",
                    "country": "Taiwan",
                    "geoPoint": {
                        "lat": 24.1469,
                        "lon": 120.6839
                    }
                },
                {
                    "facility": "Investigational Site Number : 153248",
                    "status": "RECRUITING",
                    "city": "Tainan",
                    "zip": "70403",
                    "country": "Taiwan",
                    "geoPoint": {
                        "lat": 22.99083,
                        "lon": 120.21333
                    }
                },
                {
                    "facility": "Investigational Site Number : 152153",
                    "status": "RECRUITING",
                    "city": "Tainan",
                    "country": "Taiwan",
                    "geoPoint": {
                        "lat": 22.99083,
                        "lon": 120.21333
                    }
                },
                {
                    "facility": "Investigational Site Number : 151182",
                    "status": "RECRUITING",
                    "city": "Taipei",
                    "zip": "10041",
                    "country": "Taiwan",
                    "geoPoint": {
                        "lat": 25.04776,
                        "lon": 121.53185
                    }
                },
                {
                    "facility": "Investigational Site Number : 152321",
                    "status": "RECRUITING",
                    "city": "Taipei",
                    "zip": "10449",
                    "country": "Taiwan",
                    "geoPoint": {
                        "lat": 25.04776,
                        "lon": 121.53185
                    }
                },
                {
                    "facility": "Investigational Site Number : 153158",
                    "status": "RECRUITING",
                    "city": "Tao Yuan County",
                    "country": "Taiwan"
                },
                {
                    "facility": "Investigational Site Number : 764002",
                    "status": "COMPLETED",
                    "city": "Bangkok",
                    "zip": "10400",
                    "country": "Thailand",
                    "geoPoint": {
                        "lat": 13.75398,
                        "lon": 100.50144
                    }
                },
                {
                    "facility": "Investigational Site Number : 764003",
                    "status": "RECRUITING",
                    "city": "Bangkok",
                    "zip": "10400",
                    "country": "Thailand",
                    "geoPoint": {
                        "lat": 13.75398,
                        "lon": 100.50144
                    }
                },
                {
                    "facility": "Investigational Site Number : 764004",
                    "status": "RECRUITING",
                    "city": "Bangkok",
                    "zip": "10700",
                    "country": "Thailand",
                    "geoPoint": {
                        "lat": 13.75398,
                        "lon": 100.50144
                    }
                },
                {
                    "facility": "Investigational Site Number : 764001",
                    "status": "RECRUITING",
                    "city": "Bangkok",
                    "country": "Thailand",
                    "geoPoint": {
                        "lat": 13.75398,
                        "lon": 100.50144
                    }
                },
                {
                    "facility": "Investigational Site Number : 764005",
                    "status": "RECRUITING",
                    "city": "Khon Kaen",
                    "zip": "40002",
                    "country": "Thailand",
                    "geoPoint": {
                        "lat": 16.44671,
                        "lon": 102.833
                    }
                },
                {
                    "facility": "Investigational Site Number : 152287",
                    "status": "RECRUITING",
                    "city": "Birmingham",
                    "zip": "B152TH",
                    "country": "United Kingdom",
                    "geoPoint": {
                        "lat": 52.48142,
                        "lon": -1.89983
                    }
                },
                {
                    "facility": "Investigational Site Number : 154240",
                    "status": "RECRUITING",
                    "city": "Birmingham",
                    "zip": "B46NH",
                    "country": "United Kingdom",
                    "geoPoint": {
                        "lat": 52.48142,
                        "lon": -1.89983
                    }
                },
                {
                    "facility": "Investigational Site Number : 152156",
                    "status": "RECRUITING",
                    "city": "Glasgow",
                    "zip": "G514TF",
                    "country": "United Kingdom",
                    "geoPoint": {
                        "lat": 55.86515,
                        "lon": -4.25763
                    }
                },
                {
                    "facility": "Investigational Site Number : 151123",
                    "status": "RECRUITING",
                    "city": "London",
                    "zip": "NW32QG",
                    "country": "United Kingdom",
                    "geoPoint": {
                        "lat": 51.50853,
                        "lon": -0.12574
                    }
                },
                {
                    "facility": "Investigational Site Number : 151646",
                    "status": "RECRUITING",
                    "city": "London",
                    "zip": "WC1N3BG",
                    "country": "United Kingdom",
                    "geoPoint": {
                        "lat": 51.50853,
                        "lon": -0.12574
                    }
                },
                {
                    "facility": "Investigational Site Number : 150303",
                    "status": "RECRUITING",
                    "city": "London",
                    "zip": "WC1N3JH",
                    "country": "United Kingdom",
                    "geoPoint": {
                        "lat": 51.50853,
                        "lon": -0.12574
                    }
                },
                {
                    "facility": "Investigational Site Number : 150455",
                    "status": "RECRUITING",
                    "city": "Manchester",
                    "zip": "m139wl",
                    "country": "United Kingdom",
                    "geoPoint": {
                        "lat": 53.48095,
                        "lon": -2.23743
                    }
                },
                {
                    "facility": "Investigational Site Number : 152361",
                    "status": "RECRUITING",
                    "city": "Salford",
                    "zip": "M6 8HD",
                    "country": "United Kingdom",
                    "geoPoint": {
                        "lat": 53.48771,
                        "lon": -2.29042
                    }
                },
                {
                    "facility": "Investigational Site Number : 154212",
                    "status": "RECRUITING",
                    "city": "Hanoi",
                    "country": "Vietnam",
                    "geoPoint": {
                        "lat": 21.0245,
                        "lon": 105.84117
                    }
                },
                {
                    "facility": "Investigational Site Number : 704002",
                    "status": "RECRUITING",
                    "city": "Ho Chi Minh City",
                    "zip": "700000",
                    "country": "Vietnam",
                    "geoPoint": {
                        "lat": 10.82302,
                        "lon": 106.62965
                    }
                }
            ]
        },
        "referencesModule": {
            "references": [
                {
                    "pmid": "28892147",
                    "type": "BACKGROUND",
                    "citation": "Viskochil D, Muenzer J, Guffon N, Garin C, Munoz-Rojas MV, Moy KA, Hutchinson DT. Carpal tunnel syndrome in mucopolysaccharidosis I: a registry-based cohort study. Dev Med Child Neurol. 2017 Dec;59(12):1269-1275. doi: 10.1111/dmcn.13545. Epub 2017 Sep 11."
                },
                {
                    "pmid": "25214650",
                    "type": "BACKGROUND",
                    "citation": "Arn P, Bruce IA, Wraith JE, Travers H, Fallet S. Airway-related symptoms and surgeries in patients with mucopolysaccharidosis I. Ann Otol Rhinol Laryngol. 2015 Mar;124(3):198-205. doi: 10.1177/0003489414550154. Epub 2014 Sep 11."
                },
                {
                    "pmid": "24675674",
                    "type": "BACKGROUND",
                    "citation": "Beck M, Arn P, Giugliani R, Muenzer J, Okuyama T, Taylor J, Fallet S. The natural history of MPS I: global perspectives from the MPS I Registry. Genet Med. 2014 Oct;16(10):759-65. doi: 10.1038/gim.2014.25. Epub 2014 Mar 27."
                }
            ]
        }
    },
    "derivedSection": {
        "miscInfoModule": {
            "versionHolder": "2024-07-30",
            "removedCountries": [
                "Czech Republic",
                "United Arab Emirates"
            ]
        },
        "conditionBrowseModule": {
            "meshes": [
                {
                    "id": "D000009083",
                    "term": "Mucopolysaccharidoses"
                },
                {
                    "id": "D000008059",
                    "term": "Mucopolysaccharidosis I"
                }
            ],
            "ancestors": [
                {
                    "id": "D000002239",
                    "term": "Carbohydrate Metabolism, Inborn Errors"
                },
                {
                    "id": "D000008661",
                    "term": "Metabolism, Inborn Errors"
                },
                {
                    "id": "D000030342",
                    "term": "Genetic Diseases, Inborn"
                },
                {
                    "id": "D000016464",
                    "term": "Lysosomal Storage Diseases"
                },
                {
                    "id": "D000017520",
                    "term": "Mucinoses"
                },
                {
                    "id": "D000003240",
                    "term": "Connective Tissue Diseases"
                },
                {
                    "id": "D000008659",
                    "term": "Metabolic Diseases"
                }
            ],
            "browseLeaves": [
                {
                    "id": "M16355",
                    "name": "Syndrome",
                    "relevance": "LOW"
                },
                {
                    "id": "M12041",
                    "name": "Mucopolysaccharidoses",
                    "asFound": "Mucopolysaccharidosis",
                    "relevance": "HIGH"
                },
                {
                    "id": "M11059",
                    "name": "Mucopolysaccharidosis I",
                    "asFound": "Mucopolysaccharidosis I",
                    "relevance": "HIGH"
                },
                {
                    "id": "M11641",
                    "name": "Metabolism, Inborn Errors",
                    "relevance": "LOW"
                },
                {
                    "id": "M5498",
                    "name": "Carbohydrate Metabolism, Inborn Errors",
                    "relevance": "LOW"
                },
                {
                    "id": "M23686",
                    "name": "Genetic Diseases, Inborn",
                    "relevance": "LOW"
                },
                {
                    "id": "M18871",
                    "name": "Lysosomal Storage Diseases",
                    "relevance": "LOW"
                },
                {
                    "id": "M19781",
                    "name": "Mucinoses",
                    "relevance": "LOW"
                },
                {
                    "id": "M6464",
                    "name": "Connective Tissue Diseases",
                    "relevance": "LOW"
                },
                {
                    "id": "M11639",
                    "name": "Metabolic Diseases",
                    "relevance": "LOW"
                },
                {
                    "id": "T3901",
                    "name": "Mucopolysaccharidosis",
                    "asFound": "Mucopolysaccharidosis",
                    "relevance": "HIGH"
                },
                {
                    "id": "T3902",
                    "name": "Mucopolysaccharidosis Type I",
                    "asFound": "Mucopolysaccharidosis I",
                    "relevance": "HIGH"
                },
                {
                    "id": "T2853",
                    "name": "Hurler Syndrome",
                    "relevance": "LOW"
                },
                {
                    "id": "T5124",
                    "name": "Scheie Syndrome",
                    "relevance": "LOW"
                },
                {
                    "id": "T2854",
                    "name": "Hurler\u00e2\u20ac\u201cScheie Syndrome",
                    "relevance": "LOW"
                }
            ],
            "browseBranches": [
                {
                    "abbrev": "BC23",
                    "name": "Symptoms and General Pathology"
                },
                {
                    "abbrev": "All",
                    "name": "All Conditions"
                },
                {
                    "abbrev": "BC16",
                    "name": "Diseases and Abnormalities at or Before Birth"
                },
                {
                    "abbrev": "BC17",
                    "name": "Skin and Connective Tissue Diseases"
                },
                {
                    "abbrev": "BC18",
                    "name": "Nutritional and Metabolic Diseases"
                },
                {
                    "abbrev": "Rare",
                    "name": "Rare Diseases"
                }
            ]
        }
    },
    "hasResults": false
}