{
    "protocolSection": {
        "identificationModule": {
            "nctId": "NCT05112237",
            "orgStudyIdInfo": {
                "id": "TN-201-0003"
            },
            "organization": {
                "fullName": "Tenaya Therapeutics",
                "class": "INDUSTRY"
            },
            "briefTitle": "Natural History Study in Pediatric Patients With MYBPC3 Mutation-associated Cardiomyopathy",
            "officialTitle": "A Prospective and Retrospective Registry and Biomarker Study to Evaluate the Natural History of Pediatric Patients With Cardiomyopathy Due to MYBPC3 Mutations",
            "acronym": "MyCLIMB",
            "therapeuticArea": [
                "Cardiovascular"
            ],
            "study": "natural-history-study-in-pediatric-patients-with-mutation-associated-cardiomyopathy"
        },
        "statusModule": {
            "statusVerifiedDate": "2023-11",
            "overallStatus": "RECRUITING",
            "expandedAccessInfo": {
                "hasExpandedAccess": false
            },
            "startDateStruct": {
                "date": "2021-11-01",
                "type": "ACTUAL"
            },
            "primaryCompletionDateStruct": {
                "date": "2028-06",
                "type": "ESTIMATED"
            },
            "completionDateStruct": {
                "date": "2028-06",
                "type": "ESTIMATED"
            },
            "studyFirstSubmitDate": "2021-10-27",
            "studyFirstSubmitQcDate": "2021-10-27",
            "studyFirstPostDateStruct": {
                "date": "2021-11-08",
                "type": "ACTUAL"
            },
            "lastUpdateSubmitDate": "2023-11-13",
            "lastUpdatePostDateStruct": {
                "date": "2023-11-15",
                "type": "ACTUAL"
            }
        },
        "sponsorCollaboratorsModule": {
            "responsibleParty": {
                "type": "SPONSOR"
            },
            "leadSponsor": {
                "name": "Tenaya Therapeutics",
                "class": "INDUSTRY"
            }
        },
        "oversightModule": {
            "isFdaRegulatedDrug": false,
            "isFdaRegulatedDevice": false
        },
        "descriptionModule": {
            "briefSummary": "The objective of this study is to collect information on patients with cardiomyopathy (CM) due to mutations in the MYBPC3 gene, to evaluate their disease course, burden of illness, risk factors for this disease, and the quality of life (QoL). This study will also collect information on treatments, procedures and outcome in infants and children up to 18 yrs who have this mutation."
        },
        "conditionsModule": {
            "conditions": [
                "Cardiomyopathy"
            ],
            "keywords": [
                "Genetic Cardiomyopathy",
                "Pediatric",
                "MYBPC3",
                "Hypertrophic Cardiomyopathy (HCM)",
                "Dilated Cardiomyopathy",
                "Restrictive Cardiomyopathy",
                "Non-Compaction cardiomyopathy"
            ]
        },
        "designModule": {
            "studyType": "OBSERVATIONAL",
            "patientRegistry": false,
            "designInfo": {
                "observationalModel": "OTHER",
                "timePerspective": "OTHER"
            },
            "enrollmentInfo": {
                "count": 200,
                "type": "ESTIMATED"
            }
        },
        "armsInterventionsModule": {
            "armGroups": [
                {
                    "label": "Retrospective",
                    "description": "All patients who meet the eligibility criteria will be eligible for retrospective chart review."
                },
                {
                    "label": "Prospective",
                    "description": "100 patients meeting the eligibility criteria will be followed for 5 years, in addition to a retrospective chart review. Assessments will be completed as part of a participant's regular schedule of physician visits, no additional visits will be required. Aside from a simple annual blood draw, assessments are non-invasive, including a Quality of Life questionnaire."
                }
            ]
        },
        "outcomesModule": {
            "primaryOutcomes": [
                {
                    "measure": "To characterize the disease course and natural history in participants with pathogenic or likely pathogenic MYBPC3 mutations with a specific focus on cardiac events and measurement",
                    "timeFrame": "5 years for prospective group, n/a for retrospective group"
                }
            ]
        },
        "eligibilityModule": {
            "eligibilityCriteria": "Retrospective\n\nInclusion Criteria:\n\n* Data is available for patient \\<18 years of age. Patients must be \\<18 years of age at enrollment or at time of death.\n* Documented results of genotyping showing the presence of at least one pathogenic or likely pathogenic MYBPC3 mutation (heterozygous, homozygous, or compound heterozygous).\n\nExclusion Criteria:\n\n* Patient received cardiac transplantation or died \\>10 years before study initiation. For homozygous or biallelic infants, data may be collected beyond this 10-year period.\n\nProspective\n\nInclusion Criteria:\n\nFor Infants:\n\n* Infants who are homozygous or compound heterozygous for the known pathogenic truncating MYBPC3 mutations are eligible.\n\nFor all other participants:\n\n* Age \\<18 at entry into the prospective study.\n* Documented results of genotyping identifying at least one pathogenic or likely pathogenic MYBPC3 mutation (heterozygous, homozygous, or compound heterozygous).\n* Diagnosis of Cardiomyopathy (CM): HCM, DCM, RCM, mixed CM, or LVNC.\n\nExclusion Criteria:\n\n* Concurrent participation in an interventional clinical trial unless approved by the sponsor.\n* Severe noncardiac disease anticipated to significantly reduce life expectancy.",
            "healthyVolunteers": false,
            "sex": "ALL",
            "minimumAge": "0 Years",
            "maximumAge": "18 Years",
            "stdAges": [
                "CHILD",
                "ADULT"
            ],
            "studyPopulation": "Patients under the age of 18 years (at enrollment) with cardiomyopathy (CM) and pathogenic or likely pathogenic MYBPC3 genetic mutation",
            "samplingMethod": "NON_PROBABILITY_SAMPLE"
        },
        "contactsLocationsModule": {
            "centralContacts": [
                {
                    "name": "Laura Robertson, MD",
                    "role": "CONTACT",
                    "phone": "650-416-1186",
                    "email": "lrobertson@tenayathera.com"
                },
                {
                    "name": "LaTanya Tomlinson",
                    "role": "CONTACT",
                    "email": "clinical.trials@tenayathera.com"
                }
            ],
            "locations": [
                {
                    "facility": "Arkansas Children's Hospital",
                    "status": "RECRUITING",
                    "city": "Little Rock",
                    "state": "Arkansas",
                    "zip": "72202",
                    "country": "United States",
                    "geoPoint": {
                        "lat": 34.74648,
                        "lon": -92.28959
                    }
                },
                {
                    "facility": "Children's Hospital Los Angeles",
                    "status": "RECRUITING",
                    "city": "Los Angeles",
                    "state": "California",
                    "zip": "90027",
                    "country": "United States",
                    "geoPoint": {
                        "lat": 34.05223,
                        "lon": -118.24368
                    }
                },
                {
                    "facility": "University of California Davis Health",
                    "status": "RECRUITING",
                    "city": "Sacramento",
                    "state": "California",
                    "zip": "95817",
                    "country": "United States",
                    "geoPoint": {
                        "lat": 38.58157,
                        "lon": -121.4944
                    }
                },
                {
                    "facility": "Rady Children's Hospital - San Diego",
                    "status": "RECRUITING",
                    "city": "San Diego",
                    "state": "California",
                    "zip": "92123",
                    "country": "United States",
                    "geoPoint": {
                        "lat": 32.71533,
                        "lon": -117.15726
                    }
                },
                {
                    "facility": "University of Colorado Hospital - Anschutz Medical Campus",
                    "status": "RECRUITING",
                    "city": "Aurora",
                    "state": "Colorado",
                    "zip": "80045",
                    "country": "United States",
                    "geoPoint": {
                        "lat": 39.72943,
                        "lon": -104.83192
                    }
                },
                {
                    "facility": "Nemours Alfred I. Dupont Hospital for Children",
                    "status": "RECRUITING",
                    "city": "Wilmington",
                    "state": "Delaware",
                    "zip": "19803",
                    "country": "United States",
                    "geoPoint": {
                        "lat": 39.74595,
                        "lon": -75.54659
                    }
                },
                {
                    "facility": "Joe DiMaggio Children's Hospital",
                    "status": "RECRUITING",
                    "city": "Hollywood",
                    "state": "Florida",
                    "zip": "33021",
                    "country": "United States",
                    "geoPoint": {
                        "lat": 26.0112,
                        "lon": -80.14949
                    }
                },
                {
                    "facility": "Children's Mercy Hospital Kansas",
                    "status": "RECRUITING",
                    "city": "Kansas City",
                    "state": "Missouri",
                    "zip": "64108",
                    "country": "United States",
                    "geoPoint": {
                        "lat": 39.09973,
                        "lon": -94.57857
                    }
                },
                {
                    "facility": "St. Louis Children's Hospital",
                    "status": "RECRUITING",
                    "city": "Saint Louis",
                    "state": "Missouri",
                    "zip": "63110",
                    "country": "United States",
                    "geoPoint": {
                        "lat": 38.62727,
                        "lon": -90.19789
                    }
                },
                {
                    "facility": "Montefiore Medical Center, Albert Einstein College of Medicine",
                    "status": "RECRUITING",
                    "city": "Bronx",
                    "state": "New York",
                    "zip": "10467",
                    "country": "United States",
                    "geoPoint": {
                        "lat": 40.84985,
                        "lon": -73.86641
                    }
                },
                {
                    "facility": "Cohen Children's Medical Center",
                    "status": "RECRUITING",
                    "city": "Lake Success",
                    "state": "New York",
                    "zip": "11042",
                    "country": "United States",
                    "geoPoint": {
                        "lat": 40.77066,
                        "lon": -73.71763
                    }
                },
                {
                    "facility": "Mount Sinai",
                    "status": "RECRUITING",
                    "city": "New York",
                    "state": "New York",
                    "zip": "10029",
                    "country": "United States",
                    "geoPoint": {
                        "lat": 40.71427,
                        "lon": -74.00597
                    }
                },
                {
                    "facility": "Columbia University Irving Medical Center",
                    "status": "RECRUITING",
                    "city": "New York",
                    "state": "New York",
                    "zip": "10032",
                    "country": "United States",
                    "geoPoint": {
                        "lat": 40.71427,
                        "lon": -74.00597
                    }
                },
                {
                    "facility": "Cincinnati Children's Hospital Medical Center",
                    "status": "RECRUITING",
                    "city": "Cincinnati",
                    "state": "Ohio",
                    "zip": "45229",
                    "country": "United States",
                    "geoPoint": {
                        "lat": 39.12713,
                        "lon": -84.51435
                    }
                },
                {
                    "facility": "Cleveland Clinic Main Campus",
                    "status": "RECRUITING",
                    "city": "Cleveland",
                    "state": "Ohio",
                    "zip": "44195",
                    "country": "United States",
                    "geoPoint": {
                        "lat": 41.4995,
                        "lon": -81.69541
                    }
                },
                {
                    "facility": "DDC Clinic Center for Special Needs Children",
                    "status": "RECRUITING",
                    "city": "Middlefield",
                    "state": "Ohio",
                    "zip": "44062",
                    "country": "United States",
                    "geoPoint": {
                        "lat": 41.462,
                        "lon": -81.07371
                    }
                },
                {
                    "facility": "Cardiology Care for Children",
                    "status": "RECRUITING",
                    "city": "Lancaster",
                    "state": "Pennsylvania",
                    "zip": "17601",
                    "country": "United States",
                    "geoPoint": {
                        "lat": 40.03788,
                        "lon": -76.30551
                    }
                },
                {
                    "facility": "Children's Hospital of Philadelphia",
                    "status": "RECRUITING",
                    "city": "Philadelphia",
                    "state": "Pennsylvania",
                    "zip": "19104",
                    "country": "United States",
                    "geoPoint": {
                        "lat": 39.95233,
                        "lon": -75.16379
                    }
                },
                {
                    "facility": "University of Pittsburgh Medical Center - Children's Hospital of Pittsburgh",
                    "status": "RECRUITING",
                    "city": "Pittsburgh",
                    "state": "Pennsylvania",
                    "zip": "15224",
                    "country": "United States",
                    "geoPoint": {
                        "lat": 40.44062,
                        "lon": -79.99589
                    }
                },
                {
                    "facility": "Children's Medical Center Dallas",
                    "status": "RECRUITING",
                    "city": "Dallas",
                    "state": "Texas",
                    "zip": "75207",
                    "country": "United States",
                    "geoPoint": {
                        "lat": 32.78306,
                        "lon": -96.80667
                    }
                },
                {
                    "facility": "Texas Children's Hospital",
                    "status": "RECRUITING",
                    "city": "Houston",
                    "state": "Texas",
                    "zip": "77030",
                    "country": "United States",
                    "geoPoint": {
                        "lat": 29.76328,
                        "lon": -95.36327
                    }
                },
                {
                    "facility": "University of Alberta Hospital",
                    "status": "RECRUITING",
                    "city": "Edmonton",
                    "state": "Alberta",
                    "zip": "T6G 2B7",
                    "country": "Canada",
                    "geoPoint": {
                        "lat": 53.55014,
                        "lon": -113.46871
                    }
                },
                {
                    "facility": "The Hospital for Sick Children",
                    "status": "RECRUITING",
                    "city": "Toronto",
                    "state": "Ontario",
                    "country": "Canada",
                    "geoPoint": {
                        "lat": 43.70011,
                        "lon": -79.4163
                    }
                },
                {
                    "facility": "Hospital Sant Joan de D\u00e9u Barcelona",
                    "status": "RECRUITING",
                    "city": "Barcelona",
                    "zip": "8950",
                    "country": "Spain",
                    "geoPoint": {
                        "lat": 41.38879,
                        "lon": 2.15899
                    }
                },
                {
                    "facility": "Hospital General Universitario Gregorio Mara\u00f1\u00f3n",
                    "status": "RECRUITING",
                    "city": "Madrid",
                    "zip": "28003",
                    "country": "Spain",
                    "geoPoint": {
                        "lat": 40.4165,
                        "lon": -3.70256
                    }
                },
                {
                    "facility": "Hospital Alvaro Cunqueiro - Clinico Universitario Vigo",
                    "status": "RECRUITING",
                    "city": "Vigo",
                    "zip": "36312",
                    "country": "Spain",
                    "geoPoint": {
                        "lat": 42.23282,
                        "lon": -8.72264
                    }
                },
                {
                    "facility": "NHS Greater Glasgow and Clyde",
                    "status": "RECRUITING",
                    "city": "Glasgow",
                    "zip": "G12 0XH",
                    "country": "United Kingdom",
                    "geoPoint": {
                        "lat": 55.86515,
                        "lon": -4.25763
                    }
                },
                {
                    "facility": "Royal Brompton & Harefield NHS Foundation Trust",
                    "status": "RECRUITING",
                    "city": "London",
                    "zip": "SW3 6NP",
                    "country": "United Kingdom",
                    "geoPoint": {
                        "lat": 51.50853,
                        "lon": -0.12574
                    }
                },
                {
                    "facility": "Great Ormond Street Hospital for Children NHS Foundation Trust",
                    "status": "RECRUITING",
                    "city": "London",
                    "zip": "WC1N 3JH",
                    "country": "United Kingdom",
                    "geoPoint": {
                        "lat": 51.50853,
                        "lon": -0.12574
                    }
                }
            ]
        },
        "ipdSharingStatementModule": {
            "ipdSharing": "NO"
        }
    },
    "derivedSection": {
        "miscInfoModule": {
            "versionHolder": "2024-07-30"
        },
        "conditionBrowseModule": {
            "meshes": [
                {
                    "id": "D000009202",
                    "term": "Cardiomyopathies"
                }
            ],
            "ancestors": [
                {
                    "id": "D000006331",
                    "term": "Heart Diseases"
                },
                {
                    "id": "D000002318",
                    "term": "Cardiovascular Diseases"
                }
            ],
            "browseLeaves": [
                {
                    "id": "M12154",
                    "name": "Cardiomyopathies",
                    "asFound": "Cardiomyopathy",
                    "relevance": "HIGH"
                },
                {
                    "id": "M10035",
                    "name": "Hypertrophy",
                    "relevance": "LOW"
                },
                {
                    "id": "M5568",
                    "name": "Cardiomyopathy, Hypertrophic",
                    "relevance": "LOW"
                },
                {
                    "id": "M5567",
                    "name": "Cardiomyopathy, Dilated",
                    "relevance": "LOW"
                },
                {
                    "id": "M5569",
                    "name": "Cardiomyopathy, Restrictive",
                    "relevance": "LOW"
                },
                {
                    "id": "M9419",
                    "name": "Heart Diseases",
                    "relevance": "LOW"
                },
                {
                    "id": "T1876",
                    "name": "Dilated Cardiomyopathy",
                    "relevance": "LOW"
                }
            ],
            "browseBranches": [
                {
                    "abbrev": "BC14",
                    "name": "Heart and Blood Diseases"
                },
                {
                    "abbrev": "All",
                    "name": "All Conditions"
                },
                {
                    "abbrev": "BC23",
                    "name": "Symptoms and General Pathology"
                },
                {
                    "abbrev": "BC16",
                    "name": "Diseases and Abnormalities at or Before Birth"
                },
                {
                    "abbrev": "Rare",
                    "name": "Rare Diseases"
                }
            ]
        }
    },
    "hasResults": false
}