{
    "protocolSection": {
        "identificationModule": {
            "nctId": "NCT05550207",
            "orgStudyIdInfo": {
                "id": "AXS-07-304"
            },
            "organization": {
                "fullName": "Axsome Therapeutics, Inc.",
                "class": "INDUSTRY"
            },
            "briefTitle": "Open-Label Study of AXS-07 for the Acute Treatment of Migraine in Adults With a Prior Inadequate Response to an Oral CGRP Inhibitor (EMERGE)",
            "officialTitle": "An Open-Label, Multiple-Dose Evaluation of the Efficacy and Safety of AXS-07 (Meloxicam and Rizatriptan) for the Acute Treatment of Migraine in Adults With a Prior Inadequate Response to an Oral CGRP Inhibitor",
            "therapeuticArea": [
                "Neurology"
            ],
            "study": "open-label-study-of-axs-for-the-acute-treatment-of-migraine-in-adults-with-a-prior-inadequate-response-to-an-oral-cgrp-inhibitor-emerge"
        },
        "statusModule": {
            "statusVerifiedDate": "2024-04",
            "overallStatus": "RECRUITING",
            "expandedAccessInfo": {
                "hasExpandedAccess": false
            },
            "startDateStruct": {
                "date": "2022-08-31",
                "type": "ACTUAL"
            },
            "primaryCompletionDateStruct": {
                "date": "2024-12",
                "type": "ESTIMATED"
            },
            "completionDateStruct": {
                "date": "2024-12",
                "type": "ESTIMATED"
            },
            "studyFirstSubmitDate": "2022-09-19",
            "studyFirstSubmitQcDate": "2022-09-19",
            "studyFirstPostDateStruct": {
                "date": "2022-09-22",
                "type": "ACTUAL"
            },
            "lastUpdateSubmitDate": "2024-04-25",
            "lastUpdatePostDateStruct": {
                "date": "2024-04-26",
                "type": "ACTUAL"
            }
        },
        "sponsorCollaboratorsModule": {
            "responsibleParty": {
                "type": "SPONSOR"
            },
            "leadSponsor": {
                "name": "Axsome Therapeutics, Inc.",
                "class": "INDUSTRY"
            }
        },
        "oversightModule": {
            "isFdaRegulatedDrug": true,
            "isFdaRegulatedDevice": false
        },
        "descriptionModule": {
            "briefSummary": "This is a multicenter, open-label trial to evaluate the efficacy and safety of AXS-07 in subjects with migraine attacks and prior inadequate response to oral CGRP inhibitors.",
            "detailedDescription": "Eligible subjects will receive open-label AXS-07 for up to 8 weeks for at-home treatment of their next 4 migraine attacks."
        },
        "conditionsModule": {
            "conditions": [
                "Migraine"
            ],
            "keywords": [
                "Migraine",
                "AXS-07",
                "Meloxicam",
                "Rizatriptan",
                "Oral CGRP inhibitor"
            ]
        },
        "designModule": {
            "studyType": "INTERVENTIONAL",
            "phases": [
                "PHASE3"
            ],
            "designInfo": {
                "allocation": "NA",
                "interventionModel": "SINGLE_GROUP",
                "primaryPurpose": "TREATMENT",
                "maskingInfo": {
                    "masking": "NONE"
                }
            },
            "enrollmentInfo": {
                "count": 100,
                "type": "ESTIMATED"
            }
        },
        "armsInterventionsModule": {
            "armGroups": [
                {
                    "label": "AXS-07 (meloxicam-rizatriptan)",
                    "type": "EXPERIMENTAL",
                    "description": "Up to 8 weeks",
                    "interventionNames": [
                        "Drug: AXS-07 (meloxicam-rizatriptan)"
                    ]
                }
            ],
            "interventions": [
                {
                    "type": "DRUG",
                    "name": "AXS-07 (meloxicam-rizatriptan)",
                    "description": "AXS-07 tablets, taken orally for the acute treatment of migraine",
                    "armGroupLabels": [
                        "AXS-07 (meloxicam-rizatriptan)"
                    ]
                }
            ]
        },
        "outcomesModule": {
            "primaryOutcomes": [
                {
                    "measure": "Percentage of subjects with headache pain relief",
                    "description": "Absence of headache pain and without the use of rescue medication.",
                    "timeFrame": "Hour 2 following dose administration"
                },
                {
                    "measure": "Percentage of subjects with absence of the Most Bothersome Symptom",
                    "description": "Absence of the most bothersome symptom, defined at the onset of migraine.",
                    "timeFrame": "Hour 2 following dose administration"
                }
            ]
        },
        "eligibilityModule": {
            "eligibilityCriteria": "Inclusion Criteria:\n\n* Has an established diagnosis of migraine with or without aura\n* Has experienced an inadequate response to oral CGRP inhibitors for the acute treatment of migraine\n\nExclusion Criteria:\n\n* Pregnant, breastfeeding, or planning to become pregnant during the study\n* Has previously received any investigational drug or device or investigational therapy within 30 days before Screening",
            "healthyVolunteers": false,
            "sex": "ALL",
            "minimumAge": "18 Years",
            "stdAges": [
                "ADULT",
                "OLDER_ADULT"
            ]
        },
        "contactsLocationsModule": {
            "centralContacts": [
                {
                    "name": "Study Director",
                    "role": "CONTACT",
                    "phone": "+1 (212) 332-5061",
                    "email": "cstreicher@axsome.com"
                }
            ],
            "locations": [
                {
                    "facility": "Clinical Research Site",
                    "status": "RECRUITING",
                    "city": "Colton",
                    "state": "California",
                    "zip": "92324",
                    "country": "United States",
                    "geoPoint": {
                        "lat": 34.0739,
                        "lon": -117.31365
                    }
                },
                {
                    "facility": "Clinical Research Site",
                    "status": "RECRUITING",
                    "city": "Fullerton",
                    "state": "California",
                    "zip": "92835",
                    "country": "United States",
                    "geoPoint": {
                        "lat": 33.87029,
                        "lon": -117.92534
                    }
                },
                {
                    "facility": "Clinical Research Site",
                    "status": "RECRUITING",
                    "city": "La Jolla",
                    "state": "California",
                    "zip": "92037",
                    "country": "United States",
                    "geoPoint": {
                        "lat": 32.84727,
                        "lon": -117.2742
                    }
                },
                {
                    "facility": "Clinical Research Site",
                    "status": "RECRUITING",
                    "city": "Los Angeles",
                    "state": "California",
                    "zip": "90067",
                    "country": "United States",
                    "geoPoint": {
                        "lat": 34.05223,
                        "lon": -118.24368
                    }
                },
                {
                    "facility": "Clinical Research Site",
                    "status": "RECRUITING",
                    "city": "Sherman Oaks",
                    "state": "California",
                    "zip": "91403",
                    "country": "United States",
                    "geoPoint": {
                        "lat": 34.15112,
                        "lon": -118.44925
                    }
                },
                {
                    "facility": "Clinical Research Site",
                    "status": "RECRUITING",
                    "city": "Stamford",
                    "state": "Connecticut",
                    "zip": "06905",
                    "country": "United States",
                    "geoPoint": {
                        "lat": 41.05343,
                        "lon": -73.53873
                    }
                },
                {
                    "facility": "Clinical Research Site",
                    "status": "RECRUITING",
                    "city": "Coral Gables",
                    "state": "Florida",
                    "zip": "33134",
                    "country": "United States",
                    "geoPoint": {
                        "lat": 25.72149,
                        "lon": -80.26838
                    }
                },
                {
                    "facility": "Clinical Research Site",
                    "status": "RECRUITING",
                    "city": "DeLand",
                    "state": "Florida",
                    "zip": "32720",
                    "country": "United States",
                    "geoPoint": {
                        "lat": 29.02832,
                        "lon": -81.30312
                    }
                },
                {
                    "facility": "Clinical Research Site",
                    "status": "RECRUITING",
                    "city": "Hallandale Beach",
                    "state": "Florida",
                    "zip": "33009",
                    "country": "United States",
                    "geoPoint": {
                        "lat": 25.9812,
                        "lon": -80.14838
                    }
                },
                {
                    "facility": "Clinical Research Site",
                    "status": "RECRUITING",
                    "city": "Ormond Beach",
                    "state": "Florida",
                    "zip": "31274",
                    "country": "United States",
                    "geoPoint": {
                        "lat": 29.28581,
                        "lon": -81.05589
                    }
                },
                {
                    "facility": "Clinical Research Site",
                    "status": "RECRUITING",
                    "city": "Oviedo",
                    "state": "Florida",
                    "zip": "32765",
                    "country": "United States",
                    "geoPoint": {
                        "lat": 28.67,
                        "lon": -81.20812
                    }
                },
                {
                    "facility": "Clinical Research Site",
                    "status": "RECRUITING",
                    "city": "Pensacola",
                    "state": "Florida",
                    "zip": "32504",
                    "country": "United States",
                    "geoPoint": {
                        "lat": 30.42131,
                        "lon": -87.21691
                    }
                },
                {
                    "facility": "Clinical Research Site",
                    "status": "RECRUITING",
                    "city": "Sunrise",
                    "state": "Florida",
                    "zip": "33351",
                    "country": "United States",
                    "geoPoint": {
                        "lat": 26.13397,
                        "lon": -80.1131
                    }
                },
                {
                    "facility": "Clinical Research Site",
                    "status": "RECRUITING",
                    "city": "Winter Park",
                    "state": "Florida",
                    "zip": "32789",
                    "country": "United States",
                    "geoPoint": {
                        "lat": 28.6,
                        "lon": -81.33924
                    }
                },
                {
                    "facility": "Clinical Research Site",
                    "status": "RECRUITING",
                    "city": "Stockbridge",
                    "state": "Georgia",
                    "zip": "30281",
                    "country": "United States",
                    "geoPoint": {
                        "lat": 33.54428,
                        "lon": -84.23381
                    }
                },
                {
                    "facility": "Clinical Research Site",
                    "status": "RECRUITING",
                    "city": "Avon",
                    "state": "Indiana",
                    "zip": "46123",
                    "country": "United States",
                    "geoPoint": {
                        "lat": 39.76282,
                        "lon": -86.39972
                    }
                },
                {
                    "facility": "Clinical Research Site",
                    "status": "RECRUITING",
                    "city": "Boston",
                    "state": "Massachusetts",
                    "zip": "02131",
                    "country": "United States",
                    "geoPoint": {
                        "lat": 42.35843,
                        "lon": -71.05977
                    }
                },
                {
                    "facility": "Clinical Research Site",
                    "status": "ACTIVE_NOT_RECRUITING",
                    "city": "North Dartmouth",
                    "state": "Massachusetts",
                    "zip": "02747",
                    "country": "United States",
                    "geoPoint": {
                        "lat": 41.63899,
                        "lon": -70.97032
                    }
                },
                {
                    "facility": "Clinical Research Site",
                    "status": "RECRUITING",
                    "city": "Las Vegas",
                    "state": "Nevada",
                    "zip": "89102",
                    "country": "United States",
                    "geoPoint": {
                        "lat": 36.17497,
                        "lon": -115.13722
                    }
                },
                {
                    "facility": "Clinical Research Site",
                    "status": "RECRUITING",
                    "city": "Albuquerque",
                    "state": "New Mexico",
                    "zip": "87102",
                    "country": "United States",
                    "geoPoint": {
                        "lat": 35.08449,
                        "lon": -106.65114
                    }
                },
                {
                    "facility": "Clinical Research Site",
                    "status": "RECRUITING",
                    "city": "Bronx",
                    "state": "New York",
                    "zip": "10466",
                    "country": "United States",
                    "geoPoint": {
                        "lat": 40.84985,
                        "lon": -73.86641
                    }
                },
                {
                    "facility": "Clinical Research Site",
                    "status": "RECRUITING",
                    "city": "Williamsville",
                    "state": "New York",
                    "zip": "14221",
                    "country": "United States",
                    "geoPoint": {
                        "lat": 42.96395,
                        "lon": -78.73781
                    }
                },
                {
                    "facility": "Clinical Research Site",
                    "status": "RECRUITING",
                    "city": "High Point",
                    "state": "North Carolina",
                    "zip": "27262",
                    "country": "United States",
                    "geoPoint": {
                        "lat": 35.95569,
                        "lon": -80.00532
                    }
                },
                {
                    "facility": "Clinical Research Site",
                    "status": "RECRUITING",
                    "city": "Philadelphia",
                    "state": "Pennsylvania",
                    "zip": "19114",
                    "country": "United States",
                    "geoPoint": {
                        "lat": 39.95233,
                        "lon": -75.16379
                    }
                },
                {
                    "facility": "Clinical Research Site",
                    "status": "RECRUITING",
                    "city": "Charleston",
                    "state": "South Carolina",
                    "zip": "29406",
                    "country": "United States",
                    "geoPoint": {
                        "lat": 32.77657,
                        "lon": -79.93092
                    }
                },
                {
                    "facility": "Clinical Research Site",
                    "status": "RECRUITING",
                    "city": "Knoxville",
                    "state": "Tennessee",
                    "zip": "37909",
                    "country": "United States",
                    "geoPoint": {
                        "lat": 35.96064,
                        "lon": -83.92074
                    }
                },
                {
                    "facility": "Clinical Research Site",
                    "status": "RECRUITING",
                    "city": "Nashville",
                    "state": "Tennessee",
                    "zip": "37203",
                    "country": "United States",
                    "geoPoint": {
                        "lat": 36.16589,
                        "lon": -86.78444
                    }
                },
                {
                    "facility": "Clinical Research Site",
                    "status": "RECRUITING",
                    "city": "Cypress",
                    "state": "Texas",
                    "zip": "77429",
                    "country": "United States",
                    "geoPoint": {
                        "lat": 29.96911,
                        "lon": -95.69717
                    }
                },
                {
                    "facility": "Clinical Research Site",
                    "status": "RECRUITING",
                    "city": "Sugar Land",
                    "state": "Texas",
                    "zip": "77478",
                    "country": "United States",
                    "geoPoint": {
                        "lat": 29.61968,
                        "lon": -95.63495
                    }
                },
                {
                    "facility": "Clinical Research Site",
                    "status": "RECRUITING",
                    "city": "Salt Lake City",
                    "state": "Utah",
                    "zip": "84107",
                    "country": "United States",
                    "geoPoint": {
                        "lat": 40.76078,
                        "lon": -111.89105
                    }
                },
                {
                    "facility": "Clinical Research Site",
                    "status": "RECRUITING",
                    "city": "Charlottesville",
                    "state": "Virginia",
                    "zip": "22911",
                    "country": "United States",
                    "geoPoint": {
                        "lat": 38.02931,
                        "lon": -78.47668
                    }
                },
                {
                    "facility": "Clinical Research Site",
                    "status": "RECRUITING",
                    "city": "McLean",
                    "state": "Virginia",
                    "zip": "22101",
                    "country": "United States",
                    "geoPoint": {
                        "lat": 38.93428,
                        "lon": -77.17748
                    }
                }
            ]
        },
        "referencesModule": {
            "seeAlsoLinks": [
                {
                    "label": "EMERGE Study Website",
                    "url": "http://emerge-study.com"
                },
                {
                    "label": "Axsome Therapeutics Website",
                    "url": "http://www.axsome.com"
                }
            ]
        },
        "ipdSharingStatementModule": {
            "ipdSharing": "NO"
        }
    },
    "derivedSection": {
        "miscInfoModule": {
            "versionHolder": "2024-07-30"
        },
        "conditionBrowseModule": {
            "meshes": [
                {
                    "id": "D000008881",
                    "term": "Migraine Disorders"
                }
            ],
            "ancestors": [
                {
                    "id": "D000051270",
                    "term": "Headache Disorders, Primary"
                },
                {
                    "id": "D000020773",
                    "term": "Headache Disorders"
                },
                {
                    "id": "D000001927",
                    "term": "Brain Diseases"
                },
                {
                    "id": "D000002493",
                    "term": "Central Nervous System Diseases"
                },
                {
                    "id": "D000009422",
                    "term": "Nervous System Diseases"
                }
            ],
            "browseLeaves": [
                {
                    "id": "M11852",
                    "name": "Migraine Disorders",
                    "asFound": "Migraine",
                    "relevance": "HIGH"
                },
                {
                    "id": "M9351",
                    "name": "Headache",
                    "relevance": "LOW"
                },
                {
                    "id": "M22529",
                    "name": "Headache Disorders",
                    "relevance": "LOW"
                },
                {
                    "id": "M26657",
                    "name": "Headache Disorders, Primary",
                    "relevance": "LOW"
                },
                {
                    "id": "M5204",
                    "name": "Brain Diseases",
                    "relevance": "LOW"
                },
                {
                    "id": "M5742",
                    "name": "Central Nervous System Diseases",
                    "relevance": "LOW"
                },
                {
                    "id": "T170",
                    "name": "Acute Graft Versus Host Disease",
                    "relevance": "LOW"
                }
            ],
            "browseBranches": [
                {
                    "abbrev": "BC10",
                    "name": "Nervous System Diseases"
                },
                {
                    "abbrev": "All",
                    "name": "All Conditions"
                },
                {
                    "abbrev": "BC23",
                    "name": "Symptoms and General Pathology"
                },
                {
                    "abbrev": "Rare",
                    "name": "Rare Diseases"
                }
            ]
        },
        "interventionBrowseModule": {
            "meshes": [
                {
                    "id": "D000077239",
                    "term": "Meloxicam"
                },
                {
                    "id": "C000093622",
                    "term": "Rizatriptan"
                }
            ],
            "ancestors": [
                {
                    "id": "D000000894",
                    "term": "Anti-Inflammatory Agents, Non-Steroidal"
                },
                {
                    "id": "D000018712",
                    "term": "Analgesics, Non-Narcotic"
                },
                {
                    "id": "D000000700",
                    "term": "Analgesics"
                },
                {
                    "id": "D000018689",
                    "term": "Sensory System Agents"
                },
                {
                    "id": "D000018373",
                    "term": "Peripheral Nervous System Agents"
                },
                {
                    "id": "D000045505",
                    "term": "Physiological Effects of Drugs"
                },
                {
                    "id": "D000000893",
                    "term": "Anti-Inflammatory Agents"
                },
                {
                    "id": "D000018501",
                    "term": "Antirheumatic Agents"
                },
                {
                    "id": "D000052246",
                    "term": "Cyclooxygenase 2 Inhibitors"
                },
                {
                    "id": "D000016861",
                    "term": "Cyclooxygenase Inhibitors"
                },
                {
                    "id": "D000004791",
                    "term": "Enzyme Inhibitors"
                },
                {
                    "id": "D000045504",
                    "term": "Molecular Mechanisms of Pharmacological Action"
                },
                {
                    "id": "D000017366",
                    "term": "Serotonin Receptor Agonists"
                },
                {
                    "id": "D000018490",
                    "term": "Serotonin Agents"
                },
                {
                    "id": "D000018377",
                    "term": "Neurotransmitter Agents"
                }
            ],
            "browseLeaves": [
                {
                    "id": "M1713",
                    "name": "Meloxicam",
                    "asFound": "B12",
                    "relevance": "HIGH"
                },
                {
                    "id": "M208034",
                    "name": "Rizatriptan",
                    "asFound": "Ultrasound scan",
                    "relevance": "HIGH"
                },
                {
                    "id": "M4218",
                    "name": "Anti-Inflammatory Agents, Non-Steroidal",
                    "relevance": "LOW"
                },
                {
                    "id": "M4217",
                    "name": "Anti-Inflammatory Agents",
                    "relevance": "LOW"
                },
                {
                    "id": "M4032",
                    "name": "Analgesics",
                    "relevance": "LOW"
                },
                {
                    "id": "M20786",
                    "name": "Analgesics, Non-Narcotic",
                    "relevance": "LOW"
                },
                {
                    "id": "M20604",
                    "name": "Antirheumatic Agents",
                    "relevance": "LOW"
                },
                {
                    "id": "M27009",
                    "name": "Cyclooxygenase 2 Inhibitors",
                    "relevance": "LOW"
                },
                {
                    "id": "M19209",
                    "name": "Cyclooxygenase Inhibitors",
                    "relevance": "LOW"
                },
                {
                    "id": "M7951",
                    "name": "Enzyme Inhibitors",
                    "relevance": "LOW"
                },
                {
                    "id": "M15512",
                    "name": "Serotonin",
                    "relevance": "LOW"
                },
                {
                    "id": "M19648",
                    "name": "Serotonin Receptor Agonists",
                    "relevance": "LOW"
                },
                {
                    "id": "M20504",
                    "name": "Neurotransmitter Agents",
                    "relevance": "LOW"
                }
            ],
            "browseBranches": [
                {
                    "abbrev": "Infl",
                    "name": "Anti-Inflammatory Agents"
                },
                {
                    "abbrev": "ARhu",
                    "name": "Antirheumatic Agents"
                },
                {
                    "abbrev": "Analg",
                    "name": "Analgesics"
                },
                {
                    "abbrev": "All",
                    "name": "All Drugs and Chemicals"
                }
            ]
        }
    },
    "hasResults": false
}