{
    "protocolSection": {
        "identificationModule": {
            "nctId": "NCT05813275",
            "orgStudyIdInfo": {
                "id": "APC-APN-305"
            },
            "organization": {
                "fullName": "Apnimed",
                "class": "INDUSTRY"
            },
            "briefTitle": "Parallel-Arm Study to Compare AD109 to Placebo With Patients With OSA (SynAIRgy Study)",
            "officialTitle": "Phase 3 Randomized Double-Blind Placebo-Controlled 6-month Parallel-Arm Study to Compare a Fixed Dose Combination of Aroxybutynin/Atomoxetine (AD109) to Placebo in Obstructive Sleep Apnea (SynAIRgy Study)",
            "therapeuticArea": [
                "Other"
            ],
            "study": "parallel-arm-study-to-compare-to-placebo-with-patients-with-osa-synairgy-study"
        },
        "statusModule": {
            "statusVerifiedDate": "2024-04",
            "overallStatus": "RECRUITING",
            "startDateStruct": {
                "date": "2023-09-16",
                "type": "ACTUAL"
            },
            "primaryCompletionDateStruct": {
                "date": "2025-02",
                "type": "ESTIMATED"
            },
            "completionDateStruct": {
                "date": "2025-02",
                "type": "ESTIMATED"
            },
            "studyFirstSubmitDate": "2023-04-03",
            "studyFirstSubmitQcDate": "2023-04-13",
            "studyFirstPostDateStruct": {
                "date": "2023-04-14",
                "type": "ACTUAL"
            },
            "lastUpdateSubmitDate": "2024-07-03",
            "lastUpdatePostDateStruct": {
                "date": "2024-07-05",
                "type": "ACTUAL"
            }
        },
        "sponsorCollaboratorsModule": {
            "responsibleParty": {
                "type": "SPONSOR"
            },
            "leadSponsor": {
                "name": "Apnimed",
                "class": "INDUSTRY"
            }
        },
        "oversightModule": {
            "isFdaRegulatedDrug": true,
            "isFdaRegulatedDevice": false
        },
        "descriptionModule": {
            "briefSummary": "This is a Phase 3 Randomized Double-Blind Placebo-Controlled 6-month Parallel-Arm Study to Compare a Fixed Dose Combination of AD109 to Placebo in Obstructive Sleep Apnea."
        },
        "conditionsModule": {
            "conditions": [
                "OSA"
            ],
            "keywords": [
                "Obstructive Sleep Apnea"
            ]
        },
        "designModule": {
            "studyType": "INTERVENTIONAL",
            "phases": [
                "PHASE3"
            ],
            "designInfo": {
                "allocation": "RANDOMIZED",
                "interventionModel": "PARALLEL",
                "primaryPurpose": "TREATMENT",
                "maskingInfo": {
                    "masking": "QUADRUPLE",
                    "whoMasked": [
                        "PARTICIPANT",
                        "CARE_PROVIDER",
                        "INVESTIGATOR",
                        "OUTCOMES_ASSESSOR"
                    ]
                }
            },
            "enrollmentInfo": {
                "count": 740,
                "type": "ESTIMATED"
            }
        },
        "armsInterventionsModule": {
            "armGroups": [
                {
                    "label": "AD109",
                    "type": "EXPERIMENTAL",
                    "description": "AD109",
                    "interventionNames": [
                        "Drug: AD109"
                    ]
                },
                {
                    "label": "Placebo",
                    "type": "PLACEBO_COMPARATOR",
                    "description": "Placebo",
                    "interventionNames": [
                        "Drug: Placebo"
                    ]
                }
            ],
            "interventions": [
                {
                    "type": "DRUG",
                    "name": "AD109",
                    "description": "Oral administration at bedtime",
                    "armGroupLabels": [
                        "AD109"
                    ]
                },
                {
                    "type": "DRUG",
                    "name": "Placebo",
                    "description": "Oral administration at bedtime",
                    "armGroupLabels": [
                        "Placebo"
                    ]
                }
            ]
        },
        "outcomesModule": {
            "primaryOutcomes": [
                {
                    "measure": "Efficacy of AD109 on airway obstruction in mild to sever OSA",
                    "description": "Proportion of participants with reduction in AHI (AHI, average number of events for every hour of sleep), measured by polysomnography",
                    "timeFrame": "6 months"
                }
            ]
        },
        "eligibilityModule": {
            "eligibilityCriteria": "Inclusion Criteria:\n\n1. \u226518 years of age at the time of informed consent.\n2. PSG criteria: AHI of \u226510 and \u226445; \u2264 25% central or mixed apneas; and PLM arousal index \u226415\n3. PROMIS-Fatigue: raw score \u226517\n4. PAP intolerance or current PAP refusal.\n5. BMI between 18.5 and 40 kg/m2 for men, or 42 kg/m2 for women, inclusive.\n\nExclusion Criteria:\n\n1. Narcolepsy, restless leg syndrome, REM sleep behavior disorder\n2. Insomnia disorder characterized by difficulty initiating or maintaining sleep, or use within the past month of sedative-hypnotics or other medication for the purpose of treating or avoiding insomnia symptoms.\n3. Pierre Robin, Treacher Collins, or other craniofacial malformation syndrome, or grade \u22653 tonsillar hypertrophy.\n4. Clinically significant cardiac disease, e.g., ventricular arrhythmia, untreated or unstable coronary artery disease, cardiac failure. Stable atrial arrhythmia is allowed.\n5. Neuromuscular disorder (e.g., motor neuron disease, muscular dystrophy or myopathy, myasthenic syndrome); epilepsy; Parkinson, Alzheimer, or other neurodegenerative disease.\n\nExclusion Criteria:\n\n-",
            "healthyVolunteers": false,
            "sex": "ALL",
            "minimumAge": "18 Years",
            "stdAges": [
                "ADULT",
                "OLDER_ADULT"
            ]
        },
        "contactsLocationsModule": {
            "centralContacts": [
                {
                    "name": "Ron Farkas, MD",
                    "role": "CONTACT",
                    "phone": "6175008880",
                    "email": "Info@apnimed.com"
                },
                {
                    "name": "Luigi Taranto, MD",
                    "role": "CONTACT",
                    "email": "ltaranto@apnimed.com"
                }
            ],
            "locations": [
                {
                    "facility": "Alabama Neurology & Sleep Medicine",
                    "status": "RECRUITING",
                    "city": "Tuscaloosa",
                    "state": "Alabama",
                    "zip": "35406",
                    "country": "United States",
                    "geoPoint": {
                        "lat": 33.20984,
                        "lon": -87.56917
                    }
                },
                {
                    "facility": "Desert Clinical Research - CCT Research",
                    "status": "RECRUITING",
                    "city": "Mesa",
                    "state": "Arizona",
                    "zip": "85213",
                    "country": "United States",
                    "geoPoint": {
                        "lat": 33.42227,
                        "lon": -111.82264
                    }
                },
                {
                    "facility": "Foothills Research Center - CCT Research",
                    "status": "RECRUITING",
                    "city": "Phoenix",
                    "state": "Arizona",
                    "zip": "85044",
                    "country": "United States",
                    "geoPoint": {
                        "lat": 33.44838,
                        "lon": -112.07404
                    }
                },
                {
                    "facility": "Fiel Family Sports Medicine - PC CCT Research",
                    "status": "RECRUITING",
                    "city": "Tempe",
                    "state": "Arizona",
                    "zip": "85283",
                    "country": "United States",
                    "geoPoint": {
                        "lat": 33.41477,
                        "lon": -111.90931
                    }
                },
                {
                    "facility": "Noble Clinical Research",
                    "status": "RECRUITING",
                    "city": "Tucson",
                    "state": "Arizona",
                    "zip": "85704",
                    "country": "United States",
                    "geoPoint": {
                        "lat": 32.22174,
                        "lon": -110.92648
                    }
                },
                {
                    "facility": "Preferred Research Partners, Inc.",
                    "status": "RECRUITING",
                    "city": "Little Rock",
                    "state": "Arkansas",
                    "zip": "72211",
                    "country": "United States",
                    "geoPoint": {
                        "lat": 34.74648,
                        "lon": -92.28959
                    }
                },
                {
                    "facility": "Orange County Research Institute",
                    "status": "RECRUITING",
                    "city": "Anaheim",
                    "state": "California",
                    "zip": "92801",
                    "country": "United States",
                    "geoPoint": {
                        "lat": 33.83529,
                        "lon": -117.9145
                    }
                },
                {
                    "facility": "North County Neurology Associates",
                    "status": "RECRUITING",
                    "city": "Carlsbad",
                    "state": "California",
                    "zip": "92011",
                    "country": "United States",
                    "geoPoint": {
                        "lat": 33.15809,
                        "lon": -117.35059
                    }
                },
                {
                    "facility": "Core Healthcare Group",
                    "status": "RECRUITING",
                    "city": "Cerritos",
                    "state": "California",
                    "zip": "90703",
                    "country": "United States",
                    "geoPoint": {
                        "lat": 33.85835,
                        "lon": -118.06479
                    }
                },
                {
                    "facility": "Exalt Clinical Research",
                    "status": "RECRUITING",
                    "city": "Chula Vista",
                    "state": "California",
                    "zip": "91910",
                    "country": "United States",
                    "geoPoint": {
                        "lat": 32.64005,
                        "lon": -117.0842
                    }
                },
                {
                    "facility": "Catalina Research Institute",
                    "status": "RECRUITING",
                    "city": "Montclair",
                    "state": "California",
                    "zip": "91763",
                    "country": "United States",
                    "geoPoint": {
                        "lat": 34.07751,
                        "lon": -117.68978
                    }
                },
                {
                    "facility": "Probe Clinical Research Corporation",
                    "status": "RECRUITING",
                    "city": "Riverside",
                    "state": "California",
                    "zip": "92501",
                    "country": "United States",
                    "geoPoint": {
                        "lat": 33.95335,
                        "lon": -117.39616
                    }
                },
                {
                    "facility": "Pacific Research Network",
                    "status": "RECRUITING",
                    "city": "San Diego",
                    "state": "California",
                    "zip": "92103",
                    "country": "United States",
                    "geoPoint": {
                        "lat": 32.71533,
                        "lon": -117.15726
                    }
                },
                {
                    "facility": "Sleep Medicine Specialists of California",
                    "status": "RECRUITING",
                    "city": "San Ramon",
                    "state": "California",
                    "zip": "94583",
                    "country": "United States",
                    "geoPoint": {
                        "lat": 37.77993,
                        "lon": -121.97802
                    }
                },
                {
                    "facility": "SDS Clinical Trials Inc.",
                    "status": "RECRUITING",
                    "city": "Santa Ana",
                    "state": "California",
                    "zip": "92705",
                    "country": "United States",
                    "geoPoint": {
                        "lat": 33.74557,
                        "lon": -117.86783
                    }
                },
                {
                    "facility": "Providere' Research Incorporated",
                    "status": "RECRUITING",
                    "city": "West Covina",
                    "state": "California",
                    "zip": "91790",
                    "country": "United States",
                    "geoPoint": {
                        "lat": 34.06862,
                        "lon": -117.93895
                    }
                },
                {
                    "facility": "Meris Clinical Research",
                    "status": "RECRUITING",
                    "city": "Brandon",
                    "state": "Florida",
                    "zip": "33511",
                    "country": "United States",
                    "geoPoint": {
                        "lat": 27.9378,
                        "lon": -82.28592
                    }
                },
                {
                    "facility": "Nouvelle Clinical Research",
                    "status": "RECRUITING",
                    "city": "Cutler Bay",
                    "state": "Florida",
                    "zip": "33189",
                    "country": "United States",
                    "geoPoint": {
                        "lat": 25.5783,
                        "lon": -80.3377
                    }
                },
                {
                    "facility": "Accel Research Sites",
                    "status": "RECRUITING",
                    "city": "DeLand",
                    "state": "Florida",
                    "zip": "32720",
                    "country": "United States",
                    "geoPoint": {
                        "lat": 29.02832,
                        "lon": -81.30312
                    }
                },
                {
                    "facility": "Research Centers of America, LLC",
                    "status": "RECRUITING",
                    "city": "Hollywood",
                    "state": "Florida",
                    "zip": "33024",
                    "country": "United States",
                    "geoPoint": {
                        "lat": 26.0112,
                        "lon": -80.14949
                    }
                },
                {
                    "facility": "Canvas Clinical Research",
                    "status": "RECRUITING",
                    "city": "Lake Worth",
                    "state": "Florida",
                    "zip": "33467",
                    "country": "United States",
                    "geoPoint": {
                        "lat": 26.61708,
                        "lon": -80.07231
                    }
                },
                {
                    "facility": "Florida Lung and Sleep Associates",
                    "status": "RECRUITING",
                    "city": "Lehigh Acres",
                    "state": "Florida",
                    "zip": "33971",
                    "country": "United States",
                    "geoPoint": {
                        "lat": 26.62535,
                        "lon": -81.6248
                    }
                },
                {
                    "facility": "Advanced Medical Research Institute",
                    "status": "RECRUITING",
                    "city": "Miami",
                    "state": "Florida",
                    "zip": "33174",
                    "country": "United States",
                    "geoPoint": {
                        "lat": 25.77427,
                        "lon": -80.19366
                    }
                },
                {
                    "facility": "Clinical Site Partners",
                    "status": "RECRUITING",
                    "city": "Miami",
                    "state": "Florida",
                    "zip": "33186",
                    "country": "United States",
                    "geoPoint": {
                        "lat": 25.77427,
                        "lon": -80.19366
                    }
                },
                {
                    "facility": "Clinical Neuroscience Solutions, Inc - Orlando",
                    "status": "RECRUITING",
                    "city": "Orlando",
                    "state": "Florida",
                    "zip": "32801",
                    "country": "United States",
                    "geoPoint": {
                        "lat": 28.53834,
                        "lon": -81.37924
                    }
                },
                {
                    "facility": "JSV Clinical Research Study Inc",
                    "status": "RECRUITING",
                    "city": "Tampa",
                    "state": "Florida",
                    "zip": "33634",
                    "country": "United States",
                    "geoPoint": {
                        "lat": 27.94752,
                        "lon": -82.45843
                    }
                },
                {
                    "facility": "Florida Pediatric Research Institute",
                    "status": "RECRUITING",
                    "city": "Winter Park",
                    "state": "Florida",
                    "zip": "32789",
                    "country": "United States",
                    "geoPoint": {
                        "lat": 28.6,
                        "lon": -81.33924
                    }
                },
                {
                    "facility": "Atlanta Center for Medical Research, LLC",
                    "status": "RECRUITING",
                    "city": "Atlanta",
                    "state": "Georgia",
                    "zip": "30031",
                    "country": "United States",
                    "geoPoint": {
                        "lat": 33.749,
                        "lon": -84.38798
                    }
                },
                {
                    "facility": "NeuroTrials Research",
                    "status": "RECRUITING",
                    "city": "Atlanta",
                    "state": "Georgia",
                    "zip": "30342",
                    "country": "United States",
                    "geoPoint": {
                        "lat": 33.749,
                        "lon": -84.38798
                    }
                },
                {
                    "facility": "Georgia Neurology and Sleep Medicine Assoc",
                    "status": "RECRUITING",
                    "city": "Suwanee",
                    "state": "Georgia",
                    "zip": "30024",
                    "country": "United States",
                    "geoPoint": {
                        "lat": 34.05149,
                        "lon": -84.0713
                    }
                },
                {
                    "facility": "Javarra Inc-Privia Medical Group",
                    "status": "RECRUITING",
                    "city": "Thomasville",
                    "state": "Georgia",
                    "zip": "31792",
                    "country": "United States",
                    "geoPoint": {
                        "lat": 30.83658,
                        "lon": -83.97878
                    }
                },
                {
                    "facility": "St. Lukes Clinic - Idaho Pulmonary Associates",
                    "status": "RECRUITING",
                    "city": "Meridian",
                    "state": "Idaho",
                    "zip": "83642",
                    "country": "United States",
                    "geoPoint": {
                        "lat": 43.61211,
                        "lon": -116.39151
                    }
                },
                {
                    "facility": "Chicago Research Center Inc",
                    "status": "RECRUITING",
                    "city": "Chicago",
                    "state": "Illinois",
                    "zip": "60634",
                    "country": "United States",
                    "geoPoint": {
                        "lat": 41.85003,
                        "lon": -87.65005
                    }
                },
                {
                    "facility": "OSF HealthCare Saint Francis Medical Center",
                    "status": "RECRUITING",
                    "city": "Peoria",
                    "state": "Illinois",
                    "zip": "61637",
                    "country": "United States",
                    "geoPoint": {
                        "lat": 40.69365,
                        "lon": -89.58899
                    }
                },
                {
                    "facility": "The University of Kansas Medical Center",
                    "status": "RECRUITING",
                    "city": "Kansas City",
                    "state": "Kansas",
                    "zip": "66160",
                    "country": "United States",
                    "geoPoint": {
                        "lat": 39.11417,
                        "lon": -94.62746
                    }
                },
                {
                    "facility": "Advanced ENT and Allergy",
                    "status": "RECRUITING",
                    "city": "Louisville",
                    "state": "Kentucky",
                    "zip": "40220",
                    "country": "United States",
                    "geoPoint": {
                        "lat": 38.25424,
                        "lon": -85.75941
                    }
                },
                {
                    "facility": "Centennial Medical Group",
                    "status": "RECRUITING",
                    "city": "Elkridge",
                    "state": "Maryland",
                    "zip": "21075",
                    "country": "United States",
                    "geoPoint": {
                        "lat": 39.21261,
                        "lon": -76.71358
                    }
                },
                {
                    "facility": "Infinity Medical Research",
                    "status": "RECRUITING",
                    "city": "North Dartmouth",
                    "state": "Massachusetts",
                    "zip": "02747",
                    "country": "United States",
                    "geoPoint": {
                        "lat": 41.63899,
                        "lon": -70.97032
                    }
                },
                {
                    "facility": "University of Michigan",
                    "status": "RECRUITING",
                    "city": "Ann Arbor",
                    "state": "Michigan",
                    "zip": "48109",
                    "country": "United States",
                    "geoPoint": {
                        "lat": 42.27756,
                        "lon": -83.74088
                    }
                },
                {
                    "facility": "Revive Research Institute",
                    "status": "RECRUITING",
                    "city": "Lathrup Village",
                    "state": "Michigan",
                    "zip": "48076",
                    "country": "United States",
                    "geoPoint": {
                        "lat": 42.49642,
                        "lon": -83.22271
                    }
                },
                {
                    "facility": "Las Vegas Clinical Trials",
                    "status": "RECRUITING",
                    "city": "North Las Vegas",
                    "state": "Nevada",
                    "zip": "89030",
                    "country": "United States",
                    "geoPoint": {
                        "lat": 36.19886,
                        "lon": -115.1175
                    }
                },
                {
                    "facility": "Neurology Specialists of Monmouth County",
                    "status": "RECRUITING",
                    "city": "West Long Branch",
                    "state": "New Jersey",
                    "zip": "07764",
                    "country": "United States",
                    "geoPoint": {
                        "lat": 40.29039,
                        "lon": -74.01764
                    }
                },
                {
                    "facility": "Javara Inc - Tryon Medical Partners PLCC",
                    "status": "RECRUITING",
                    "city": "Charlotte",
                    "state": "North Carolina",
                    "zip": "28210",
                    "country": "United States",
                    "geoPoint": {
                        "lat": 35.22709,
                        "lon": -80.84313
                    }
                },
                {
                    "facility": "Research Carolina Elite",
                    "status": "RECRUITING",
                    "city": "Denver",
                    "state": "North Carolina",
                    "zip": "28025",
                    "country": "United States",
                    "geoPoint": {
                        "lat": 35.53125,
                        "lon": -81.0298
                    }
                },
                {
                    "facility": "Peters Medical Research, LLC",
                    "status": "RECRUITING",
                    "city": "High Point",
                    "state": "North Carolina",
                    "zip": "27260",
                    "country": "United States",
                    "geoPoint": {
                        "lat": 35.95569,
                        "lon": -80.00532
                    }
                },
                {
                    "facility": "PMG Research of Wilmington",
                    "status": "RECRUITING",
                    "city": "Wilmington",
                    "state": "North Carolina",
                    "zip": "28401",
                    "country": "United States",
                    "geoPoint": {
                        "lat": 34.22573,
                        "lon": -77.94471
                    }
                },
                {
                    "facility": "Lillestol Research LLC",
                    "status": "RECRUITING",
                    "city": "Fargo",
                    "state": "North Dakota",
                    "zip": "58104",
                    "country": "United States",
                    "geoPoint": {
                        "lat": 46.87719,
                        "lon": -96.7898
                    }
                },
                {
                    "facility": "CTI Clinical Research Center",
                    "status": "RECRUITING",
                    "city": "Cincinnati",
                    "state": "Ohio",
                    "zip": "45212",
                    "country": "United States",
                    "geoPoint": {
                        "lat": 39.12713,
                        "lon": -84.51435
                    }
                },
                {
                    "facility": "Sleepp Management Institute (Intrepid)",
                    "status": "RECRUITING",
                    "city": "Cincinnati",
                    "state": "Ohio",
                    "zip": "45245",
                    "country": "United States",
                    "geoPoint": {
                        "lat": 39.12713,
                        "lon": -84.51435
                    }
                },
                {
                    "facility": "UC Health Sleep Medicine",
                    "status": "RECRUITING",
                    "city": "Cincinnati",
                    "state": "Ohio",
                    "zip": "45267",
                    "country": "United States",
                    "geoPoint": {
                        "lat": 39.12713,
                        "lon": -84.51435
                    }
                },
                {
                    "facility": "University Hospital of Cleveland Medical Center",
                    "status": "RECRUITING",
                    "city": "Cleveland",
                    "state": "Ohio",
                    "zip": "44106",
                    "country": "United States",
                    "geoPoint": {
                        "lat": 41.4995,
                        "lon": -81.69541
                    }
                },
                {
                    "facility": "Abington Neurological Associate",
                    "status": "RECRUITING",
                    "city": "Abington",
                    "state": "Pennsylvania",
                    "zip": "19001",
                    "country": "United States",
                    "geoPoint": {
                        "lat": 40.12067,
                        "lon": -75.11795
                    }
                },
                {
                    "facility": "Respiratory Specialists",
                    "status": "RECRUITING",
                    "city": "Wyomissing",
                    "state": "Pennsylvania",
                    "zip": "19610",
                    "country": "United States",
                    "geoPoint": {
                        "lat": 40.32954,
                        "lon": -75.96521
                    }
                },
                {
                    "facility": "Tribe Clinical Research LL",
                    "status": "RECRUITING",
                    "city": "Greenville",
                    "state": "South Carolina",
                    "zip": "29607",
                    "country": "United States",
                    "geoPoint": {
                        "lat": 34.85262,
                        "lon": -82.39401
                    }
                },
                {
                    "facility": "OnSite Clinical Solutions LLC/Carolina Cardiology Associates P.A",
                    "status": "RECRUITING",
                    "city": "Rock Hill",
                    "state": "South Carolina",
                    "zip": "29732",
                    "country": "United States",
                    "geoPoint": {
                        "lat": 34.92487,
                        "lon": -81.02508
                    }
                },
                {
                    "facility": "Chattanooga Research & Medicine, PLLC",
                    "status": "RECRUITING",
                    "city": "Chattanooga",
                    "state": "Tennessee",
                    "zip": "37404",
                    "country": "United States",
                    "geoPoint": {
                        "lat": 35.04563,
                        "lon": -85.30968
                    }
                },
                {
                    "facility": "FutureSearch Trials of Neurology",
                    "status": "RECRUITING",
                    "city": "Austin",
                    "state": "Texas",
                    "zip": "78731",
                    "country": "United States",
                    "geoPoint": {
                        "lat": 30.26715,
                        "lon": -97.74306
                    }
                },
                {
                    "facility": "FutureSearch Trials of Dallas, LP",
                    "status": "RECRUITING",
                    "city": "Dallas",
                    "state": "Texas",
                    "zip": "75231",
                    "country": "United States",
                    "geoPoint": {
                        "lat": 32.78306,
                        "lon": -96.80667
                    }
                },
                {
                    "facility": "The Heights Hospital (HD Heights)",
                    "status": "RECRUITING",
                    "city": "Houston",
                    "state": "Texas",
                    "zip": "77008",
                    "country": "United States",
                    "geoPoint": {
                        "lat": 29.76328,
                        "lon": -95.36327
                    }
                },
                {
                    "facility": "Weill Cornell Medical College",
                    "status": "RECRUITING",
                    "city": "Houston",
                    "state": "Texas",
                    "zip": "77030",
                    "country": "United States",
                    "geoPoint": {
                        "lat": 29.76328,
                        "lon": -95.36327
                    }
                },
                {
                    "facility": "Lone Star Lung and Sleep Clinic",
                    "status": "RECRUITING",
                    "city": "Houston",
                    "state": "Texas",
                    "zip": "77070",
                    "country": "United States",
                    "geoPoint": {
                        "lat": 29.76328,
                        "lon": -95.36327
                    }
                },
                {
                    "facility": "Huntsville Research Institute LLC",
                    "status": "RECRUITING",
                    "city": "Huntsville",
                    "state": "Texas",
                    "zip": "77340",
                    "country": "United States",
                    "geoPoint": {
                        "lat": 30.72353,
                        "lon": -95.55078
                    }
                },
                {
                    "facility": "Epic Medical Research",
                    "status": "RECRUITING",
                    "city": "Red Oak",
                    "state": "Texas",
                    "zip": "75154",
                    "country": "United States",
                    "geoPoint": {
                        "lat": 32.51764,
                        "lon": -96.80444
                    }
                },
                {
                    "facility": "Element Research Group",
                    "status": "RECRUITING",
                    "city": "San Antonio",
                    "state": "Texas",
                    "zip": "78229",
                    "country": "United States",
                    "geoPoint": {
                        "lat": 29.42412,
                        "lon": -98.49363
                    }
                },
                {
                    "facility": "South Ogden Family Medicine / CCT Research",
                    "status": "RECRUITING",
                    "city": "South Ogden",
                    "state": "Utah",
                    "zip": "84405",
                    "country": "United States",
                    "geoPoint": {
                        "lat": 41.19189,
                        "lon": -111.97133
                    }
                },
                {
                    "facility": "Canadian Sleep Consultants",
                    "status": "RECRUITING",
                    "city": "Calgary",
                    "state": "Alberta",
                    "zip": "T2Z 3R6",
                    "country": "Canada",
                    "geoPoint": {
                        "lat": 51.05011,
                        "lon": -114.08529
                    }
                },
                {
                    "facility": "Medical Arts Health Research",
                    "status": "RECRUITING",
                    "city": "Kelowna",
                    "state": "British Columbia",
                    "zip": "V1Y 9N7",
                    "country": "Canada",
                    "geoPoint": {
                        "lat": 49.88307,
                        "lon": -119.48568
                    }
                },
                {
                    "facility": "AMNDX",
                    "status": "RECRUITING",
                    "city": "Markham",
                    "state": "Ontario",
                    "zip": "L3R 1A3",
                    "country": "Canada",
                    "geoPoint": {
                        "lat": 43.86682,
                        "lon": -79.2663
                    }
                },
                {
                    "facility": "West Ottawa Sleep Centre",
                    "status": "RECRUITING",
                    "city": "Ottawa",
                    "state": "Ontario",
                    "zip": "K2C 0P7",
                    "country": "Canada",
                    "geoPoint": {
                        "lat": 45.41117,
                        "lon": -75.69812
                    }
                },
                {
                    "facility": "Canadian Phase Onward Inc.",
                    "status": "RECRUITING",
                    "city": "Toronto",
                    "state": "Ontario",
                    "zip": "M3J 0K2",
                    "country": "Canada",
                    "geoPoint": {
                        "lat": 43.70011,
                        "lon": -79.4163
                    }
                },
                {
                    "facility": "Toronto Sleep Institute",
                    "status": "COMPLETED",
                    "city": "Toronto",
                    "state": "Ontario",
                    "zip": "M4P 1P2",
                    "country": "Canada",
                    "geoPoint": {
                        "lat": 43.70011,
                        "lon": -79.4163
                    }
                },
                {
                    "facility": "Sleep and Alertness Center",
                    "status": "RECRUITING",
                    "city": "Toronto",
                    "state": "Ontario",
                    "zip": "M5S 3A3",
                    "country": "Canada",
                    "geoPoint": {
                        "lat": 43.70011,
                        "lon": -79.4163
                    }
                },
                {
                    "facility": "McGill University Health Centre",
                    "status": "RECRUITING",
                    "city": "Montreal",
                    "state": "Quebec",
                    "zip": "QC H4A",
                    "country": "Canada",
                    "geoPoint": {
                        "lat": 45.50884,
                        "lon": -73.58781
                    }
                }
            ]
        }
    },
    "derivedSection": {
        "miscInfoModule": {
            "versionHolder": "2024-07-30"
        },
        "conditionBrowseModule": {
            "browseLeaves": [
                {
                    "id": "M22010",
                    "name": "Sleep Apnea, Obstructive",
                    "relevance": "LOW"
                },
                {
                    "id": "M4361",
                    "name": "Apnea",
                    "relevance": "LOW"
                },
                {
                    "id": "M15694",
                    "name": "Sleep Apnea Syndromes",
                    "relevance": "LOW"
                }
            ],
            "browseBranches": [
                {
                    "abbrev": "BC08",
                    "name": "Respiratory Tract (Lung and Bronchial) Diseases"
                },
                {
                    "abbrev": "BC10",
                    "name": "Nervous System Diseases"
                },
                {
                    "abbrev": "All",
                    "name": "All Conditions"
                },
                {
                    "abbrev": "BC23",
                    "name": "Symptoms and General Pathology"
                }
            ]
        },
        "interventionBrowseModule": {
            "browseLeaves": [
                {
                    "id": "M414",
                    "name": "Atomoxetine Hydrochloride",
                    "relevance": "LOW"
                }
            ],
            "browseBranches": [
                {
                    "abbrev": "All",
                    "name": "All Drugs and Chemicals"
                }
            ]
        }
    },
    "hasResults": false
}