{
    "protocolSection": {
        "identificationModule": {
            "nctId": "NCT01550575",
            "orgStudyIdInfo": {
                "id": "A7005"
            },
            "organization": {
                "fullName": "Boston Scientific Corporation",
                "class": "INDUSTRY"
            },
            "briefTitle": "Patient Retrospective Outcomes (PRO)",
            "officialTitle": "Patient Retrospective Outcomes (PRO)",
            "acronym": "PRO",
            "therapeuticArea": [
                "Other"
            ],
            "study": "patient-retrospective-outcomes-pro"
        },
        "statusModule": {
            "statusVerifiedDate": "2024-07",
            "overallStatus": "RECRUITING",
            "expandedAccessInfo": {
                "hasExpandedAccess": false
            },
            "startDateStruct": {
                "date": "2012-04-03",
                "type": "ACTUAL"
            },
            "primaryCompletionDateStruct": {
                "date": "2027-12",
                "type": "ESTIMATED"
            },
            "completionDateStruct": {
                "date": "2027-12",
                "type": "ESTIMATED"
            },
            "studyFirstSubmitDate": "2012-03-05",
            "studyFirstSubmitQcDate": "2012-03-07",
            "studyFirstPostDateStruct": {
                "date": "2012-03-12",
                "type": "ESTIMATED"
            },
            "lastUpdateSubmitDate": "2024-07-05",
            "lastUpdatePostDateStruct": {
                "date": "2024-07-08",
                "type": "ACTUAL"
            }
        },
        "sponsorCollaboratorsModule": {
            "responsibleParty": {
                "type": "SPONSOR"
            },
            "leadSponsor": {
                "name": "Boston Scientific Corporation",
                "class": "INDUSTRY"
            }
        },
        "oversightModule": {
            "oversightHasDmc": false
        },
        "descriptionModule": {
            "briefSummary": "This study will evaluate de-identified (anonymous) data in subject medical charts to review the clinical outcomes of various treatment approaches in the treatment of chronic pain.",
            "detailedDescription": "This study is a retrospective, multi-center, de-identified patient data review.\n\nThe study will include multiple independent cohorts to evaluate clinical outcomes in different subgroups."
        },
        "conditionsModule": {
            "conditions": [
                "Chronic Pain"
            ]
        },
        "designModule": {
            "studyType": "OBSERVATIONAL",
            "designInfo": {
                "observationalModel": "COHORT",
                "timePerspective": "RETROSPECTIVE"
            },
            "enrollmentInfo": {
                "count": 10000,
                "type": "ESTIMATED"
            }
        },
        "armsInterventionsModule": {
            "armGroups": [
                {
                    "label": "Patients eligible for SCS, RF or other treatment approaches",
                    "description": "Patients who have previously been implanted with, or are eligible for implantation with a spinal cord stimulation system or various other treatment approaches such as RF, IDS, etc.",
                    "interventionNames": [
                        "Device: Non Boston Scientific Systems",
                        "Device: Boston Scientific Systems"
                    ]
                },
                {
                    "label": "Patients Eligible for treatment options with prior treatment",
                    "description": "Patients who have previously been implanted with a spinal cord stimulation system or other various treatments, and have thereafter received a different form of chronic pain treatment such as a different SCS system, RF, IDS etc.",
                    "interventionNames": [
                        "Device: Non Boston Scientific Systems",
                        "Device: Boston Scientific Systems"
                    ]
                }
            ],
            "interventions": [
                {
                    "type": "DEVICE",
                    "name": "Non Boston Scientific Systems",
                    "description": "Spinal cord stimulation, RF, IDS etc.",
                    "armGroupLabels": [
                        "Patients Eligible for treatment options with prior treatment",
                        "Patients eligible for SCS, RF or other treatment approaches"
                    ]
                },
                {
                    "type": "DEVICE",
                    "name": "Boston Scientific Systems",
                    "description": "Spinal cord stimulation, RF, IDS etc",
                    "armGroupLabels": [
                        "Patients Eligible for treatment options with prior treatment",
                        "Patients eligible for SCS, RF or other treatment approaches"
                    ]
                }
            ]
        },
        "outcomesModule": {
            "primaryOutcomes": [
                {
                    "measure": "Responder rate",
                    "description": "Responder rate for pain relief through study completion.",
                    "timeFrame": "Through study completion, approximately two years"
                }
            ]
        },
        "eligibilityModule": {
            "eligibilityCriteria": "Key Inclusion Criteria:\n\n* Previously treated with or eligible for use with Boston Scientific Systems\n* 18 years of age or older at the start of Baseline",
            "healthyVolunteers": false,
            "sex": "ALL",
            "minimumAge": "18 Years",
            "stdAges": [
                "ADULT",
                "OLDER_ADULT"
            ],
            "studyPopulation": "Subjects who have previously been implanted with, or who are candidates for implantation with a spinal cord stimulation system or other various treatment approaches, such as radio frequency ablation or indirect decompression system (IDS).",
            "samplingMethod": "NON_PROBABILITY_SAMPLE"
        },
        "contactsLocationsModule": {
            "centralContacts": [
                {
                    "name": "Alison Lewis",
                    "role": "CONTACT",
                    "phone": "855-213-9890",
                    "email": "BSNClinicalTrials@bsci.com"
                },
                {
                    "name": "Cleo Mertz",
                    "role": "CONTACT",
                    "phone": "855-213-9890",
                    "email": "BSNClinicalTrials@bsci.com"
                }
            ],
            "overallOfficials": [
                {
                    "name": "Natalie Bloom Lyons",
                    "affiliation": "Boston Scientific Neuromodulation Corporation",
                    "role": "STUDY_DIRECTOR"
                }
            ],
            "locations": [
                {
                    "facility": "Lakeside Spine & Pain",
                    "status": "RECRUITING",
                    "city": "Lake Havasu City",
                    "state": "Arizona",
                    "zip": "86403",
                    "country": "United States",
                    "contacts": [
                        {
                            "name": "Boston Scientific Clinical Research",
                            "role": "CONTACT",
                            "phone": "855-213-9890",
                            "email": "BSNClinicalTrials@bsci.com"
                        }
                    ],
                    "geoPoint": {
                        "lat": 34.4839,
                        "lon": -114.32245
                    }
                },
                {
                    "facility": "Hope Research Institute",
                    "status": "COMPLETED",
                    "city": "Phoenix",
                    "state": "Arizona",
                    "zip": "85018",
                    "country": "United States",
                    "geoPoint": {
                        "lat": 33.44838,
                        "lon": -112.07404
                    }
                },
                {
                    "facility": "Kern Neuroscience Institute",
                    "status": "COMPLETED",
                    "city": "Bakersfield",
                    "state": "California",
                    "zip": "93306",
                    "country": "United States",
                    "geoPoint": {
                        "lat": 35.37329,
                        "lon": -119.01871
                    }
                },
                {
                    "facility": "Pain Consultants of San Diego",
                    "status": "COMPLETED",
                    "city": "Chula Vista",
                    "state": "California",
                    "zip": "91914",
                    "country": "United States",
                    "geoPoint": {
                        "lat": 32.64005,
                        "lon": -117.0842
                    }
                },
                {
                    "facility": "Pain Medicine Associates, Inc.",
                    "status": "WITHDRAWN",
                    "city": "Fountain Valley",
                    "state": "California",
                    "zip": "92708",
                    "country": "United States",
                    "geoPoint": {
                        "lat": 33.70918,
                        "lon": -117.95367
                    }
                },
                {
                    "facility": "UCSD Medical Center - Jacobs Medical Center",
                    "status": "COMPLETED",
                    "city": "La Jolla",
                    "state": "California",
                    "zip": "92037",
                    "country": "United States",
                    "geoPoint": {
                        "lat": 32.84727,
                        "lon": -117.2742
                    }
                },
                {
                    "facility": "California Orthopedics & Spine",
                    "status": "COMPLETED",
                    "city": "Larkspur",
                    "state": "California",
                    "zip": "94939",
                    "country": "United States",
                    "geoPoint": {
                        "lat": 37.93409,
                        "lon": -122.53525
                    }
                },
                {
                    "facility": "Newport Beach Headache and Pain",
                    "status": "COMPLETED",
                    "city": "Newport Beach",
                    "state": "California",
                    "zip": "92660",
                    "country": "United States",
                    "geoPoint": {
                        "lat": 33.61891,
                        "lon": -117.92895
                    }
                },
                {
                    "facility": "Vitamed Research",
                    "status": "COMPLETED",
                    "city": "Rancho Mirage",
                    "state": "California",
                    "zip": "92270",
                    "country": "United States",
                    "geoPoint": {
                        "lat": 33.73974,
                        "lon": -116.41279
                    }
                },
                {
                    "facility": "Pacific Pain Management, Inc.",
                    "status": "COMPLETED",
                    "city": "Ventura",
                    "state": "California",
                    "zip": "93003",
                    "country": "United States",
                    "geoPoint": {
                        "lat": 34.27834,
                        "lon": -119.29317
                    }
                },
                {
                    "facility": "IPM Medical Group Inc.",
                    "status": "COMPLETED",
                    "city": "Walnut Creek",
                    "state": "California",
                    "zip": "94598",
                    "country": "United States",
                    "geoPoint": {
                        "lat": 37.90631,
                        "lon": -122.06496
                    }
                },
                {
                    "facility": "Barolat Neuroscience",
                    "status": "COMPLETED",
                    "city": "Denver",
                    "state": "Colorado",
                    "zip": "80218",
                    "country": "United States",
                    "geoPoint": {
                        "lat": 39.73915,
                        "lon": -104.9847
                    }
                },
                {
                    "facility": "Advanced Diagnostic Pain Treatment Centers",
                    "status": "COMPLETED",
                    "city": "New Haven",
                    "state": "Connecticut",
                    "zip": "06511",
                    "country": "United States",
                    "geoPoint": {
                        "lat": 41.30815,
                        "lon": -72.92816
                    }
                },
                {
                    "facility": "South Lake Pain Institute, Inc",
                    "status": "RECRUITING",
                    "city": "Clermont",
                    "state": "Florida",
                    "zip": "34711",
                    "country": "United States",
                    "contacts": [
                        {
                            "name": "Boston Scientific Clinical Research Manager",
                            "role": "CONTACT",
                            "phone": "855-213-9890",
                            "email": "BSNClinicalTrials@bsci.com"
                        }
                    ],
                    "geoPoint": {
                        "lat": 28.54944,
                        "lon": -81.77285
                    }
                },
                {
                    "facility": "Florida Spine Specialists",
                    "status": "COMPLETED",
                    "city": "Fort Lauderdale",
                    "state": "Florida",
                    "zip": "33308",
                    "country": "United States",
                    "geoPoint": {
                        "lat": 26.12231,
                        "lon": -80.14338
                    }
                },
                {
                    "facility": "Louis J. Raso, MD, PA",
                    "status": "RECRUITING",
                    "city": "Jupiter",
                    "state": "Florida",
                    "zip": "33477",
                    "country": "United States",
                    "contacts": [
                        {
                            "name": "Boston Scientific Clinical Research Manager",
                            "role": "CONTACT",
                            "phone": "855-213-9890",
                            "email": "BSNClinicalTrials@bsci.com"
                        }
                    ],
                    "geoPoint": {
                        "lat": 26.93422,
                        "lon": -80.09421
                    }
                },
                {
                    "facility": "Florida Pain Institute",
                    "status": "COMPLETED",
                    "city": "Merritt Island",
                    "state": "Florida",
                    "zip": "32953",
                    "country": "United States",
                    "geoPoint": {
                        "lat": 28.53917,
                        "lon": -80.672
                    }
                },
                {
                    "facility": "Advanced Interventional Pain Management and Research Clinic, Inc.",
                    "status": "COMPLETED",
                    "city": "Miami Gardens",
                    "state": "Florida",
                    "zip": "33169",
                    "country": "United States",
                    "geoPoint": {
                        "lat": 25.94298,
                        "lon": -80.24452
                    }
                },
                {
                    "facility": "Florida Pain Clinic",
                    "status": "RECRUITING",
                    "city": "Ocala",
                    "state": "Florida",
                    "zip": "34471",
                    "country": "United States",
                    "contacts": [
                        {
                            "name": "Boston Scientific Clinical Research Manager",
                            "role": "CONTACT",
                            "phone": "855-213-9890",
                            "email": "BSNClinicalTrials@bsci.com"
                        }
                    ],
                    "geoPoint": {
                        "lat": 29.1872,
                        "lon": -82.14009
                    }
                },
                {
                    "facility": "Orthomicrospine",
                    "status": "COMPLETED",
                    "city": "Pensacola",
                    "state": "Florida",
                    "zip": "32503",
                    "country": "United States",
                    "geoPoint": {
                        "lat": 30.42131,
                        "lon": -87.21691
                    }
                },
                {
                    "facility": "HCA Florida West Orthopedic Specialists",
                    "status": "RECRUITING",
                    "city": "Pensacola",
                    "state": "Florida",
                    "zip": "32514",
                    "country": "United States",
                    "contacts": [
                        {
                            "name": "Boston Scientific Clinical Research",
                            "role": "CONTACT",
                            "phone": "855-213-9890",
                            "email": "BSNClinicalTrials@bsci.com"
                        }
                    ],
                    "geoPoint": {
                        "lat": 30.42131,
                        "lon": -87.21691
                    }
                },
                {
                    "facility": "West Florida Orthopedics and Spine Surgery",
                    "status": "COMPLETED",
                    "city": "Pensacola",
                    "state": "Florida",
                    "zip": "32514",
                    "country": "United States",
                    "geoPoint": {
                        "lat": 30.42131,
                        "lon": -87.21691
                    }
                },
                {
                    "facility": "Interventional Spine and Pain Institute",
                    "status": "RECRUITING",
                    "city": "Vero Beach",
                    "state": "Florida",
                    "zip": "32960",
                    "country": "United States",
                    "contacts": [
                        {
                            "name": "Boston Scientific Clinical Research",
                            "role": "CONTACT",
                            "phone": "855-213-9890",
                            "email": "BSNClinicalTrials@bsci.com"
                        }
                    ],
                    "geoPoint": {
                        "lat": 27.63864,
                        "lon": -80.39727
                    }
                },
                {
                    "facility": "Orthopedic Research Foundation",
                    "status": "WITHDRAWN",
                    "city": "Savannah",
                    "state": "Georgia",
                    "zip": "31405",
                    "country": "United States",
                    "geoPoint": {
                        "lat": 32.08354,
                        "lon": -81.09983
                    }
                },
                {
                    "facility": "Centurion Spine and Pain",
                    "status": "COMPLETED",
                    "city": "Waycross",
                    "state": "Georgia",
                    "zip": "31522",
                    "country": "United States",
                    "geoPoint": {
                        "lat": 31.21368,
                        "lon": -82.3557
                    }
                },
                {
                    "facility": "Tripler Army Medical Center",
                    "status": "COMPLETED",
                    "city": "Honolulu",
                    "state": "Hawaii",
                    "zip": "96859",
                    "country": "United States",
                    "geoPoint": {
                        "lat": 21.30694,
                        "lon": -157.85833
                    }
                },
                {
                    "facility": "Pain and Spine Specialists of Idaho",
                    "status": "RECRUITING",
                    "city": "Idaho Falls",
                    "state": "Idaho",
                    "zip": "83404",
                    "country": "United States",
                    "contacts": [
                        {
                            "name": "Boston Scientific Clinical Research Manager",
                            "role": "CONTACT",
                            "phone": "855-213-9890",
                            "email": "BSNClinicalTrials@bsci.com"
                        }
                    ],
                    "geoPoint": {
                        "lat": 43.46658,
                        "lon": -112.03414
                    }
                },
                {
                    "facility": "North Idaho Day Surgery",
                    "status": "COMPLETED",
                    "city": "Post Falls",
                    "state": "Idaho",
                    "zip": "83854",
                    "country": "United States",
                    "geoPoint": {
                        "lat": 47.71796,
                        "lon": -116.95159
                    }
                },
                {
                    "facility": "Northwestern Memorial Hospital",
                    "status": "COMPLETED",
                    "city": "Chicago",
                    "state": "Illinois",
                    "zip": "60611",
                    "country": "United States",
                    "geoPoint": {
                        "lat": 41.85003,
                        "lon": -87.65005
                    }
                },
                {
                    "facility": "Summit Research Institute",
                    "status": "COMPLETED",
                    "city": "Fort Wayne",
                    "state": "Indiana",
                    "zip": "46825",
                    "country": "United States",
                    "geoPoint": {
                        "lat": 41.1306,
                        "lon": -85.12886
                    }
                },
                {
                    "facility": "Henry Community Health",
                    "status": "RECRUITING",
                    "city": "New Castle",
                    "state": "Indiana",
                    "zip": "47362",
                    "country": "United States",
                    "contacts": [
                        {
                            "name": "Boston Scientific Clinical Research",
                            "role": "CONTACT",
                            "phone": "855-213-9890",
                            "email": "BSNClinicalTrials@bsci.com"
                        }
                    ],
                    "geoPoint": {
                        "lat": 39.92894,
                        "lon": -85.37025
                    }
                },
                {
                    "facility": "Precision Spine Care",
                    "status": "COMPLETED",
                    "city": "Overland Park",
                    "state": "Kansas",
                    "zip": "66211",
                    "country": "United States",
                    "geoPoint": {
                        "lat": 38.98223,
                        "lon": -94.67079
                    }
                },
                {
                    "facility": "Willis-Knighton River Cities Clinical Research Center",
                    "status": "RECRUITING",
                    "city": "Shreveport",
                    "state": "Louisiana",
                    "zip": "71105",
                    "country": "United States",
                    "contacts": [
                        {
                            "name": "Boston Scientific Clinical Research Manager",
                            "role": "CONTACT",
                            "phone": "855-213-9890",
                            "email": "BSNClinicalTrials@bsci.com"
                        }
                    ],
                    "geoPoint": {
                        "lat": 32.52515,
                        "lon": -93.75018
                    }
                },
                {
                    "facility": "Pain and Spine Specialist of Maryland",
                    "status": "COMPLETED",
                    "city": "Mount Airy",
                    "state": "Maryland",
                    "zip": "21771",
                    "country": "United States",
                    "geoPoint": {
                        "lat": 39.37621,
                        "lon": -77.1547
                    }
                },
                {
                    "facility": "Michigan Orthopedic Center",
                    "status": "RECRUITING",
                    "city": "Lansing",
                    "state": "Michigan",
                    "zip": "48910",
                    "country": "United States",
                    "contacts": [
                        {
                            "name": "Boston Scientific Clinical Research",
                            "role": "CONTACT",
                            "phone": "855-213-9890",
                            "email": "BSNClinicalTrials@bsci.com"
                        }
                    ],
                    "geoPoint": {
                        "lat": 42.73253,
                        "lon": -84.55553
                    }
                },
                {
                    "facility": "Multidisciplinary Pain Management Services",
                    "status": "RECRUITING",
                    "city": "Okemos",
                    "state": "Michigan",
                    "zip": "48864",
                    "country": "United States",
                    "contacts": [
                        {
                            "name": "Boston Scientific Clinical Research Manager",
                            "role": "CONTACT",
                            "phone": "855-213-9890",
                            "email": "BSNClinicalTrials@bsci.com"
                        }
                    ],
                    "geoPoint": {
                        "lat": 42.72226,
                        "lon": -84.42747
                    }
                },
                {
                    "facility": "Forest Health Medical Center",
                    "status": "RECRUITING",
                    "city": "Ypsilanti",
                    "state": "Michigan",
                    "zip": "48198",
                    "country": "United States",
                    "contacts": [
                        {
                            "name": "Boston Scientific Clinical Research Manager",
                            "role": "CONTACT",
                            "phone": "855-213-9890",
                            "email": "BSNClinicalTrials@bsci.com"
                        }
                    ],
                    "geoPoint": {
                        "lat": 42.24115,
                        "lon": -83.61299
                    }
                },
                {
                    "facility": "Twin Cities Pain Clinic & Surgery Center",
                    "status": "RECRUITING",
                    "city": "Edina",
                    "state": "Minnesota",
                    "zip": "55439",
                    "country": "United States",
                    "contacts": [
                        {
                            "name": "Boston Scientific Clinical Research Manager",
                            "role": "CONTACT",
                            "phone": "855-213-9890",
                            "email": "BSNClinicalTrials@bsci.com"
                        }
                    ],
                    "geoPoint": {
                        "lat": 44.88969,
                        "lon": -93.34995
                    }
                },
                {
                    "facility": "NeuroSpecs-Gulfport Performance Spine",
                    "status": "COMPLETED",
                    "city": "Gulfport",
                    "state": "Mississippi",
                    "zip": "39503",
                    "country": "United States",
                    "geoPoint": {
                        "lat": 30.36742,
                        "lon": -89.09282
                    }
                },
                {
                    "facility": "Comprehensive Pain & Rehabilitation",
                    "status": "COMPLETED",
                    "city": "Pascagoula",
                    "state": "Mississippi",
                    "zip": "39581",
                    "country": "United States",
                    "geoPoint": {
                        "lat": 30.36576,
                        "lon": -88.55613
                    }
                },
                {
                    "facility": "Saint Louis Pain Consultants",
                    "status": "ACTIVE_NOT_RECRUITING",
                    "city": "Chesterfield",
                    "state": "Missouri",
                    "zip": "63017",
                    "country": "United States",
                    "geoPoint": {
                        "lat": 38.66311,
                        "lon": -90.57707
                    }
                },
                {
                    "facility": "Mercy Medical Research Institute",
                    "status": "COMPLETED",
                    "city": "Springfield",
                    "state": "Missouri",
                    "zip": "65804",
                    "country": "United States",
                    "geoPoint": {
                        "lat": 37.21533,
                        "lon": -93.29824
                    }
                },
                {
                    "facility": "Albany Medical Center",
                    "status": "COMPLETED",
                    "city": "Albany",
                    "state": "New York",
                    "zip": "12208",
                    "country": "United States",
                    "geoPoint": {
                        "lat": 42.65258,
                        "lon": -73.75623
                    }
                },
                {
                    "facility": "Jeffrey M. Epstein, M.D. PC",
                    "status": "COMPLETED",
                    "city": "Babylon",
                    "state": "New York",
                    "zip": "11702",
                    "country": "United States",
                    "geoPoint": {
                        "lat": 40.69566,
                        "lon": -73.32568
                    }
                },
                {
                    "facility": "Montefiore Medical Center",
                    "status": "RECRUITING",
                    "city": "Bronx",
                    "state": "New York",
                    "zip": "10461",
                    "country": "United States",
                    "contacts": [
                        {
                            "name": "Boston Scientific Clinical Research",
                            "role": "CONTACT",
                            "phone": "855-213-9890",
                            "email": "BSNClinicalTrials@bsci.com"
                        }
                    ],
                    "geoPoint": {
                        "lat": 40.84985,
                        "lon": -73.86641
                    }
                },
                {
                    "facility": "Spine and Skeletal Pain Medicine",
                    "status": "COMPLETED",
                    "city": "Utica",
                    "state": "New York",
                    "zip": "13502",
                    "country": "United States",
                    "geoPoint": {
                        "lat": 43.1009,
                        "lon": -75.23266
                    }
                },
                {
                    "facility": "Integrative Pain and Wellness Associates",
                    "status": "RECRUITING",
                    "city": "Williamsville",
                    "state": "New York",
                    "zip": "14221",
                    "country": "United States",
                    "contacts": [
                        {
                            "name": "Boston Scientific Clinical Research Manager",
                            "role": "CONTACT",
                            "phone": "855-213-9890",
                            "email": "BSNClinicalTrials@bsci.com"
                        }
                    ],
                    "geoPoint": {
                        "lat": 42.96395,
                        "lon": -78.73781
                    }
                },
                {
                    "facility": "Vidant Roanoke - Chowan Hospital Pain Center",
                    "status": "COMPLETED",
                    "city": "Ahoskie",
                    "state": "North Carolina",
                    "zip": "27910",
                    "country": "United States",
                    "geoPoint": {
                        "lat": 36.28682,
                        "lon": -76.98468
                    }
                },
                {
                    "facility": "Carolinas Research Institute, PLLC",
                    "status": "COMPLETED",
                    "city": "Huntersville",
                    "state": "North Carolina",
                    "zip": "28078",
                    "country": "United States",
                    "geoPoint": {
                        "lat": 35.41069,
                        "lon": -80.84285
                    }
                },
                {
                    "facility": "Crystal Coast Pain Management",
                    "status": "RECRUITING",
                    "city": "New Bern",
                    "state": "North Carolina",
                    "zip": "28560",
                    "country": "United States",
                    "contacts": [
                        {
                            "name": "Boston Scientific Clinical Research Manager",
                            "role": "CONTACT",
                            "phone": "855-213-9890",
                            "email": "BSNClinicalTrials@bsci.com"
                        }
                    ],
                    "geoPoint": {
                        "lat": 35.10849,
                        "lon": -77.04411
                    }
                },
                {
                    "facility": "Piedmont Interventional Pain Care",
                    "status": "RECRUITING",
                    "city": "Salisbury",
                    "state": "North Carolina",
                    "zip": "28147",
                    "country": "United States",
                    "contacts": [
                        {
                            "name": "Boston Scientific Clinical Research Manager",
                            "role": "CONTACT",
                            "phone": "855-213-9890",
                            "email": "BSNClinicalTrials@bsci.com"
                        }
                    ],
                    "geoPoint": {
                        "lat": 35.67097,
                        "lon": -80.47423
                    }
                },
                {
                    "facility": "The Center for Clinical Research, LLC",
                    "status": "RECRUITING",
                    "city": "Winston-Salem",
                    "state": "North Carolina",
                    "zip": "27103",
                    "country": "United States",
                    "contacts": [
                        {
                            "name": "Boston Scientific Clinical Research Manager",
                            "role": "CONTACT",
                            "phone": "855-213-9890",
                            "email": "BSNClinicalTrials@bsci.com"
                        }
                    ],
                    "geoPoint": {
                        "lat": 36.09986,
                        "lon": -80.24422
                    }
                },
                {
                    "facility": "University Hospitals of Cleveland",
                    "status": "RECRUITING",
                    "city": "Cleveland",
                    "state": "Ohio",
                    "zip": "44106",
                    "country": "United States",
                    "contacts": [
                        {
                            "name": "Boston Scientific Clinical Research Manager",
                            "role": "CONTACT",
                            "phone": "855-213-9890",
                            "email": "BSNClinicalTrials@bsci.com"
                        }
                    ],
                    "geoPoint": {
                        "lat": 41.4995,
                        "lon": -81.69541
                    }
                },
                {
                    "facility": "Orthopaedic and Spine Center",
                    "status": "WITHDRAWN",
                    "city": "Dublin",
                    "state": "Ohio",
                    "zip": "43016",
                    "country": "United States",
                    "geoPoint": {
                        "lat": 40.09923,
                        "lon": -83.11408
                    }
                },
                {
                    "facility": "Cincinnati Comprehensive Pain Center",
                    "status": "COMPLETED",
                    "city": "Fairfield",
                    "state": "Ohio",
                    "zip": "45014",
                    "country": "United States",
                    "geoPoint": {
                        "lat": 39.34589,
                        "lon": -84.5605
                    }
                },
                {
                    "facility": "Western Reserve Spine and Pain Institute",
                    "status": "COMPLETED",
                    "city": "Kent",
                    "state": "Ohio",
                    "zip": "44240",
                    "country": "United States",
                    "geoPoint": {
                        "lat": 41.15367,
                        "lon": -81.35789
                    }
                },
                {
                    "facility": "Interventional Pain Consultants",
                    "status": "RECRUITING",
                    "city": "Toledo",
                    "state": "Ohio",
                    "zip": "43623",
                    "country": "United States",
                    "contacts": [
                        {
                            "name": "Boston Scientific Clinical Research",
                            "role": "CONTACT",
                            "phone": "855-213-9890",
                            "email": "BSNClinicalTrials@bsci.com"
                        }
                    ],
                    "geoPoint": {
                        "lat": 41.66394,
                        "lon": -83.55521
                    }
                },
                {
                    "facility": "Toledo Clinic",
                    "status": "COMPLETED",
                    "city": "Toledo",
                    "state": "Ohio",
                    "zip": "43623",
                    "country": "United States",
                    "geoPoint": {
                        "lat": 41.66394,
                        "lon": -83.55521
                    }
                },
                {
                    "facility": "University of Toledo Medical Center",
                    "status": "COMPLETED",
                    "city": "Toledo",
                    "state": "Ohio",
                    "zip": "43623",
                    "country": "United States",
                    "geoPoint": {
                        "lat": 41.66394,
                        "lon": -83.55521
                    }
                },
                {
                    "facility": "Pacific Sports and Spine, LLC",
                    "status": "RECRUITING",
                    "city": "Eugene",
                    "state": "Oregon",
                    "zip": "97401",
                    "country": "United States",
                    "contacts": [
                        {
                            "name": "Boston Scientific Clinical Research Manager",
                            "role": "CONTACT",
                            "phone": "855-213-9890",
                            "email": "BSNClinicalTrials@bsci.com"
                        }
                    ],
                    "geoPoint": {
                        "lat": 44.05207,
                        "lon": -123.08675
                    }
                },
                {
                    "facility": "Quave Clinic",
                    "status": "COMPLETED",
                    "city": "Medford",
                    "state": "Oregon",
                    "zip": "97504",
                    "country": "United States",
                    "geoPoint": {
                        "lat": 42.32652,
                        "lon": -122.87559
                    }
                },
                {
                    "facility": "Southern Oregon Orthopedics",
                    "status": "RECRUITING",
                    "city": "Medford",
                    "state": "Oregon",
                    "zip": "97504",
                    "country": "United States",
                    "contacts": [
                        {
                            "name": "Boston Scientific Clinical Research",
                            "role": "CONTACT",
                            "phone": "855-213-9890",
                            "email": "BSNClinicalTrials@bsci.com"
                        }
                    ],
                    "geoPoint": {
                        "lat": 42.32652,
                        "lon": -122.87559
                    }
                },
                {
                    "facility": "Summit Spine",
                    "status": "COMPLETED",
                    "city": "Portland",
                    "state": "Oregon",
                    "zip": "97225",
                    "country": "United States",
                    "geoPoint": {
                        "lat": 45.52345,
                        "lon": -122.67621
                    }
                },
                {
                    "facility": "Geisinger Medical Center",
                    "status": "COMPLETED",
                    "city": "Danville",
                    "state": "Pennsylvania",
                    "zip": "17822",
                    "country": "United States",
                    "geoPoint": {
                        "lat": 40.96342,
                        "lon": -76.61273
                    }
                },
                {
                    "facility": "Florence Neurosurgery and Spine",
                    "status": "COMPLETED",
                    "city": "Florence",
                    "state": "South Carolina",
                    "zip": "29506",
                    "country": "United States",
                    "geoPoint": {
                        "lat": 34.19543,
                        "lon": -79.76256
                    }
                },
                {
                    "facility": "Interventional Spine and Pain Center",
                    "status": "COMPLETED",
                    "city": "Manchester",
                    "state": "Tennessee",
                    "zip": "37355",
                    "country": "United States",
                    "geoPoint": {
                        "lat": 35.48174,
                        "lon": -86.0886
                    }
                },
                {
                    "facility": "Comprehensive Pain & Neurology Center",
                    "status": "RECRUITING",
                    "city": "Murfreesboro",
                    "state": "Tennessee",
                    "zip": "37128",
                    "country": "United States",
                    "contacts": [
                        {
                            "name": "Boston Scientific Clinical Research",
                            "role": "CONTACT",
                            "phone": "855-213-9890",
                            "email": "BSNClinicalTrials@bsci.com"
                        }
                    ],
                    "geoPoint": {
                        "lat": 35.84562,
                        "lon": -86.39027
                    }
                },
                {
                    "facility": "Pain Center Physicians",
                    "status": "COMPLETED",
                    "city": "Austin",
                    "state": "Texas",
                    "zip": "78704",
                    "country": "United States",
                    "geoPoint": {
                        "lat": 30.26715,
                        "lon": -97.74306
                    }
                },
                {
                    "facility": "Balcones Pain Consultants",
                    "status": "COMPLETED",
                    "city": "Austin",
                    "state": "Texas",
                    "zip": "78750",
                    "country": "United States",
                    "geoPoint": {
                        "lat": 30.26715,
                        "lon": -97.74306
                    }
                },
                {
                    "facility": "KSF Orthopaedics",
                    "status": "RECRUITING",
                    "city": "Houston",
                    "state": "Texas",
                    "zip": "77090",
                    "country": "United States",
                    "contacts": [
                        {
                            "name": "Boston Scientific Clinical Research",
                            "role": "CONTACT",
                            "phone": "855-213-9890",
                            "email": "BSNClinicalTrials@bsci.com"
                        }
                    ],
                    "geoPoint": {
                        "lat": 29.76328,
                        "lon": -95.36327
                    }
                },
                {
                    "facility": "Central Texas Pain Institute",
                    "status": "COMPLETED",
                    "city": "Killeen",
                    "state": "Texas",
                    "zip": "76542",
                    "country": "United States",
                    "geoPoint": {
                        "lat": 31.11712,
                        "lon": -97.7278
                    }
                },
                {
                    "facility": "Advanced Spine Pain Solutions",
                    "status": "RECRUITING",
                    "city": "Laredo",
                    "state": "Texas",
                    "zip": "78041",
                    "country": "United States",
                    "contacts": [
                        {
                            "name": "Boston Scientific Clinical Research",
                            "role": "CONTACT",
                            "phone": "855-213-9890",
                            "email": "BSNClinicalTrials@bsci.com"
                        }
                    ],
                    "geoPoint": {
                        "lat": 27.50641,
                        "lon": -99.50754
                    }
                },
                {
                    "facility": "Spine Team Texas",
                    "status": "COMPLETED",
                    "city": "Southlake",
                    "state": "Texas",
                    "zip": "76092",
                    "country": "United States",
                    "geoPoint": {
                        "lat": 32.94124,
                        "lon": -97.13418
                    }
                },
                {
                    "facility": "Space City Pain Specialists",
                    "status": "COMPLETED",
                    "city": "Webster",
                    "state": "Texas",
                    "zip": "77598",
                    "country": "United States",
                    "geoPoint": {
                        "lat": 29.53773,
                        "lon": -95.11826
                    }
                },
                {
                    "facility": "Carilion Roanoke Memorial Hospital",
                    "status": "COMPLETED",
                    "city": "Roanoke",
                    "state": "Virginia",
                    "zip": "24014",
                    "country": "United States",
                    "geoPoint": {
                        "lat": 37.27097,
                        "lon": -79.94143
                    }
                },
                {
                    "facility": "EvergreenHealth Pain Care",
                    "status": "COMPLETED",
                    "city": "Kirkland",
                    "state": "Washington",
                    "zip": "98034",
                    "country": "United States",
                    "geoPoint": {
                        "lat": 47.68149,
                        "lon": -122.20874
                    }
                },
                {
                    "facility": "Mind Your Body Institute",
                    "status": "COMPLETED",
                    "city": "Seattle",
                    "state": "Washington",
                    "zip": "98115",
                    "country": "United States",
                    "geoPoint": {
                        "lat": 47.60621,
                        "lon": -122.33207
                    }
                },
                {
                    "facility": "Northwest Pain Care",
                    "status": "RECRUITING",
                    "city": "Spokane",
                    "state": "Washington",
                    "zip": "99201",
                    "country": "United States",
                    "contacts": [
                        {
                            "name": "Boston Scientific Clinical Research Manager",
                            "role": "CONTACT",
                            "phone": "855-213-9890",
                            "email": "BSNClinicalTrials@bsci.com"
                        }
                    ],
                    "geoPoint": {
                        "lat": 47.65966,
                        "lon": -117.42908
                    }
                },
                {
                    "facility": "West Virginia University Hospitals",
                    "status": "COMPLETED",
                    "city": "Morgantown",
                    "state": "West Virginia",
                    "zip": "26506",
                    "country": "United States",
                    "geoPoint": {
                        "lat": 39.62953,
                        "lon": -79.9559
                    }
                },
                {
                    "facility": "Interventional Pain Specialists of Wisconsin",
                    "status": "COMPLETED",
                    "city": "Rice Lake",
                    "state": "Wisconsin",
                    "zip": "54868",
                    "country": "United States",
                    "geoPoint": {
                        "lat": 45.50607,
                        "lon": -91.73823
                    }
                },
                {
                    "facility": "Berwick Pain Management",
                    "status": "RECRUITING",
                    "city": "Berwick",
                    "country": "Australia",
                    "contacts": [
                        {
                            "name": "Boston Scientific Clinical Research Manager",
                            "role": "CONTACT",
                            "phone": "855-213-9890",
                            "email": "BSNClinicalTrials@bsci.com"
                        }
                    ],
                    "geoPoint": {
                        "lat": -38.03333,
                        "lon": 145.35
                    }
                },
                {
                    "facility": "Hunter Pain Clinic",
                    "status": "RECRUITING",
                    "city": "Broadmeadow",
                    "country": "Australia",
                    "contacts": [
                        {
                            "name": "Boston Scientific Clinical Research Manager",
                            "role": "CONTACT",
                            "phone": "855-213-9890",
                            "email": "BSNClinicalTrials@bsci.com"
                        }
                    ],
                    "geoPoint": {
                        "lat": -32.92371,
                        "lon": 151.72849
                    }
                },
                {
                    "facility": "Monash Clinical Research",
                    "status": "RECRUITING",
                    "city": "Caulfield South",
                    "country": "Australia",
                    "contacts": [
                        {
                            "name": "Boston Scientific Clinical Research Manager",
                            "role": "CONTACT",
                            "phone": "855-213-9890",
                            "email": "BSNClinicalTrials@bsci.com"
                        }
                    ],
                    "geoPoint": {
                        "lat": -37.89562,
                        "lon": 145.02597
                    }
                },
                {
                    "facility": "Green Lizard Science",
                    "status": "RECRUITING",
                    "city": "Claremont",
                    "country": "Australia",
                    "contacts": [
                        {
                            "name": "Boston Scientific Clinical Research Manager",
                            "role": "CONTACT",
                            "phone": "855-213-9890",
                            "email": "BSNClinicalTrials@bsci.com"
                        }
                    ],
                    "geoPoint": {
                        "lat": -42.78333,
                        "lon": 147.25
                    }
                },
                {
                    "facility": "Sydney Spine and Pain Pty Ltd",
                    "status": "RECRUITING",
                    "city": "Hurstville",
                    "country": "Australia",
                    "contacts": [
                        {
                            "name": "Boston Scientific Clinical Research Manager",
                            "role": "CONTACT",
                            "phone": "855-213-9890",
                            "email": "BSNClinicalTrials@bsci.com"
                        }
                    ],
                    "geoPoint": {
                        "lat": -33.9677,
                        "lon": 151.10149
                    }
                },
                {
                    "facility": "Sunshine Coast Clinical Research",
                    "status": "RECRUITING",
                    "city": "Noosa Heads",
                    "country": "Australia",
                    "contacts": [
                        {
                            "name": "Boston Scientific Clinical Research",
                            "role": "CONTACT",
                            "phone": "855-213-9890",
                            "email": "BSNClinicalTrials@bsci.com"
                        }
                    ],
                    "geoPoint": {
                        "lat": -26.39433,
                        "lon": 153.0901
                    }
                },
                {
                    "facility": "Womens Health and Research Institute of Australia",
                    "status": "RECRUITING",
                    "city": "Sydney",
                    "country": "Australia",
                    "contacts": [
                        {
                            "name": "Boston Scientific Clinical Research Manager",
                            "role": "CONTACT",
                            "phone": "855-213-9890",
                            "email": "BSNClinicalTrials@bsci.com"
                        }
                    ],
                    "geoPoint": {
                        "lat": -33.86785,
                        "lon": 151.20732
                    }
                },
                {
                    "facility": "Pain Medicine of South Australia",
                    "status": "RECRUITING",
                    "city": "Wayville",
                    "country": "Australia",
                    "contacts": [
                        {
                            "name": "Boston Scientific Clinical Research Manager",
                            "role": "CONTACT",
                            "phone": "855-213-9890",
                            "email": "BSNClinicalTrials@bsci.com"
                        }
                    ],
                    "geoPoint": {
                        "lat": -34.95,
                        "lon": 138.58333
                    }
                },
                {
                    "facility": "Clinique de la Sauvegarde",
                    "status": "RECRUITING",
                    "city": "Lyon",
                    "country": "France",
                    "contacts": [
                        {
                            "name": "Boston Scientific Clinical Research Manager",
                            "role": "CONTACT",
                            "phone": "855-213-9890",
                            "email": "BSNClinicalTrials@bsci.com"
                        }
                    ],
                    "geoPoint": {
                        "lat": 45.74848,
                        "lon": 4.84669
                    }
                },
                {
                    "facility": "Fondation Ophtalmologique Adolphe de Rothschild",
                    "status": "RECRUITING",
                    "city": "Paris",
                    "country": "France",
                    "contacts": [
                        {
                            "name": "Boston Scientific Clinical Research Manager",
                            "role": "CONTACT",
                            "phone": "855-213-9890",
                            "email": "BSNClinicalTrials@bsci.com"
                        }
                    ],
                    "geoPoint": {
                        "lat": 48.85341,
                        "lon": 2.3488
                    }
                },
                {
                    "facility": "CHU La Miletrie",
                    "status": "RECRUITING",
                    "city": "Poitiers",
                    "country": "France",
                    "contacts": [
                        {
                            "name": "Boston Scientific Clinical Research",
                            "role": "CONTACT",
                            "phone": "855-213-9890",
                            "email": "BSNClinicalTrials@bsci.com"
                        }
                    ],
                    "geoPoint": {
                        "lat": 46.58333,
                        "lon": 0.33333
                    }
                },
                {
                    "facility": "CHU de Nantes-Hopital Laennec",
                    "status": "RECRUITING",
                    "city": "Saint-Herblain",
                    "country": "France",
                    "contacts": [
                        {
                            "name": "Boston Scientific Clinical Research Manager",
                            "role": "CONTACT",
                            "phone": "855-213-9890",
                            "email": "BSNClinicalTrials@bsci.com"
                        }
                    ],
                    "geoPoint": {
                        "lat": 47.21765,
                        "lon": -1.64841
                    }
                },
                {
                    "facility": "Hopital Foch",
                    "status": "RECRUITING",
                    "city": "Suresnes",
                    "country": "France",
                    "contacts": [
                        {
                            "name": "Boston Scientific Clinical Research",
                            "role": "CONTACT",
                            "phone": "855-213-9890",
                            "email": "BSNClinicalTrials@bsci.com"
                        }
                    ],
                    "geoPoint": {
                        "lat": 48.87143,
                        "lon": 2.22929
                    }
                },
                {
                    "facility": "University Berlin, Charite Virchow Standort, Wedding",
                    "status": "RECRUITING",
                    "city": "Berlin-Wedding",
                    "country": "Germany",
                    "contacts": [
                        {
                            "name": "Boston Scientific Clinical Research Manager",
                            "role": "CONTACT",
                            "phone": "855-213-9890",
                            "email": "BSNClinicalTrials@bsci.com"
                        }
                    ],
                    "geoPoint": {
                        "lat": 52.54734,
                        "lon": 13.35594
                    }
                },
                {
                    "facility": "Uniklinik K\u00f6ln",
                    "status": "RECRUITING",
                    "city": "Cologne",
                    "country": "Germany",
                    "contacts": [
                        {
                            "name": "Boston Scientific Clinical Research",
                            "role": "CONTACT",
                            "phone": "855-213-9890",
                            "email": "BSNClinicalTrials@bsci.com"
                        }
                    ],
                    "geoPoint": {
                        "lat": 50.93333,
                        "lon": 6.95
                    }
                },
                {
                    "facility": "Universitaetsklinikum Dusseldorf",
                    "status": "RECRUITING",
                    "city": "Duesseldorf",
                    "country": "Germany",
                    "contacts": [
                        {
                            "name": "Boston Scientific Clinical Research Manager",
                            "role": "CONTACT",
                            "phone": "855-213-9890",
                            "email": "BSNClinicalTrials@bsci.com"
                        }
                    ],
                    "geoPoint": {
                        "lat": 51.22172,
                        "lon": 6.77616
                    }
                },
                {
                    "facility": "St. Marien-Hospital Hamm",
                    "status": "RECRUITING",
                    "city": "Hamm",
                    "country": "Germany",
                    "contacts": [
                        {
                            "name": "Boston Scientific Clinical Research",
                            "role": "CONTACT",
                            "phone": "855-213-9890",
                            "email": "BSNClinicalTrials@bsci.com"
                        }
                    ],
                    "geoPoint": {
                        "lat": 51.68033,
                        "lon": 7.82089
                    }
                },
                {
                    "facility": "Pres. Osp. Civile Santi Antonio e Biagio",
                    "status": "RECRUITING",
                    "city": "Alessandria",
                    "country": "Italy",
                    "contacts": [
                        {
                            "name": "Boston Scientific Clinical Reseacrh",
                            "role": "CONTACT",
                            "phone": "855-213-9890",
                            "email": "BSNClinicalTrials@bsci.com"
                        }
                    ],
                    "geoPoint": {
                        "lat": 44.90924,
                        "lon": 8.61007
                    }
                },
                {
                    "facility": "Az. Osp. Monaldi",
                    "status": "RECRUITING",
                    "city": "Napoli",
                    "country": "Italy",
                    "contacts": [
                        {
                            "name": "Boston Scientific Clinical Research",
                            "role": "CONTACT",
                            "phone": "855-213-9890",
                            "email": "BSNClinicalTrials@bsci.com"
                        }
                    ],
                    "geoPoint": {
                        "lat": 40.85216,
                        "lon": 14.26811
                    }
                },
                {
                    "facility": "Ospedale San Giuliano",
                    "status": "RECRUITING",
                    "city": "Rionero In Vulture",
                    "country": "Italy",
                    "contacts": [
                        {
                            "name": "Boston Scientific Clinical Research Manager",
                            "role": "CONTACT",
                            "phone": "855-213-9890",
                            "email": "BSNClinicalTrials@bsci.com"
                        }
                    ],
                    "geoPoint": {
                        "lat": 40.92328,
                        "lon": 15.6711
                    }
                },
                {
                    "facility": "Ospedale S. Giovanni Addolorata",
                    "status": "RECRUITING",
                    "city": "Rome",
                    "zip": "30326",
                    "country": "Italy",
                    "contacts": [
                        {
                            "name": "Boston Scientific Clinical Research",
                            "role": "CONTACT",
                            "phone": "855-213-9890",
                            "email": "BSNClinicalTrials@bsci.com"
                        }
                    ],
                    "geoPoint": {
                        "lat": 41.89193,
                        "lon": 12.51133
                    }
                },
                {
                    "facility": "Alrijne Ziekenhuis Leiderdorp",
                    "status": "RECRUITING",
                    "city": "Leiderdorp",
                    "country": "Netherlands",
                    "contacts": [
                        {
                            "name": "Boston Scientific Clinical Research",
                            "role": "CONTACT",
                            "phone": "855-213-9890",
                            "email": "BSNClinicalTrials@bsci.com"
                        }
                    ],
                    "geoPoint": {
                        "lat": 52.15833,
                        "lon": 4.52917
                    }
                },
                {
                    "facility": "Ziekenhuis Rijnstate",
                    "status": "RECRUITING",
                    "city": "Velp",
                    "country": "Netherlands",
                    "contacts": [
                        {
                            "name": "Boston Scientific Clinical Research Manager",
                            "role": "CONTACT",
                            "phone": "855-213-9890",
                            "email": "BSNClinicalTrials@bsci.com"
                        }
                    ],
                    "geoPoint": {
                        "lat": 51.995,
                        "lon": 5.97361
                    }
                },
                {
                    "facility": "Ponce Interventional Pain Center",
                    "status": "COMPLETED",
                    "city": "Ponce",
                    "zip": "716",
                    "country": "Puerto Rico",
                    "geoPoint": {
                        "lat": 18.01108,
                        "lon": -66.61406
                    }
                },
                {
                    "facility": "Hospital De Bellvitge",
                    "status": "RECRUITING",
                    "city": "Barcelona",
                    "country": "Spain",
                    "contacts": [
                        {
                            "name": "Boston Scientific Clinical Research",
                            "role": "CONTACT",
                            "phone": "855-213-9890",
                            "email": "BSNClinicalTrials@bsci.com"
                        }
                    ],
                    "geoPoint": {
                        "lat": 41.38879,
                        "lon": 2.15899
                    }
                },
                {
                    "facility": "Complejo Hospitalario Universitario de Cartagena",
                    "status": "RECRUITING",
                    "city": "Cartagena",
                    "country": "Spain",
                    "contacts": [
                        {
                            "name": "Boston Scientific Clinical Research",
                            "role": "CONTACT",
                            "phone": "855-213-9890",
                            "email": "BSNClinicalTrials@bsci.com"
                        }
                    ],
                    "geoPoint": {
                        "lat": 37.60512,
                        "lon": -0.98623
                    }
                },
                {
                    "facility": "Hospital San Pedro",
                    "status": "RECRUITING",
                    "city": "Logro\u00f1o",
                    "country": "Spain",
                    "contacts": [
                        {
                            "name": "Boston Scientific Clinical Research",
                            "role": "CONTACT",
                            "phone": "855-213-9890",
                            "email": "BSNClinicalTrials@bsci.com"
                        }
                    ],
                    "geoPoint": {
                        "lat": 42.46667,
                        "lon": -2.45
                    }
                },
                {
                    "facility": "Fundacion Jimenez Diaz",
                    "status": "RECRUITING",
                    "city": "Madrid",
                    "country": "Spain",
                    "contacts": [
                        {
                            "name": "Boston Scientific Clinical Research Manager",
                            "role": "CONTACT",
                            "phone": "855-213-9890",
                            "email": "BSNClinicalTrials@bsci.com"
                        }
                    ],
                    "geoPoint": {
                        "lat": 40.4165,
                        "lon": -3.70256
                    }
                },
                {
                    "facility": "Hospital Clinico San Carlos",
                    "status": "RECRUITING",
                    "city": "Madrid",
                    "country": "Spain",
                    "contacts": [
                        {
                            "name": "Boston Scientific Clinical Research",
                            "role": "CONTACT",
                            "phone": "855-213-9890",
                            "email": "BSNClinicalTrials@bsci.com"
                        }
                    ],
                    "geoPoint": {
                        "lat": 40.4165,
                        "lon": -3.70256
                    }
                },
                {
                    "facility": "Hospital La Paz",
                    "status": "RECRUITING",
                    "city": "Madrid",
                    "country": "Spain",
                    "contacts": [
                        {
                            "name": "Boston Scientific Clinical Research Manager",
                            "role": "CONTACT",
                            "phone": "855-213-9890",
                            "email": "BSNClinicalTrials@bsci.com"
                        }
                    ],
                    "geoPoint": {
                        "lat": 40.4165,
                        "lon": -3.70256
                    }
                },
                {
                    "facility": "Hospital Universitario Quiron Madrid",
                    "status": "RECRUITING",
                    "city": "Madrid",
                    "country": "Spain",
                    "contacts": [
                        {
                            "name": "Boston Scientific Clinical Research Manager",
                            "role": "CONTACT",
                            "phone": "855-213-9890",
                            "email": "BSNClinicalTrials@bsci.com"
                        }
                    ],
                    "geoPoint": {
                        "lat": 40.4165,
                        "lon": -3.70256
                    }
                },
                {
                    "facility": "Hospital Virgen Del Rocio",
                    "status": "RECRUITING",
                    "city": "Sevilla",
                    "country": "Spain",
                    "contacts": [
                        {
                            "name": "Boston Scientific Clinical Research Manager",
                            "role": "CONTACT",
                            "phone": "855-213-9890",
                            "email": "BSNClinicalTrials@bsci.com"
                        }
                    ],
                    "geoPoint": {
                        "lat": 37.38283,
                        "lon": -5.97317
                    }
                },
                {
                    "facility": "H. Clinico Universitario",
                    "status": "RECRUITING",
                    "city": "Valencia",
                    "country": "Spain",
                    "contacts": [
                        {
                            "name": "Boston Scientific Clinical Research Manager",
                            "role": "CONTACT",
                            "phone": "855-213-9890",
                            "email": "BSNClinicalTrials@bsci.com"
                        }
                    ],
                    "geoPoint": {
                        "lat": 39.46975,
                        "lon": -0.37739
                    }
                },
                {
                    "facility": "Hospital de la Ribera",
                    "status": "RECRUITING",
                    "city": "Valencia",
                    "country": "Spain",
                    "contacts": [
                        {
                            "name": "Boston Scientific Clinical Research",
                            "role": "CONTACT",
                            "phone": "855-213-9890",
                            "email": "BSNClinicalTrials@bsci.com"
                        }
                    ],
                    "geoPoint": {
                        "lat": 39.46975,
                        "lon": -0.37739
                    }
                },
                {
                    "facility": "Hospital Universitario La Fe",
                    "status": "RECRUITING",
                    "city": "Valencia",
                    "country": "Spain",
                    "contacts": [
                        {
                            "name": "Boston Scientific Clinical Research Manager",
                            "role": "CONTACT",
                            "phone": "855-213-9890",
                            "email": "BSNClinicalTrials@bsci.com"
                        }
                    ],
                    "geoPoint": {
                        "lat": 39.46975,
                        "lon": -0.37739
                    }
                },
                {
                    "facility": "Sahlgrenska University Hospital",
                    "status": "RECRUITING",
                    "city": "Goeteborg",
                    "country": "Sweden",
                    "contacts": [
                        {
                            "name": "Boston Scientific Clinical Research Manager",
                            "role": "CONTACT",
                            "phone": "855-213-9890",
                            "email": "BSNClinicalTrials@bsci.com"
                        }
                    ],
                    "geoPoint": {
                        "lat": 57.70716,
                        "lon": 11.96679
                    }
                },
                {
                    "facility": "La Tour Hospital",
                    "status": "RECRUITING",
                    "city": "Meyrin",
                    "country": "Switzerland",
                    "contacts": [
                        {
                            "name": "Boston Scientific Clinical Research Manager",
                            "role": "CONTACT",
                            "phone": "855-213-9890",
                            "email": "BSNClinicalTrials@bsci.com"
                        }
                    ],
                    "geoPoint": {
                        "lat": 46.23424,
                        "lon": 6.08025
                    }
                },
                {
                    "facility": "Ospedale Regionale di Lugano",
                    "status": "RECRUITING",
                    "city": "Viganello",
                    "country": "Switzerland",
                    "contacts": [
                        {
                            "name": "Boston Scientific Clinical Research Manager",
                            "role": "CONTACT",
                            "phone": "855-213-9890",
                            "email": "BSNClinicalTrials@bsci.com"
                        }
                    ],
                    "geoPoint": {
                        "lat": 46.01342,
                        "lon": 8.96879
                    }
                },
                {
                    "facility": "Basildon and Thurrock University Hospitals NHS",
                    "status": "RECRUITING",
                    "city": "Basildon",
                    "country": "United Kingdom",
                    "contacts": [
                        {
                            "name": "Boston Scientific Clinical Research Manager",
                            "role": "CONTACT",
                            "phone": "855-213-9890",
                            "email": "BSNClinicalTrials@bsci.com"
                        }
                    ],
                    "geoPoint": {
                        "lat": 51.56844,
                        "lon": 0.45782
                    }
                },
                {
                    "facility": "Southmead Hospital Bristol",
                    "status": "RECRUITING",
                    "city": "Bristol",
                    "country": "United Kingdom",
                    "contacts": [
                        {
                            "name": "Boston Scientific Clinical Research Manager",
                            "role": "CONTACT",
                            "phone": "855-213-9890",
                            "email": "BSNClinicalTrials@bsci.com"
                        }
                    ],
                    "geoPoint": {
                        "lat": 51.45523,
                        "lon": -2.59665
                    }
                },
                {
                    "facility": "The General Infirmary",
                    "status": "RECRUITING",
                    "city": "Leeds",
                    "country": "United Kingdom",
                    "contacts": [
                        {
                            "name": "Boston Scientific Clinical Research",
                            "role": "CONTACT",
                            "phone": "855-213-9890",
                            "email": "BSNClinicalTrials@bsci.com"
                        }
                    ],
                    "geoPoint": {
                        "lat": 53.79648,
                        "lon": -1.54785
                    }
                },
                {
                    "facility": "St. Bartholomews Hospital",
                    "status": "RECRUITING",
                    "city": "London",
                    "country": "United Kingdom",
                    "contacts": [
                        {
                            "name": "Boston Scientific Clinical Research Manager",
                            "role": "CONTACT",
                            "phone": "855-213-9890",
                            "email": "BSNClinicalTrials@bsci.com"
                        }
                    ],
                    "geoPoint": {
                        "lat": 51.50853,
                        "lon": -0.12574
                    }
                },
                {
                    "facility": "James Cook University Hospital",
                    "status": "RECRUITING",
                    "city": "Middlesbrough",
                    "country": "United Kingdom",
                    "contacts": [
                        {
                            "name": "Boston Scientific Clinical Research Manager",
                            "role": "CONTACT",
                            "phone": "855-213-9890",
                            "email": "BSNClinicalTrials@bsci.com"
                        }
                    ],
                    "geoPoint": {
                        "lat": 54.57623,
                        "lon": -1.23483
                    }
                }
            ]
        }
    },
    "derivedSection": {
        "miscInfoModule": {
            "versionHolder": "2024-07-30"
        },
        "conditionBrowseModule": {
            "meshes": [
                {
                    "id": "D000059350",
                    "term": "Chronic Pain"
                }
            ],
            "ancestors": [
                {
                    "id": "D000010146",
                    "term": "Pain"
                },
                {
                    "id": "D000009461",
                    "term": "Neurologic Manifestations"
                }
            ],
            "browseLeaves": [
                {
                    "id": "M29442",
                    "name": "Chronic Pain",
                    "asFound": "Chronic Pain",
                    "relevance": "HIGH"
                },
                {
                    "id": "M13066",
                    "name": "Pain",
                    "relevance": "LOW"
                },
                {
                    "id": "M12404",
                    "name": "Neurologic Manifestations",
                    "relevance": "LOW"
                },
                {
                    "id": "T1303",
                    "name": "Chronic Graft Versus Host Disease",
                    "relevance": "LOW"
                }
            ],
            "browseBranches": [
                {
                    "abbrev": "BC23",
                    "name": "Symptoms and General Pathology"
                },
                {
                    "abbrev": "All",
                    "name": "All Conditions"
                },
                {
                    "abbrev": "BC10",
                    "name": "Nervous System Diseases"
                },
                {
                    "abbrev": "Rare",
                    "name": "Rare Diseases"
                }
            ]
        }
    },
    "hasResults": false
}