{
    "protocolSection": {
        "identificationModule": {
            "nctId": "NCT05312879",
            "orgStudyIdInfo": {
                "id": "VX21-147-301"
            },
            "secondaryIdInfos": [
                {
                    "id": "2021-004762-35",
                    "type": "EUDRACT_NUMBER"
                }
            ],
            "organization": {
                "fullName": "Vertex Pharmaceuticals Incorporated",
                "class": "INDUSTRY"
            },
            "briefTitle": "Phase 2/3 Adaptive Study of VX-147 in Adult and Pediatric Participants With APOL1- Mediated Proteinuric Kidney Disease",
            "officialTitle": "A Phase 2/3 Adaptive, Double-blind, Placebo-Controlled Study to Evaluate the Efficacy and Safety of VX-147 in Adult and Pediatric Subjects With APOL1-mediated Proteinuric Kidney Disease",
            "acronym": "AMPLITUDE",
            "therapeuticArea": [
                "Nephrology and Renal Diseases"
            ],
            "study": "phase-adaptive-study-of-vx-in-adult-and-pediatric-participants-with-mediated-proteinuric-kidney-disease"
        },
        "statusModule": {
            "statusVerifiedDate": "2024-01",
            "overallStatus": "RECRUITING",
            "expandedAccessInfo": {
                "hasExpandedAccess": false
            },
            "startDateStruct": {
                "date": "2022-03-30",
                "type": "ACTUAL"
            },
            "primaryCompletionDateStruct": {
                "date": "2026-05",
                "type": "ESTIMATED"
            },
            "completionDateStruct": {
                "date": "2026-06",
                "type": "ESTIMATED"
            },
            "studyFirstSubmitDate": "2022-03-28",
            "studyFirstSubmitQcDate": "2022-03-28",
            "studyFirstPostDateStruct": {
                "date": "2022-04-06",
                "type": "ACTUAL"
            },
            "lastUpdateSubmitDate": "2024-07-18",
            "lastUpdatePostDateStruct": {
                "date": "2024-07-19",
                "type": "ACTUAL"
            }
        },
        "sponsorCollaboratorsModule": {
            "responsibleParty": {
                "type": "SPONSOR"
            },
            "leadSponsor": {
                "name": "Vertex Pharmaceuticals Incorporated",
                "class": "INDUSTRY"
            }
        },
        "oversightModule": {
            "oversightHasDmc": true,
            "isFdaRegulatedDrug": true,
            "isFdaRegulatedDevice": false
        },
        "descriptionModule": {
            "briefSummary": "The purpose of this study is to evaluate the efficacy, safety, tolerability, and pharmacokinetics (PK) of VX-147 in adult and pediatric participants with apolipoprotein L1 (APOL1)-mediated proteinuric kidney disease."
        },
        "conditionsModule": {
            "conditions": [
                "Proteinuric Kidney Disease"
            ]
        },
        "designModule": {
            "studyType": "INTERVENTIONAL",
            "phases": [
                "PHASE2",
                "PHASE3"
            ],
            "designInfo": {
                "allocation": "RANDOMIZED",
                "interventionModel": "SEQUENTIAL",
                "primaryPurpose": "TREATMENT",
                "maskingInfo": {
                    "masking": "QUADRUPLE",
                    "whoMasked": [
                        "PARTICIPANT",
                        "CARE_PROVIDER",
                        "INVESTIGATOR",
                        "OUTCOMES_ASSESSOR"
                    ]
                }
            },
            "enrollmentInfo": {
                "count": 466,
                "type": "ESTIMATED"
            }
        },
        "armsInterventionsModule": {
            "armGroups": [
                {
                    "label": "Phase 2: VX-147",
                    "type": "EXPERIMENTAL",
                    "description": "Participants will be randomized to receive different dose levels of VX-147.",
                    "interventionNames": [
                        "Drug: VX-147"
                    ]
                },
                {
                    "label": "Phase 2: Placebo",
                    "type": "PLACEBO_COMPARATOR",
                    "description": "Participants will receive placebo matched to VX-147.",
                    "interventionNames": [
                        "Drug: Placebo"
                    ]
                },
                {
                    "label": "Phase 3: VX-147",
                    "type": "EXPERIMENTAL",
                    "description": "Participants will receive VX-147 with the dose to be based on the outcome of Phase 2.",
                    "interventionNames": [
                        "Drug: VX-147"
                    ]
                },
                {
                    "label": "Phase 3: Placebo",
                    "type": "PLACEBO_COMPARATOR",
                    "description": "Participants will receive placebo matched to VX-147.",
                    "interventionNames": [
                        "Drug: Placebo"
                    ]
                }
            ],
            "interventions": [
                {
                    "type": "DRUG",
                    "name": "VX-147",
                    "description": "Tablets for oral administration.",
                    "armGroupLabels": [
                        "Phase 2: VX-147",
                        "Phase 3: VX-147"
                    ]
                },
                {
                    "type": "DRUG",
                    "name": "Placebo",
                    "description": "Tablets for oral administration.",
                    "armGroupLabels": [
                        "Phase 2: Placebo",
                        "Phase 3: Placebo"
                    ]
                }
            ]
        },
        "outcomesModule": {
            "primaryOutcomes": [
                {
                    "measure": "Percent Change From Baseline in Urine Protein to Creatinine Ratio (UPCR) at Week 48 (Assessed at the Week 48 Interim Analysis)",
                    "timeFrame": "From Baseline at Week 48"
                },
                {
                    "measure": "Estimated Glomerular Filtration Rate (eGFR) Slope Assessed at the Week 48 Interim Analysis",
                    "timeFrame": "From Baseline Through >= Week 48"
                },
                {
                    "measure": "eGFR Slope Assessed at Study Completion",
                    "timeFrame": "From Baseline Through Study Completion (Approximately 2 Years After the Last Participant Enrolls)"
                }
            ],
            "secondaryOutcomes": [
                {
                    "measure": "Time to Composite Clinical Outcome of a Sustained Decline of >=30 Percent (%) in eGFR, the Onset of end-stage Kidney Disease or Death",
                    "timeFrame": "From Baseline Through Study Completion (Approximately 2 Years After the Last Participant Enrolls)"
                },
                {
                    "measure": "Safety and Tolerability as Assessed by Number of Participants With Adverse events (AEs) and Serious Adverse Events (SAEs)",
                    "timeFrame": "Day 1 Through Study Completion (Approximately 2 Years After the Last Participant Enrolls)"
                },
                {
                    "measure": "Maximum Plasma Concentration (Cmax) of VX-147",
                    "timeFrame": "Day 1 and Week 40"
                },
                {
                    "measure": "Area Under the Concentration Versus Time Curve During a Dosing Interval (AUCtau) of VX-147",
                    "timeFrame": "Day 1 and Week 40"
                },
                {
                    "measure": "Observed Pre-dose Plasma Concentration (Ctrough) of VX-147",
                    "timeFrame": "Day 1 up to Week 40"
                },
                {
                    "measure": "Acceptability Tablet Formulation of VX-147 in Pediatric Participants using the Convenience Domain of the Treatment Satisfaction Questionnaire for Medication (TSQM) Version 1.4",
                    "timeFrame": "Day 1 and Week 48"
                }
            ]
        },
        "eligibilityModule": {
            "eligibilityCriteria": "Key Inclusion Criteria:\n\n* APOL1 genotype of G1/G1, G2/G2, or G1/G2\n* Proteinuric kidney disease\n\nKey Exclusion Criteria:\n\n* Solid organ or bone marrow transplant\n* Uncontrolled hypertension\n* History of diabetes mellitus\n* Known underlying cause of kidney disease including but not limited to sickle cell disease\n\nOther protocol defined Inclusion/Exclusion criteria apply.",
            "healthyVolunteers": false,
            "sex": "ALL",
            "minimumAge": "10 Years",
            "maximumAge": "65 Years",
            "stdAges": [
                "CHILD",
                "ADULT",
                "OLDER_ADULT"
            ]
        },
        "contactsLocationsModule": {
            "centralContacts": [
                {
                    "name": "Medical Information",
                    "role": "CONTACT",
                    "phone": "617-341-6777",
                    "email": "medicalinfo@vrtx.com"
                }
            ],
            "locations": [
                {
                    "facility": "Nephrology Associates",
                    "status": "RECRUITING",
                    "city": "Fairhope",
                    "state": "Alabama",
                    "zip": "36532",
                    "country": "United States",
                    "geoPoint": {
                        "lat": 30.52297,
                        "lon": -87.90333
                    }
                },
                {
                    "facility": "Nephrology Consultants, LLC",
                    "status": "RECRUITING",
                    "city": "Huntsville",
                    "state": "Alabama",
                    "zip": "35805",
                    "country": "United States",
                    "geoPoint": {
                        "lat": 34.7304,
                        "lon": -86.58594
                    }
                },
                {
                    "facility": "EmVenio Research",
                    "status": "RECRUITING",
                    "city": "Vestavia Hills",
                    "state": "Alabama",
                    "zip": "35216",
                    "country": "United States",
                    "geoPoint": {
                        "lat": 33.44872,
                        "lon": -86.78777
                    }
                },
                {
                    "facility": "AKDHC Medical Research Service LLC - Banner Desert Office",
                    "status": "RECRUITING",
                    "city": "Mesa",
                    "state": "Arizona",
                    "zip": "85202",
                    "country": "United States",
                    "geoPoint": {
                        "lat": 33.42227,
                        "lon": -111.82264
                    }
                },
                {
                    "facility": "AKDHC Medical Research Service LLC",
                    "status": "WITHDRAWN",
                    "city": "Phoenix",
                    "state": "Arizona",
                    "zip": "85016",
                    "country": "United States",
                    "geoPoint": {
                        "lat": 33.44838,
                        "lon": -112.07404
                    }
                },
                {
                    "facility": "Cardiology and Medicine Clinic, P.A.",
                    "status": "RECRUITING",
                    "city": "Little Rock",
                    "state": "Arkansas",
                    "zip": "72204",
                    "country": "United States",
                    "geoPoint": {
                        "lat": 34.74648,
                        "lon": -92.28959
                    }
                },
                {
                    "facility": "University of Arkansas for Medical Sciences",
                    "status": "RECRUITING",
                    "city": "Little Rock",
                    "state": "Arkansas",
                    "zip": "72205",
                    "country": "United States",
                    "geoPoint": {
                        "lat": 34.74648,
                        "lon": -92.28959
                    }
                },
                {
                    "facility": "The Medical Research Group, Inc",
                    "status": "RECRUITING",
                    "city": "Fresno",
                    "state": "California",
                    "zip": "93720",
                    "country": "United States",
                    "geoPoint": {
                        "lat": 36.74773,
                        "lon": -119.77237
                    }
                },
                {
                    "facility": "Amicis Research Center",
                    "status": "RECRUITING",
                    "city": "Granada Hills",
                    "state": "California",
                    "zip": "91344",
                    "country": "United States",
                    "geoPoint": {
                        "lat": 34.26472,
                        "lon": -118.52314
                    }
                },
                {
                    "facility": "Renal Consultants Medical Group",
                    "status": "RECRUITING",
                    "city": "Granada Hills",
                    "state": "California",
                    "zip": "91344",
                    "country": "United States",
                    "geoPoint": {
                        "lat": 34.26472,
                        "lon": -118.52314
                    }
                },
                {
                    "facility": "Eastside Clinical Research Associates",
                    "status": "RECRUITING",
                    "city": "Los Angeles",
                    "state": "California",
                    "zip": "90022",
                    "country": "United States",
                    "geoPoint": {
                        "lat": 34.05223,
                        "lon": -118.24368
                    }
                },
                {
                    "facility": "Kaiser Permanente - Los Angeles Medical Center",
                    "status": "RECRUITING",
                    "city": "Los Angeles",
                    "state": "California",
                    "zip": "90027",
                    "country": "United States",
                    "geoPoint": {
                        "lat": 34.05223,
                        "lon": -118.24368
                    }
                },
                {
                    "facility": "Cedars-Sinai Medical Center",
                    "status": "RECRUITING",
                    "city": "Los Angeles",
                    "state": "California",
                    "zip": "90048",
                    "country": "United States",
                    "geoPoint": {
                        "lat": 34.05223,
                        "lon": -118.24368
                    }
                },
                {
                    "facility": "UCLA Division of Nephrology",
                    "status": "RECRUITING",
                    "city": "Los Angeles",
                    "state": "California",
                    "zip": "90095",
                    "country": "United States",
                    "geoPoint": {
                        "lat": 34.05223,
                        "lon": -118.24368
                    }
                },
                {
                    "facility": "UCI Center for Clinical Research",
                    "status": "RECRUITING",
                    "city": "Orange",
                    "state": "California",
                    "zip": "92868",
                    "country": "United States",
                    "geoPoint": {
                        "lat": 33.78779,
                        "lon": -117.85311
                    }
                },
                {
                    "facility": "Kaiser Permanente, Sacramento",
                    "status": "RECRUITING",
                    "city": "Sacramento",
                    "state": "California",
                    "zip": "95825",
                    "country": "United States",
                    "geoPoint": {
                        "lat": 38.58157,
                        "lon": -121.4944
                    }
                },
                {
                    "facility": "UCSF School of Medicine",
                    "status": "RECRUITING",
                    "city": "San Francisco",
                    "state": "California",
                    "zip": "94143",
                    "country": "United States",
                    "geoPoint": {
                        "lat": 37.77493,
                        "lon": -122.41942
                    }
                },
                {
                    "facility": "Lundquist Institute for Biomedical Innovation at Harbor-UCLA Medical Center",
                    "status": "RECRUITING",
                    "city": "Torrance",
                    "state": "California",
                    "zip": "90502",
                    "country": "United States",
                    "geoPoint": {
                        "lat": 33.83585,
                        "lon": -118.34063
                    }
                },
                {
                    "facility": "Kidney and Hypertension Center",
                    "status": "RECRUITING",
                    "city": "Victorville",
                    "state": "California",
                    "zip": "92395",
                    "country": "United States",
                    "geoPoint": {
                        "lat": 34.53611,
                        "lon": -117.29116
                    }
                },
                {
                    "facility": "Greater Hartford Nephrology",
                    "status": "RECRUITING",
                    "city": "Bloomfield",
                    "state": "Connecticut",
                    "zip": "06002",
                    "country": "United States",
                    "geoPoint": {
                        "lat": 41.82649,
                        "lon": -72.73009
                    }
                },
                {
                    "facility": "Nephrology & Hypertension Associates, PC",
                    "status": "RECRUITING",
                    "city": "Middlebury",
                    "state": "Connecticut",
                    "zip": "06762",
                    "country": "United States",
                    "geoPoint": {
                        "lat": 41.52787,
                        "lon": -73.12761
                    }
                },
                {
                    "facility": "Yale University",
                    "status": "RECRUITING",
                    "city": "New Haven",
                    "state": "Connecticut",
                    "zip": "06510",
                    "country": "United States",
                    "geoPoint": {
                        "lat": 41.30815,
                        "lon": -72.92816
                    }
                },
                {
                    "facility": "Children's National Hospital",
                    "status": "RECRUITING",
                    "city": "Washington",
                    "state": "District of Columbia",
                    "zip": "20010",
                    "country": "United States",
                    "geoPoint": {
                        "lat": 38.89511,
                        "lon": -77.03637
                    }
                },
                {
                    "facility": "The George Washington University Medical Faculty Associates - Kidney Disease & Hypertension",
                    "status": "RECRUITING",
                    "city": "Washington",
                    "state": "District of Columbia",
                    "zip": "20037",
                    "country": "United States",
                    "geoPoint": {
                        "lat": 38.89511,
                        "lon": -77.03637
                    }
                },
                {
                    "facility": "Bay Pines Healthcare System",
                    "status": "RECRUITING",
                    "city": "Bay Pines",
                    "state": "Florida",
                    "zip": "33744",
                    "country": "United States",
                    "geoPoint": {
                        "lat": 27.81419,
                        "lon": -82.77816
                    }
                },
                {
                    "facility": "Nova Clinical Research, LLC",
                    "status": "RECRUITING",
                    "city": "Bradenton",
                    "state": "Florida",
                    "zip": "34209",
                    "country": "United States",
                    "geoPoint": {
                        "lat": 27.49893,
                        "lon": -82.57482
                    }
                },
                {
                    "facility": "Clinical Research of Brandon, LLC",
                    "status": "RECRUITING",
                    "city": "Brandon",
                    "state": "Florida",
                    "zip": "33511-5937",
                    "country": "United States",
                    "geoPoint": {
                        "lat": 27.9378,
                        "lon": -82.28592
                    }
                },
                {
                    "facility": "AMR-Miami",
                    "status": "RECRUITING",
                    "city": "Coral Gables",
                    "state": "Florida",
                    "zip": "33134",
                    "country": "United States",
                    "geoPoint": {
                        "lat": 25.72149,
                        "lon": -80.26838
                    }
                },
                {
                    "facility": "Horizon Research Group, LLC",
                    "status": "RECRUITING",
                    "city": "Coral Gables",
                    "state": "Florida",
                    "zip": "33134",
                    "country": "United States",
                    "geoPoint": {
                        "lat": 25.72149,
                        "lon": -80.26838
                    }
                },
                {
                    "facility": "South Florida Nephrology Group PA, Research Div.",
                    "status": "RECRUITING",
                    "city": "Coral Springs",
                    "state": "Florida",
                    "zip": "33071",
                    "country": "United States",
                    "geoPoint": {
                        "lat": 26.27119,
                        "lon": -80.2706
                    }
                },
                {
                    "facility": "Delray Physician Care Center",
                    "status": "RECRUITING",
                    "city": "Delray Beach",
                    "state": "Florida",
                    "zip": "33445",
                    "country": "United States",
                    "geoPoint": {
                        "lat": 26.46146,
                        "lon": -80.07282
                    }
                },
                {
                    "facility": "North Florida/South Georgia Veterans Health System",
                    "status": "RECRUITING",
                    "city": "Gainesville",
                    "state": "Florida",
                    "zip": "32608",
                    "country": "United States",
                    "geoPoint": {
                        "lat": 29.65163,
                        "lon": -82.32483
                    }
                },
                {
                    "facility": "University of Florida, Shands Hospital",
                    "status": "RECRUITING",
                    "city": "Gainesville",
                    "state": "Florida",
                    "zip": "32610",
                    "country": "United States",
                    "geoPoint": {
                        "lat": 29.65163,
                        "lon": -82.32483
                    }
                },
                {
                    "facility": "Velocity Clinical Research - Hallandale Beach",
                    "status": "RECRUITING",
                    "city": "Hallandale Beach",
                    "state": "Florida",
                    "zip": "33009",
                    "country": "United States",
                    "geoPoint": {
                        "lat": 25.9812,
                        "lon": -80.14838
                    }
                },
                {
                    "facility": "Qway Research",
                    "status": "RECRUITING",
                    "city": "Hialeah",
                    "state": "Florida",
                    "zip": "33010",
                    "country": "United States",
                    "geoPoint": {
                        "lat": 25.8576,
                        "lon": -80.27811
                    }
                },
                {
                    "facility": "Elixia Pines, LLC",
                    "status": "COMPLETED",
                    "city": "Hollywood",
                    "state": "Florida",
                    "zip": "33024",
                    "country": "United States",
                    "geoPoint": {
                        "lat": 26.0112,
                        "lon": -80.14949
                    }
                },
                {
                    "facility": "South Florida Research Institute",
                    "status": "RECRUITING",
                    "city": "Lauderdale Lakes",
                    "state": "Florida",
                    "zip": "33313",
                    "country": "United States",
                    "geoPoint": {
                        "lat": 26.16647,
                        "lon": -80.20838
                    }
                },
                {
                    "facility": "Total Research Group, LLC",
                    "status": "RECRUITING",
                    "city": "Miami",
                    "state": "Florida",
                    "zip": "33126",
                    "country": "United States",
                    "geoPoint": {
                        "lat": 25.77427,
                        "lon": -80.19366
                    }
                },
                {
                    "facility": "Cordova Research Institute",
                    "status": "RECRUITING",
                    "city": "Miami",
                    "state": "Florida",
                    "zip": "33155",
                    "country": "United States",
                    "geoPoint": {
                        "lat": 25.77427,
                        "lon": -80.19366
                    }
                },
                {
                    "facility": "MedBio Trials",
                    "status": "WITHDRAWN",
                    "city": "Miami",
                    "state": "Florida",
                    "zip": "33180",
                    "country": "United States",
                    "geoPoint": {
                        "lat": 25.77427,
                        "lon": -80.19366
                    }
                },
                {
                    "facility": "Elixia Central",
                    "status": "RECRUITING",
                    "city": "Orlando",
                    "state": "Florida",
                    "zip": "32806",
                    "country": "United States",
                    "geoPoint": {
                        "lat": 28.53834,
                        "lon": -81.37924
                    }
                },
                {
                    "facility": "Omega Research Orlando, LLC",
                    "status": "RECRUITING",
                    "city": "Orlando",
                    "state": "Florida",
                    "zip": "32808",
                    "country": "United States",
                    "geoPoint": {
                        "lat": 28.53834,
                        "lon": -81.37924
                    }
                },
                {
                    "facility": "Mid Florida Kidney and Hypertension Care, PL",
                    "status": "RECRUITING",
                    "city": "Sanford",
                    "state": "Florida",
                    "zip": "32771",
                    "country": "United States",
                    "geoPoint": {
                        "lat": 28.80041,
                        "lon": -81.27319
                    }
                },
                {
                    "facility": "Genesis Clinical Research",
                    "status": "COMPLETED",
                    "city": "Tampa",
                    "state": "Florida",
                    "zip": "33603",
                    "country": "United States",
                    "geoPoint": {
                        "lat": 27.94752,
                        "lon": -82.45843
                    }
                },
                {
                    "facility": "Elixia Tampa, LLC",
                    "status": "ACTIVE_NOT_RECRUITING",
                    "city": "Tampa",
                    "state": "Florida",
                    "zip": "33618",
                    "country": "United States",
                    "geoPoint": {
                        "lat": 27.94752,
                        "lon": -82.45843
                    }
                },
                {
                    "facility": "Emory School of Medicine - Renal Division",
                    "status": "RECRUITING",
                    "city": "Atlanta",
                    "state": "Georgia",
                    "zip": "30308",
                    "country": "United States",
                    "geoPoint": {
                        "lat": 33.749,
                        "lon": -84.38798
                    }
                },
                {
                    "facility": "Advanced Clinical Research of Atlanta",
                    "status": "RECRUITING",
                    "city": "Atlanta",
                    "state": "Georgia",
                    "zip": "30309",
                    "country": "United States",
                    "geoPoint": {
                        "lat": 33.749,
                        "lon": -84.38798
                    }
                },
                {
                    "facility": "Morehouse School of Medicine, Grady Memorial Hospital",
                    "status": "RECRUITING",
                    "city": "Atlanta",
                    "state": "Georgia",
                    "zip": "30310",
                    "country": "United States",
                    "geoPoint": {
                        "lat": 33.749,
                        "lon": -84.38798
                    }
                },
                {
                    "facility": "Children's Healthcare of Atlanta - Center for Advanced Pediatrics",
                    "status": "RECRUITING",
                    "city": "Atlanta",
                    "state": "Georgia",
                    "zip": "30322",
                    "country": "United States",
                    "geoPoint": {
                        "lat": 33.749,
                        "lon": -84.38798
                    }
                },
                {
                    "facility": "Fides Clinical Research",
                    "status": "RECRUITING",
                    "city": "Atlanta",
                    "state": "Georgia",
                    "zip": "30342",
                    "country": "United States",
                    "geoPoint": {
                        "lat": 33.749,
                        "lon": -84.38798
                    }
                },
                {
                    "facility": "Medical College of Georgia (MCG)",
                    "status": "RECRUITING",
                    "city": "Augusta",
                    "state": "Georgia",
                    "zip": "30912-3140",
                    "country": "United States",
                    "geoPoint": {
                        "lat": 33.47097,
                        "lon": -81.97484
                    }
                },
                {
                    "facility": "Coastal Medical Research",
                    "status": "ACTIVE_NOT_RECRUITING",
                    "city": "Brunswick",
                    "state": "Georgia",
                    "zip": "31520",
                    "country": "United States",
                    "geoPoint": {
                        "lat": 31.14995,
                        "lon": -81.49149
                    }
                },
                {
                    "facility": "Clincept - Warm Springs",
                    "status": "RECRUITING",
                    "city": "Columbus",
                    "state": "Georgia",
                    "zip": "31904",
                    "country": "United States",
                    "geoPoint": {
                        "lat": 32.46098,
                        "lon": -84.98771
                    }
                },
                {
                    "facility": "Renal Associates, LLC",
                    "status": "RECRUITING",
                    "city": "Columbus",
                    "state": "Georgia",
                    "zip": "31904",
                    "country": "United States",
                    "geoPoint": {
                        "lat": 32.46098,
                        "lon": -84.98771
                    }
                },
                {
                    "facility": "Atlanta VA Healthcare System",
                    "status": "RECRUITING",
                    "city": "Decatur",
                    "state": "Georgia",
                    "zip": "30033",
                    "country": "United States",
                    "geoPoint": {
                        "lat": 33.77483,
                        "lon": -84.29631
                    }
                },
                {
                    "facility": "Southeast Kidney Associates",
                    "status": "RECRUITING",
                    "city": "East Point",
                    "state": "Georgia",
                    "zip": "30344",
                    "country": "United States",
                    "geoPoint": {
                        "lat": 33.67955,
                        "lon": -84.43937
                    }
                },
                {
                    "facility": "Javara Inc./Privia Medical Group Georgia, PLLC",
                    "status": "RECRUITING",
                    "city": "Fayetteville",
                    "state": "Georgia",
                    "zip": "30214",
                    "country": "United States",
                    "geoPoint": {
                        "lat": 33.44873,
                        "lon": -84.45493
                    }
                },
                {
                    "facility": "Georgia Nephrology",
                    "status": "RECRUITING",
                    "city": "Lawrenceville",
                    "state": "Georgia",
                    "zip": "30046",
                    "country": "United States",
                    "geoPoint": {
                        "lat": 33.95621,
                        "lon": -83.98796
                    }
                },
                {
                    "facility": "Javara Inc./Privia Medical Group Georgia, LLC",
                    "status": "RECRUITING",
                    "city": "Savannah",
                    "state": "Georgia",
                    "zip": "31406",
                    "country": "United States",
                    "geoPoint": {
                        "lat": 32.08354,
                        "lon": -81.09983
                    }
                },
                {
                    "facility": "Inova Clinical Trials and Research Center",
                    "status": "RECRUITING",
                    "city": "Tyrone",
                    "state": "Georgia",
                    "zip": "30290",
                    "country": "United States",
                    "geoPoint": {
                        "lat": 33.47123,
                        "lon": -84.59715
                    }
                },
                {
                    "facility": "EmVenio Research",
                    "status": "RECRUITING",
                    "city": "Chicago",
                    "state": "Illinois",
                    "zip": "60612",
                    "country": "United States",
                    "geoPoint": {
                        "lat": 41.85003,
                        "lon": -87.65005
                    }
                },
                {
                    "facility": "NANI Research LLC",
                    "status": "RECRUITING",
                    "city": "Evergreen Park",
                    "state": "Illinois",
                    "zip": "60805",
                    "country": "United States",
                    "geoPoint": {
                        "lat": 41.72059,
                        "lon": -87.70172
                    }
                },
                {
                    "facility": "Edward Hines Jr VA Hospital",
                    "status": "RECRUITING",
                    "city": "Hines",
                    "state": "Illinois",
                    "zip": "60141",
                    "country": "United States",
                    "geoPoint": {
                        "lat": 41.85364,
                        "lon": -87.8395
                    }
                },
                {
                    "facility": "Essential Concepts Research Solutions",
                    "status": "COMPLETED",
                    "city": "Palos Hills",
                    "state": "Illinois",
                    "zip": "60465",
                    "country": "United States",
                    "geoPoint": {
                        "lat": 41.6967,
                        "lon": -87.817
                    }
                },
                {
                    "facility": "Indiana University",
                    "status": "RECRUITING",
                    "city": "Indianapolis",
                    "state": "Indiana",
                    "zip": "46202",
                    "country": "United States",
                    "geoPoint": {
                        "lat": 39.76838,
                        "lon": -86.15804
                    }
                },
                {
                    "facility": "Nephrology Physicians, LLC",
                    "status": "COMPLETED",
                    "city": "Mishawaka",
                    "state": "Indiana",
                    "zip": "46545",
                    "country": "United States",
                    "geoPoint": {
                        "lat": 41.66199,
                        "lon": -86.15862
                    }
                },
                {
                    "facility": "University of Iowa",
                    "status": "RECRUITING",
                    "city": "Iowa City",
                    "state": "Iowa",
                    "zip": "52242",
                    "country": "United States",
                    "geoPoint": {
                        "lat": 41.66113,
                        "lon": -91.53017
                    }
                },
                {
                    "facility": "University of Kansas Medical Center",
                    "status": "RECRUITING",
                    "city": "Kansas City",
                    "state": "Kansas",
                    "zip": "66160",
                    "country": "United States",
                    "geoPoint": {
                        "lat": 39.11417,
                        "lon": -94.62746
                    }
                },
                {
                    "facility": "Premier Clinical Research",
                    "status": "COMPLETED",
                    "city": "Overland Park",
                    "state": "Kansas",
                    "zip": "66210",
                    "country": "United States",
                    "geoPoint": {
                        "lat": 38.98223,
                        "lon": -94.67079
                    }
                },
                {
                    "facility": "Renal Associates of Baton Rouge",
                    "status": "RECRUITING",
                    "city": "Baton Rouge",
                    "state": "Louisiana",
                    "zip": "70808",
                    "country": "United States",
                    "geoPoint": {
                        "lat": 30.45075,
                        "lon": -91.15455
                    }
                },
                {
                    "facility": "East Jefferson General Hospital",
                    "status": "RECRUITING",
                    "city": "Metairie",
                    "state": "Louisiana",
                    "zip": "70006",
                    "country": "United States",
                    "geoPoint": {
                        "lat": 29.98409,
                        "lon": -90.15285
                    }
                },
                {
                    "facility": "Louisiana State University Health Sciences Center LSUHSC",
                    "status": "RECRUITING",
                    "city": "New Orleans",
                    "state": "Louisiana",
                    "zip": "70112",
                    "country": "United States",
                    "geoPoint": {
                        "lat": 29.95465,
                        "lon": -90.07507
                    }
                },
                {
                    "facility": "University Medical Center - New Orleans",
                    "status": "RECRUITING",
                    "city": "New Orleans",
                    "state": "Louisiana",
                    "zip": "70112",
                    "country": "United States",
                    "geoPoint": {
                        "lat": 29.95465,
                        "lon": -90.07507
                    }
                },
                {
                    "facility": "Ochsner Medical Center - New Orleans",
                    "status": "RECRUITING",
                    "city": "New Orleans",
                    "state": "Louisiana",
                    "zip": "70121",
                    "country": "United States",
                    "geoPoint": {
                        "lat": 29.95465,
                        "lon": -90.07507
                    }
                },
                {
                    "facility": "Northwest Louisiana Nephrology, LLC - Shreveport",
                    "status": "RECRUITING",
                    "city": "Shreveport",
                    "state": "Louisiana",
                    "zip": "71101",
                    "country": "United States",
                    "geoPoint": {
                        "lat": 32.52515,
                        "lon": -93.75018
                    }
                },
                {
                    "facility": "Javara Inc./Privia Medical Group, LLC MidAtlantic - Main Research Site",
                    "status": "RECRUITING",
                    "city": "Annapolis",
                    "state": "Maryland",
                    "zip": "21401",
                    "country": "United States",
                    "geoPoint": {
                        "lat": 38.97845,
                        "lon": -76.49218
                    }
                },
                {
                    "facility": "University of Maryland Medical Center",
                    "status": "COMPLETED",
                    "city": "Baltimore",
                    "state": "Maryland",
                    "zip": "21201",
                    "country": "United States",
                    "geoPoint": {
                        "lat": 39.29038,
                        "lon": -76.61219
                    }
                },
                {
                    "facility": "Johns Hopkins Hospital",
                    "status": "RECRUITING",
                    "city": "Baltimore",
                    "state": "Maryland",
                    "zip": "21287",
                    "country": "United States",
                    "geoPoint": {
                        "lat": 39.29038,
                        "lon": -76.61219
                    }
                },
                {
                    "facility": "Kaiser Permanente, Mid-Atlantic",
                    "status": "RECRUITING",
                    "city": "Gaithersburg",
                    "state": "Maryland",
                    "zip": "20879",
                    "country": "United States",
                    "geoPoint": {
                        "lat": 39.14344,
                        "lon": -77.20137
                    }
                },
                {
                    "facility": "Javara Inc./Privia Medical Group, LLC MidAtlantic-Silver Spring, MD",
                    "status": "RECRUITING",
                    "city": "Silver Spring",
                    "state": "Maryland",
                    "zip": "20901",
                    "country": "United States",
                    "geoPoint": {
                        "lat": 38.99067,
                        "lon": -77.02609
                    }
                },
                {
                    "facility": "Tufts Medical Center",
                    "status": "RECRUITING",
                    "city": "Boston",
                    "state": "Massachusetts",
                    "zip": "02111",
                    "country": "United States",
                    "geoPoint": {
                        "lat": 42.35843,
                        "lon": -71.05977
                    }
                },
                {
                    "facility": "Boston Medical Center",
                    "status": "RECRUITING",
                    "city": "Boston",
                    "state": "Massachusetts",
                    "zip": "02118",
                    "country": "United States",
                    "geoPoint": {
                        "lat": 42.35843,
                        "lon": -71.05977
                    }
                },
                {
                    "facility": "Beth Israel Deaconess Medical Center",
                    "status": "RECRUITING",
                    "city": "Boston",
                    "state": "Massachusetts",
                    "zip": "02215",
                    "country": "United States",
                    "geoPoint": {
                        "lat": 42.35843,
                        "lon": -71.05977
                    }
                },
                {
                    "facility": "Renal and Transplant Associates of New England, PC",
                    "status": "COMPLETED",
                    "city": "Springfield",
                    "state": "Massachusetts",
                    "zip": "01107",
                    "country": "United States",
                    "geoPoint": {
                        "lat": 42.10148,
                        "lon": -72.58981
                    }
                },
                {
                    "facility": "Kidney Care and Transplant Services of New England",
                    "status": "RECRUITING",
                    "city": "West Springfield",
                    "state": "Massachusetts",
                    "zip": "01089",
                    "country": "United States",
                    "geoPoint": {
                        "lat": 42.10704,
                        "lon": -72.62037
                    }
                },
                {
                    "facility": "University of Michigan Health System - A. Alfred Taubman Health Care Center - Nephrology Clinic",
                    "status": "RECRUITING",
                    "city": "Ann Arbor",
                    "state": "Michigan",
                    "zip": "48109",
                    "country": "United States",
                    "geoPoint": {
                        "lat": 42.27756,
                        "lon": -83.74088
                    }
                },
                {
                    "facility": "Henry Ford Hospital",
                    "status": "RECRUITING",
                    "city": "Detroit",
                    "state": "Michigan",
                    "zip": "48202",
                    "country": "United States",
                    "geoPoint": {
                        "lat": 42.33143,
                        "lon": -83.04575
                    }
                },
                {
                    "facility": "AA Medical Research Center",
                    "status": "RECRUITING",
                    "city": "Flint",
                    "state": "Michigan",
                    "zip": "48504",
                    "country": "United States",
                    "geoPoint": {
                        "lat": 43.01253,
                        "lon": -83.68746
                    }
                },
                {
                    "facility": "Sparrow Clinical Research Institute",
                    "status": "RECRUITING",
                    "city": "Lansing",
                    "state": "Michigan",
                    "zip": "48912",
                    "country": "United States",
                    "geoPoint": {
                        "lat": 42.73253,
                        "lon": -84.55553
                    }
                },
                {
                    "facility": "St. Clair Nephrology Research",
                    "status": "COMPLETED",
                    "city": "Roseville",
                    "state": "Michigan",
                    "zip": "48066",
                    "country": "United States",
                    "geoPoint": {
                        "lat": 42.49726,
                        "lon": -82.93714
                    }
                },
                {
                    "facility": "Center for Advanced Kidney Research",
                    "status": "RECRUITING",
                    "city": "Saint Clair Shores",
                    "state": "Michigan",
                    "zip": "48081",
                    "country": "United States",
                    "geoPoint": {
                        "lat": 42.49698,
                        "lon": -82.88881
                    }
                },
                {
                    "facility": "InterMed Consultants",
                    "status": "ACTIVE_NOT_RECRUITING",
                    "city": "Edina",
                    "state": "Minnesota",
                    "zip": "55435",
                    "country": "United States",
                    "geoPoint": {
                        "lat": 44.88969,
                        "lon": -93.34995
                    }
                },
                {
                    "facility": "Minneapolis VA Healthcare System",
                    "status": "RECRUITING",
                    "city": "Minneapolis",
                    "state": "Minnesota",
                    "zip": "55417",
                    "country": "United States",
                    "geoPoint": {
                        "lat": 44.97997,
                        "lon": -93.26384
                    }
                },
                {
                    "facility": "Nephrology Associates, P.C.",
                    "status": "RECRUITING",
                    "city": "Columbus",
                    "state": "Mississippi",
                    "zip": "39705",
                    "country": "United States",
                    "geoPoint": {
                        "lat": 33.49567,
                        "lon": -88.42726
                    }
                },
                {
                    "facility": "University of Mississippi",
                    "status": "RECRUITING",
                    "city": "Grenada",
                    "state": "Mississippi",
                    "zip": "38901",
                    "country": "United States",
                    "geoPoint": {
                        "lat": 33.769,
                        "lon": -89.80842
                    }
                },
                {
                    "facility": "Nephrology and Hypertension Associates, LTD",
                    "status": "RECRUITING",
                    "city": "Tupelo",
                    "state": "Mississippi",
                    "zip": "38801",
                    "country": "United States",
                    "geoPoint": {
                        "lat": 34.25807,
                        "lon": -88.70464
                    }
                },
                {
                    "facility": "Center for Specialized Medicine - SSM Health Saint Louis University Hospital",
                    "status": "RECRUITING",
                    "city": "Saint Louis",
                    "state": "Missouri",
                    "zip": "63104",
                    "country": "United States",
                    "geoPoint": {
                        "lat": 38.62727,
                        "lon": -90.19789
                    }
                },
                {
                    "facility": "Washington University Saint Louis",
                    "status": "RECRUITING",
                    "city": "Saint Louis",
                    "state": "Missouri",
                    "zip": "63130",
                    "country": "United States",
                    "geoPoint": {
                        "lat": 38.62727,
                        "lon": -90.19789
                    }
                },
                {
                    "facility": "St. Louis Heart and Vascular, P.C.",
                    "status": "RECRUITING",
                    "city": "Saint Louis",
                    "state": "Missouri",
                    "zip": "63136",
                    "country": "United States",
                    "geoPoint": {
                        "lat": 38.62727,
                        "lon": -90.19789
                    }
                },
                {
                    "facility": "Nevada Kidney Disease and Hypertension Centers",
                    "status": "WITHDRAWN",
                    "city": "Las Vegas",
                    "state": "Nevada",
                    "zip": "89106",
                    "country": "United States",
                    "geoPoint": {
                        "lat": 36.17497,
                        "lon": -115.13722
                    }
                },
                {
                    "facility": "DaVita Clinical Research",
                    "status": "RECRUITING",
                    "city": "Las Vegas",
                    "state": "Nevada",
                    "zip": "89107",
                    "country": "United States",
                    "geoPoint": {
                        "lat": 36.17497,
                        "lon": -115.13722
                    }
                },
                {
                    "facility": "Hackensack University Medical Center",
                    "status": "RECRUITING",
                    "city": "Hackensack",
                    "state": "New Jersey",
                    "zip": "07601",
                    "country": "United States",
                    "geoPoint": {
                        "lat": 40.88593,
                        "lon": -74.04347
                    }
                },
                {
                    "facility": "Rutgers New Jersey Medical School",
                    "status": "RECRUITING",
                    "city": "Newark",
                    "state": "New Jersey",
                    "zip": "07103",
                    "country": "United States",
                    "geoPoint": {
                        "lat": 40.73566,
                        "lon": -74.17237
                    }
                },
                {
                    "facility": "New Mexico VA Healthcare System",
                    "status": "RECRUITING",
                    "city": "Albuquerque",
                    "state": "New Mexico",
                    "zip": "87108",
                    "country": "United States",
                    "geoPoint": {
                        "lat": 35.08449,
                        "lon": -106.65114
                    }
                },
                {
                    "facility": "Renal Medicine Associates",
                    "status": "COMPLETED",
                    "city": "Albuquerque",
                    "state": "New Mexico",
                    "zip": "87109",
                    "country": "United States",
                    "geoPoint": {
                        "lat": 35.08449,
                        "lon": -106.65114
                    }
                },
                {
                    "facility": "Albert Einstein Hospital - Montefiore Medical Center",
                    "status": "RECRUITING",
                    "city": "Bronx",
                    "state": "New York",
                    "zip": "10461-1900",
                    "country": "United States",
                    "geoPoint": {
                        "lat": 40.84985,
                        "lon": -73.86641
                    }
                },
                {
                    "facility": "Kidney Medical Associates, PLLC",
                    "status": "COMPLETED",
                    "city": "Bronx",
                    "state": "New York",
                    "zip": "10461",
                    "country": "United States",
                    "geoPoint": {
                        "lat": 40.84985,
                        "lon": -73.86641
                    }
                },
                {
                    "facility": "Montefiore Medical Center",
                    "status": "RECRUITING",
                    "city": "Bronx",
                    "state": "New York",
                    "zip": "10467",
                    "country": "United States",
                    "geoPoint": {
                        "lat": 40.84985,
                        "lon": -73.86641
                    }
                },
                {
                    "facility": "James J. Peters VA Medical Center",
                    "status": "RECRUITING",
                    "city": "Bronx",
                    "state": "New York",
                    "zip": "10468",
                    "country": "United States",
                    "geoPoint": {
                        "lat": 40.84985,
                        "lon": -73.86641
                    }
                },
                {
                    "facility": "SUNY Downstate Health Sciences University",
                    "status": "RECRUITING",
                    "city": "Brooklyn",
                    "state": "New York",
                    "zip": "11203",
                    "country": "United States",
                    "geoPoint": {
                        "lat": 40.6501,
                        "lon": -73.94958
                    }
                },
                {
                    "facility": "Nephrology Associates, P.C. - Queens",
                    "status": "RECRUITING",
                    "city": "Flushing",
                    "state": "New York",
                    "zip": "11365",
                    "country": "United States",
                    "geoPoint": {
                        "lat": 40.76538,
                        "lon": -73.81736
                    }
                },
                {
                    "facility": "Zucker School of Medicine at Hofstra/Northwell",
                    "status": "RECRUITING",
                    "city": "Great Neck",
                    "state": "New York",
                    "zip": "11021",
                    "country": "United States",
                    "geoPoint": {
                        "lat": 40.80066,
                        "lon": -73.72846
                    }
                },
                {
                    "facility": "Clinical Research Development Associates LLC",
                    "status": "RECRUITING",
                    "city": "Laurelton",
                    "state": "New York",
                    "zip": "11413",
                    "country": "United States",
                    "geoPoint": {
                        "lat": 40.67016,
                        "lon": -73.74664
                    }
                },
                {
                    "facility": "VA New York Harbor Healthcare System",
                    "status": "RECRUITING",
                    "city": "New York",
                    "state": "New York",
                    "zip": "10010",
                    "country": "United States",
                    "geoPoint": {
                        "lat": 40.71427,
                        "lon": -74.00597
                    }
                },
                {
                    "facility": "New York University Grossman School of Medicine",
                    "status": "RECRUITING",
                    "city": "New York",
                    "state": "New York",
                    "zip": "10016",
                    "country": "United States",
                    "geoPoint": {
                        "lat": 40.71427,
                        "lon": -74.00597
                    }
                },
                {
                    "facility": "The Rogosin Institute - The Rogosin Kidney Center",
                    "status": "RECRUITING",
                    "city": "New York",
                    "state": "New York",
                    "zip": "10021",
                    "country": "United States",
                    "geoPoint": {
                        "lat": 40.71427,
                        "lon": -74.00597
                    }
                },
                {
                    "facility": "Icahn School of Medicine at Mount Sinai",
                    "status": "RECRUITING",
                    "city": "New York",
                    "state": "New York",
                    "zip": "10029",
                    "country": "United States",
                    "geoPoint": {
                        "lat": 40.71427,
                        "lon": -74.00597
                    }
                },
                {
                    "facility": "Columbia University - Division of Nephrology",
                    "status": "RECRUITING",
                    "city": "New York",
                    "state": "New York",
                    "zip": "10032",
                    "country": "United States",
                    "geoPoint": {
                        "lat": 40.71427,
                        "lon": -74.00597
                    }
                },
                {
                    "facility": "NYC Health + Hospital/Harlem",
                    "status": "RECRUITING",
                    "city": "New York",
                    "state": "New York",
                    "zip": "10037",
                    "country": "United States",
                    "geoPoint": {
                        "lat": 40.71427,
                        "lon": -74.00597
                    }
                },
                {
                    "facility": "North Carolina Nephrology P.A. - Cary Office",
                    "status": "RECRUITING",
                    "city": "Cary",
                    "state": "North Carolina",
                    "zip": "27511",
                    "country": "United States",
                    "geoPoint": {
                        "lat": 35.79154,
                        "lon": -78.78112
                    }
                },
                {
                    "facility": "UNC Clinical and Translational Research Center",
                    "status": "RECRUITING",
                    "city": "Chapel Hill",
                    "state": "North Carolina",
                    "zip": "27599-7155",
                    "country": "United States",
                    "geoPoint": {
                        "lat": 35.9132,
                        "lon": -79.05584
                    }
                },
                {
                    "facility": "Metrolina Nephrology Associates",
                    "status": "RECRUITING",
                    "city": "Charlotte",
                    "state": "North Carolina",
                    "zip": "28208",
                    "country": "United States",
                    "geoPoint": {
                        "lat": 35.22709,
                        "lon": -80.84313
                    }
                },
                {
                    "facility": "DUHS Children's Health Center T0909",
                    "status": "RECRUITING",
                    "city": "Durham",
                    "state": "North Carolina",
                    "zip": "27710",
                    "country": "United States",
                    "geoPoint": {
                        "lat": 35.99403,
                        "lon": -78.89862
                    }
                },
                {
                    "facility": "Eastern Nephrology Associates - Greenville Office",
                    "status": "RECRUITING",
                    "city": "Greenville",
                    "state": "North Carolina",
                    "zip": "27834",
                    "country": "United States",
                    "geoPoint": {
                        "lat": 35.61266,
                        "lon": -77.36635
                    }
                },
                {
                    "facility": "Eastern Nephrology Associates - Jacksonville Office",
                    "status": "RECRUITING",
                    "city": "Jacksonville",
                    "state": "North Carolina",
                    "zip": "28546",
                    "country": "United States",
                    "geoPoint": {
                        "lat": 34.75405,
                        "lon": -77.43024
                    }
                },
                {
                    "facility": "Eastern Nephrology Associates - Kinston Office",
                    "status": "RECRUITING",
                    "city": "Kinston",
                    "state": "North Carolina",
                    "zip": "28504",
                    "country": "United States",
                    "geoPoint": {
                        "lat": 35.26266,
                        "lon": -77.58164
                    }
                },
                {
                    "facility": "Eastern Nephrology Associates - New Bern Office",
                    "status": "RECRUITING",
                    "city": "New Bern",
                    "state": "North Carolina",
                    "zip": "28562",
                    "country": "United States",
                    "geoPoint": {
                        "lat": 35.10849,
                        "lon": -77.04411
                    }
                },
                {
                    "facility": "Eastern Nephrology Associates - Wilmington Office",
                    "status": "RECRUITING",
                    "city": "Wilmington",
                    "state": "North Carolina",
                    "zip": "28401",
                    "country": "United States",
                    "geoPoint": {
                        "lat": 34.22573,
                        "lon": -77.94471
                    }
                },
                {
                    "facility": "Brookview Hills Research Associates",
                    "status": "COMPLETED",
                    "city": "Winston-Salem",
                    "state": "North Carolina",
                    "zip": "27103",
                    "country": "United States",
                    "geoPoint": {
                        "lat": 36.09986,
                        "lon": -80.24422
                    }
                },
                {
                    "facility": "Cincinnati VA Medical Center",
                    "status": "COMPLETED",
                    "city": "Cincinnati",
                    "state": "Ohio",
                    "zip": "45220",
                    "country": "United States",
                    "geoPoint": {
                        "lat": 39.12713,
                        "lon": -84.51435
                    }
                },
                {
                    "facility": "University Hospitals Cleveland Medical Center",
                    "status": "RECRUITING",
                    "city": "Cleveland",
                    "state": "Ohio",
                    "zip": "44106",
                    "country": "United States",
                    "geoPoint": {
                        "lat": 41.4995,
                        "lon": -81.69541
                    }
                },
                {
                    "facility": "Cleveland Clinic",
                    "status": "RECRUITING",
                    "city": "Cleveland",
                    "state": "Ohio",
                    "zip": "44195",
                    "country": "United States",
                    "geoPoint": {
                        "lat": 41.4995,
                        "lon": -81.69541
                    }
                },
                {
                    "facility": "Ohio State University",
                    "status": "RECRUITING",
                    "city": "Columbus",
                    "state": "Ohio",
                    "zip": "43201",
                    "country": "United States",
                    "geoPoint": {
                        "lat": 39.96118,
                        "lon": -82.99879
                    }
                },
                {
                    "facility": "Thomas Jefferson University",
                    "status": "RECRUITING",
                    "city": "Philadelphia",
                    "state": "Pennsylvania",
                    "zip": "19107",
                    "country": "United States",
                    "geoPoint": {
                        "lat": 39.95233,
                        "lon": -75.16379
                    }
                },
                {
                    "facility": "Temple University Hospital",
                    "status": "RECRUITING",
                    "city": "Philadelphia",
                    "state": "Pennsylvania",
                    "zip": "19140",
                    "country": "United States",
                    "geoPoint": {
                        "lat": 39.95233,
                        "lon": -75.16379
                    }
                },
                {
                    "facility": "Einstein Medical Center (NDKD)",
                    "status": "RECRUITING",
                    "city": "Philadelphia",
                    "state": "Pennsylvania",
                    "zip": "19141",
                    "country": "United States",
                    "geoPoint": {
                        "lat": 39.95233,
                        "lon": -75.16379
                    }
                },
                {
                    "facility": "Children's Hospital of Pittsburgh of UPMC",
                    "status": "RECRUITING",
                    "city": "Pittsburgh",
                    "state": "Pennsylvania",
                    "zip": "15224",
                    "country": "United States",
                    "geoPoint": {
                        "lat": 40.44062,
                        "lon": -79.99589
                    }
                },
                {
                    "facility": "Lifespan Clinical Research Center",
                    "status": "RECRUITING",
                    "city": "East Providence",
                    "state": "Rhode Island",
                    "zip": "02915",
                    "country": "United States",
                    "geoPoint": {
                        "lat": 41.81371,
                        "lon": -71.37005
                    }
                },
                {
                    "facility": "Medical University of South Carolina",
                    "status": "RECRUITING",
                    "city": "Charleston",
                    "state": "South Carolina",
                    "zip": "29425",
                    "country": "United States",
                    "geoPoint": {
                        "lat": 32.77657,
                        "lon": -79.93092
                    }
                },
                {
                    "facility": "Columbia Nephrology Associates, PA",
                    "status": "RECRUITING",
                    "city": "Columbia",
                    "state": "South Carolina",
                    "zip": "29203",
                    "country": "United States",
                    "geoPoint": {
                        "lat": 34.00071,
                        "lon": -81.03481
                    }
                },
                {
                    "facility": "Carolina Nephrology, PA",
                    "status": "RECRUITING",
                    "city": "Spartanburg",
                    "state": "South Carolina",
                    "zip": "29306",
                    "country": "United States",
                    "geoPoint": {
                        "lat": 34.94957,
                        "lon": -81.93205
                    }
                },
                {
                    "facility": "Southeast Renal Research Institute",
                    "status": "RECRUITING",
                    "city": "Chattanooga",
                    "state": "Tennessee",
                    "zip": "37404",
                    "country": "United States",
                    "geoPoint": {
                        "lat": 35.04563,
                        "lon": -85.30968
                    }
                },
                {
                    "facility": "Meharry Medical College",
                    "status": "RECRUITING",
                    "city": "Nashville",
                    "state": "Tennessee",
                    "zip": "37208",
                    "country": "United States",
                    "geoPoint": {
                        "lat": 36.16589,
                        "lon": -86.78444
                    }
                },
                {
                    "facility": "Vanderbilt University Medical Center, Nephrology Clinical Trials Center",
                    "status": "RECRUITING",
                    "city": "Nashville",
                    "state": "Tennessee",
                    "zip": "37232",
                    "country": "United States",
                    "geoPoint": {
                        "lat": 36.16589,
                        "lon": -86.78444
                    }
                },
                {
                    "facility": "Dallas Renal Group - Arlington",
                    "status": "RECRUITING",
                    "city": "Arlington",
                    "state": "Texas",
                    "zip": "76002",
                    "country": "United States",
                    "geoPoint": {
                        "lat": 32.73569,
                        "lon": -97.10807
                    }
                },
                {
                    "facility": "Arlington Nephrology",
                    "status": "COMPLETED",
                    "city": "Arlington",
                    "state": "Texas",
                    "zip": "76015",
                    "country": "United States",
                    "geoPoint": {
                        "lat": 32.73569,
                        "lon": -97.10807
                    }
                },
                {
                    "facility": "Baylor Scott & White Research Institute",
                    "status": "RECRUITING",
                    "city": "Dallas",
                    "state": "Texas",
                    "zip": "75204",
                    "country": "United States",
                    "geoPoint": {
                        "lat": 32.78306,
                        "lon": -96.80667
                    }
                },
                {
                    "facility": "Dallas Renal Group - 2",
                    "status": "RECRUITING",
                    "city": "Dallas",
                    "state": "Texas",
                    "zip": "75230",
                    "country": "United States",
                    "geoPoint": {
                        "lat": 32.78306,
                        "lon": -96.80667
                    }
                },
                {
                    "facility": "Nephrotex Research Group",
                    "status": "RECRUITING",
                    "city": "Dallas",
                    "state": "Texas",
                    "zip": "75231",
                    "country": "United States",
                    "geoPoint": {
                        "lat": 32.78306,
                        "lon": -96.80667
                    }
                },
                {
                    "facility": "Dallas Renal Group - 1",
                    "status": "RECRUITING",
                    "city": "Dallas",
                    "state": "Texas",
                    "zip": "75237",
                    "country": "United States",
                    "geoPoint": {
                        "lat": 32.78306,
                        "lon": -96.80667
                    }
                },
                {
                    "facility": "Dallas Nephrology Associates - Dallas Landry Office",
                    "status": "RECRUITING",
                    "city": "Dallas",
                    "state": "Texas",
                    "zip": "75246",
                    "country": "United States",
                    "geoPoint": {
                        "lat": 32.78306,
                        "lon": -96.80667
                    }
                },
                {
                    "facility": "UT Southwestern Medical Center",
                    "status": "RECRUITING",
                    "city": "Dallas",
                    "state": "Texas",
                    "zip": "75390",
                    "country": "United States",
                    "geoPoint": {
                        "lat": 32.78306,
                        "lon": -96.80667
                    }
                },
                {
                    "facility": "Davita Clinical Research - El Paso",
                    "status": "RECRUITING",
                    "city": "El Paso",
                    "state": "Texas",
                    "zip": "79925",
                    "country": "United States",
                    "geoPoint": {
                        "lat": 31.75872,
                        "lon": -106.48693
                    }
                },
                {
                    "facility": "Cook Children's Medical Center",
                    "status": "RECRUITING",
                    "city": "Fort Worth",
                    "state": "Texas",
                    "zip": "76104",
                    "country": "United States",
                    "geoPoint": {
                        "lat": 32.72541,
                        "lon": -97.32085
                    }
                },
                {
                    "facility": "Ronald Ralph MD PA",
                    "status": "RECRUITING",
                    "city": "Houston",
                    "state": "Texas",
                    "zip": "77054-2101",
                    "country": "United States",
                    "geoPoint": {
                        "lat": 29.76328,
                        "lon": -95.36327
                    }
                },
                {
                    "facility": "Prolato Clinical Research Center",
                    "status": "RECRUITING",
                    "city": "Houston",
                    "state": "Texas",
                    "zip": "77054",
                    "country": "United States",
                    "geoPoint": {
                        "lat": 29.76328,
                        "lon": -95.36327
                    }
                },
                {
                    "facility": "Houston Medical Research Institute, LLC",
                    "status": "COMPLETED",
                    "city": "Houston",
                    "state": "Texas",
                    "zip": "77074",
                    "country": "United States",
                    "geoPoint": {
                        "lat": 29.76328,
                        "lon": -95.36327
                    }
                },
                {
                    "facility": "Clinical Research Strategies - Romano North Main Office",
                    "status": "COMPLETED",
                    "city": "Houston",
                    "state": "Texas",
                    "zip": "77090",
                    "country": "United States",
                    "geoPoint": {
                        "lat": 29.76328,
                        "lon": -95.36327
                    }
                },
                {
                    "facility": "Southwest Houston Research, Ltd",
                    "status": "RECRUITING",
                    "city": "Houston",
                    "state": "Texas",
                    "zip": "77099",
                    "country": "United States",
                    "geoPoint": {
                        "lat": 29.76328,
                        "lon": -95.36327
                    }
                },
                {
                    "facility": "North Texas Kidney Disease Associates",
                    "status": "RECRUITING",
                    "city": "Lewisville",
                    "state": "Texas",
                    "zip": "75057",
                    "country": "United States",
                    "geoPoint": {
                        "lat": 33.04623,
                        "lon": -96.99417
                    }
                },
                {
                    "facility": "Texas Tech University Health Sciences Center",
                    "status": "RECRUITING",
                    "city": "Lubbock",
                    "state": "Texas",
                    "zip": "79430",
                    "country": "United States",
                    "geoPoint": {
                        "lat": 33.57786,
                        "lon": -101.85517
                    }
                },
                {
                    "facility": "San Antonio Kidney",
                    "status": "WITHDRAWN",
                    "city": "San Antonio",
                    "state": "Texas",
                    "zip": "78229",
                    "country": "United States",
                    "geoPoint": {
                        "lat": 29.42412,
                        "lon": -98.49363
                    }
                },
                {
                    "facility": "University of Texas Health San Antonio",
                    "status": "COMPLETED",
                    "city": "San Antonio",
                    "state": "Texas",
                    "zip": "78229",
                    "country": "United States",
                    "geoPoint": {
                        "lat": 29.42412,
                        "lon": -98.49363
                    }
                },
                {
                    "facility": "San Antonio Kidney",
                    "status": "ACTIVE_NOT_RECRUITING",
                    "city": "San Antonio",
                    "state": "Texas",
                    "zip": "78251",
                    "country": "United States",
                    "geoPoint": {
                        "lat": 29.42412,
                        "lon": -98.49363
                    }
                },
                {
                    "facility": "Kidney Specialists of N Houston, PLLC",
                    "status": "RECRUITING",
                    "city": "Shenandoah",
                    "state": "Texas",
                    "zip": "77384",
                    "country": "United States",
                    "geoPoint": {
                        "lat": 30.18022,
                        "lon": -95.45577
                    }
                },
                {
                    "facility": "Renal Physicians of Montgomery County, PA",
                    "status": "RECRUITING",
                    "city": "The Woodlands",
                    "state": "Texas",
                    "zip": "77384",
                    "country": "United States",
                    "geoPoint": {
                        "lat": 30.15799,
                        "lon": -95.48938
                    }
                },
                {
                    "facility": "Tranquil Clinical Research",
                    "status": "RECRUITING",
                    "city": "Webster",
                    "state": "Texas",
                    "zip": "77598",
                    "country": "United States",
                    "geoPoint": {
                        "lat": 29.53773,
                        "lon": -95.11826
                    }
                },
                {
                    "facility": "University of Virginia Health - Nephrology Clinical Research Center",
                    "status": "RECRUITING",
                    "city": "Charlottesville",
                    "state": "Virginia",
                    "zip": "22908",
                    "country": "United States",
                    "geoPoint": {
                        "lat": 38.02931,
                        "lon": -78.47668
                    }
                },
                {
                    "facility": "TKS Research, P.L.L.C.",
                    "status": "RECRUITING",
                    "city": "Norfolk",
                    "state": "Virginia",
                    "zip": "23504",
                    "country": "United States",
                    "geoPoint": {
                        "lat": 36.84681,
                        "lon": -76.28522
                    }
                },
                {
                    "facility": "York Clinical Research, LLC",
                    "status": "RECRUITING",
                    "city": "Norfolk",
                    "state": "Virginia",
                    "zip": "23504",
                    "country": "United States",
                    "geoPoint": {
                        "lat": 36.84681,
                        "lon": -76.28522
                    }
                },
                {
                    "facility": "Richmond VAMC",
                    "status": "RECRUITING",
                    "city": "Richmond",
                    "state": "Virginia",
                    "zip": "23249",
                    "country": "United States",
                    "geoPoint": {
                        "lat": 37.55376,
                        "lon": -77.46026
                    }
                },
                {
                    "facility": "Virginia Commonwealth University - Division of Nephrology",
                    "status": "RECRUITING",
                    "city": "Richmond",
                    "state": "Virginia",
                    "zip": "23298",
                    "country": "United States",
                    "geoPoint": {
                        "lat": 37.55376,
                        "lon": -77.46026
                    }
                },
                {
                    "facility": "Nephrology Associates of Tidewater, LTD",
                    "status": "COMPLETED",
                    "city": "Virginia Beach",
                    "state": "Virginia",
                    "zip": "23454",
                    "country": "United States",
                    "geoPoint": {
                        "lat": 36.85293,
                        "lon": -75.97799
                    }
                },
                {
                    "facility": "University of Washington Medical Center",
                    "status": "RECRUITING",
                    "city": "Seattle",
                    "state": "Washington",
                    "zip": "98195",
                    "country": "United States",
                    "geoPoint": {
                        "lat": 47.60621,
                        "lon": -122.33207
                    }
                },
                {
                    "facility": "Medical College of Wisconsin",
                    "status": "RECRUITING",
                    "city": "Milwaukee",
                    "state": "Wisconsin",
                    "zip": "53226",
                    "country": "United States",
                    "geoPoint": {
                        "lat": 43.0389,
                        "lon": -87.90647
                    }
                },
                {
                    "facility": "Milwaukee Nephrologists, SC",
                    "status": "RECRUITING",
                    "city": "Wauwatosa",
                    "state": "Wisconsin",
                    "zip": "53226",
                    "country": "United States",
                    "geoPoint": {
                        "lat": 43.04946,
                        "lon": -88.00759
                    }
                },
                {
                    "facility": "Cliniques Universitaires Saint-Luc",
                    "status": "RECRUITING",
                    "city": "Woluwe-Saint-Lambert",
                    "state": "Brussels",
                    "country": "Belgium",
                    "geoPoint": {
                        "lat": 50.84389,
                        "lon": 4.42912
                    }
                },
                {
                    "facility": "University Hospital Leuven",
                    "status": "RECRUITING",
                    "city": "Leuven",
                    "country": "Belgium",
                    "geoPoint": {
                        "lat": 50.87959,
                        "lon": 4.70093
                    }
                },
                {
                    "facility": "Santa Casa de Miseric\u00f3rdia de Belo Horizonte",
                    "status": "RECRUITING",
                    "city": "Belo Horizonte",
                    "country": "Brazil",
                    "geoPoint": {
                        "lat": -19.92083,
                        "lon": -43.93778
                    }
                },
                {
                    "facility": "Instituto Pro-Renal",
                    "status": "RECRUITING",
                    "city": "Curitiba",
                    "country": "Brazil",
                    "geoPoint": {
                        "lat": -25.42778,
                        "lon": -49.27306
                    }
                },
                {
                    "facility": "PUC Trials - Unidade Epicenter",
                    "status": "RECRUITING",
                    "city": "Curitiba",
                    "country": "Brazil",
                    "geoPoint": {
                        "lat": -25.42778,
                        "lon": -49.27306
                    }
                },
                {
                    "facility": "Hospital Universit\u00e1rio Valter Cant\u00eddio",
                    "status": "RECRUITING",
                    "city": "Fortaleza",
                    "country": "Brazil",
                    "geoPoint": {
                        "lat": -3.71722,
                        "lon": -38.54306
                    }
                },
                {
                    "facility": "Federal University of Goi\u00e1s (UFG)",
                    "status": "RECRUITING",
                    "city": "Goiania",
                    "country": "Brazil",
                    "geoPoint": {
                        "lat": -16.67861,
                        "lon": -49.25389
                    }
                },
                {
                    "facility": "Cmip-Centro Mineiro de Pesquisa Ltda",
                    "status": "RECRUITING",
                    "city": "Juiz de Fora",
                    "country": "Brazil",
                    "geoPoint": {
                        "lat": -21.76417,
                        "lon": -43.35028
                    }
                },
                {
                    "facility": "Galileo Medical Research Ltda",
                    "status": "RECRUITING",
                    "city": "Juiz De Fora",
                    "country": "Brazil",
                    "geoPoint": {
                        "lat": -21.76417,
                        "lon": -43.35028
                    }
                },
                {
                    "facility": "Irmandade da Santa Casa de Miseric\u00f3rdia de Porto Alegre",
                    "status": "RECRUITING",
                    "city": "Porto Alegre",
                    "country": "Brazil",
                    "geoPoint": {
                        "lat": -30.03306,
                        "lon": -51.23
                    }
                },
                {
                    "facility": "UFRS - Hospital de Cl\u00ednicas",
                    "status": "RECRUITING",
                    "city": "Porto Alegre",
                    "country": "Brazil",
                    "geoPoint": {
                        "lat": -30.03306,
                        "lon": -51.23
                    }
                },
                {
                    "facility": "Hospital das Clinicas da Faculdade de Medicina de Ribeirao Preto da Universidade de Sao Paulo",
                    "status": "RECRUITING",
                    "city": "Ribeirao Preto",
                    "country": "Brazil",
                    "geoPoint": {
                        "lat": -21.1775,
                        "lon": -47.81028
                    }
                },
                {
                    "facility": "Hospital S\u00e3o Lucas",
                    "status": "COMPLETED",
                    "city": "Rio de Janeiro",
                    "country": "Brazil",
                    "geoPoint": {
                        "lat": -22.90278,
                        "lon": -43.2075
                    }
                },
                {
                    "facility": "Hospital Universit\u00e1rio Pedro Ernesto",
                    "status": "RECRUITING",
                    "city": "Rio de Janeiro",
                    "country": "Brazil",
                    "geoPoint": {
                        "lat": -22.90278,
                        "lon": -43.2075
                    }
                },
                {
                    "facility": "Pedro Ernesto University Hospital",
                    "status": "RECRUITING",
                    "city": "Rio de Janeiro",
                    "country": "Brazil",
                    "geoPoint": {
                        "lat": -22.90278,
                        "lon": -43.2075
                    }
                },
                {
                    "facility": "CSB Group of Nephrology Brazil",
                    "status": "RECRUITING",
                    "city": "Salvador",
                    "country": "Brazil",
                    "geoPoint": {
                        "lat": -12.97111,
                        "lon": -38.51083
                    }
                },
                {
                    "facility": "Federal University of Bahia",
                    "status": "RECRUITING",
                    "city": "Salvador",
                    "country": "Brazil",
                    "geoPoint": {
                        "lat": -12.97111,
                        "lon": -38.51083
                    }
                },
                {
                    "facility": "Funda\u00e7\u00e3o Faculdade Regional de Medicina de S\u00e3o Jos\u00e9 do Rio Preto",
                    "status": "RECRUITING",
                    "city": "S\u00e3o Jos\u00e9 do Rio Preto",
                    "country": "Brazil",
                    "geoPoint": {
                        "lat": -20.81972,
                        "lon": -49.37944
                    }
                },
                {
                    "facility": "Hospital do Rim - Funda\u00e7\u00e3o Oswaldo Ramos - Ambulatorio NEFRITE",
                    "status": "RECRUITING",
                    "city": "S\u00e3o Paulo",
                    "country": "Brazil",
                    "geoPoint": {
                        "lat": -23.5475,
                        "lon": -46.63611
                    }
                },
                {
                    "facility": "University of Sao Paulo",
                    "status": "RECRUITING",
                    "city": "S\u00e3o Paulo",
                    "country": "Brazil",
                    "geoPoint": {
                        "lat": -23.5475,
                        "lon": -46.63611
                    }
                },
                {
                    "facility": "Recherche GCP Research",
                    "status": "COMPLETED",
                    "city": "Montreal",
                    "country": "Canada",
                    "geoPoint": {
                        "lat": 45.50884,
                        "lon": -73.58781
                    }
                },
                {
                    "facility": "Women's College Hospital",
                    "status": "RECRUITING",
                    "city": "Toronto",
                    "country": "Canada",
                    "geoPoint": {
                        "lat": 43.70011,
                        "lon": -79.4163
                    }
                },
                {
                    "facility": "Clinica de La Costa S.A.S",
                    "status": "RECRUITING",
                    "city": "Atl\u00e1ntico",
                    "country": "Colombia",
                    "geoPoint": {
                        "lat": 10.45311,
                        "lon": -74.41424
                    }
                },
                {
                    "facility": "Solano & Terront Servicios Medicos SAS - Unidad Integral de Endocrinologia - UNIENDO",
                    "status": "RECRUITING",
                    "city": "Bogota",
                    "country": "Colombia",
                    "geoPoint": {
                        "lat": 4.60971,
                        "lon": -74.08175
                    }
                },
                {
                    "facility": "Fundaci\u00f3n Valle Del Lili",
                    "status": "RECRUITING",
                    "city": "Cali",
                    "country": "Colombia",
                    "geoPoint": {
                        "lat": 3.43722,
                        "lon": -76.5225
                    }
                },
                {
                    "facility": "Centro Cardiovascular Aristides Sotomayor Santa Luc\u00eda SAS IPS",
                    "status": "RECRUITING",
                    "city": "Cartagena",
                    "country": "Colombia",
                    "geoPoint": {
                        "lat": 10.39972,
                        "lon": -75.51444
                    }
                },