{
    "protocolSection": {
        "identificationModule": {
            "nctId": "NCT05511922",
            "orgStudyIdInfo": {
                "id": "KVD900-302a"
            },
            "organization": {
                "fullName": "KalVista Pharmaceuticals, Ltd.",
                "class": "INDUSTRY"
            },
            "briefTitle": "PK Subtrial in Adolescent Patients With HAE Type I or II Participating in the KVD900-302 Trial",
            "officialTitle": "A Pharmacokinetic Subtrial in Adolescent Patients With Hereditary Angioedema Type I or II Participating in the KVD900-302 Trial",
            "therapeuticArea": [
                "Other"
            ],
            "study": "pk-subtrial-in-adolescent-patients-with-hae-type-i-or-ii-participating-in-the-trial"
        },
        "statusModule": {
            "statusVerifiedDate": "2024-07",
            "overallStatus": "RECRUITING",
            "expandedAccessInfo": {
                "hasExpandedAccess": false
            },
            "startDateStruct": {
                "date": "2022-10-24",
                "type": "ACTUAL"
            },
            "primaryCompletionDateStruct": {
                "date": "2026-06-30",
                "type": "ESTIMATED"
            },
            "completionDateStruct": {
                "date": "2026-06-30",
                "type": "ESTIMATED"
            },
            "studyFirstSubmitDate": "2022-08-11",
            "studyFirstSubmitQcDate": "2022-08-19",
            "studyFirstPostDateStruct": {
                "date": "2022-08-23",
                "type": "ACTUAL"
            },
            "lastUpdateSubmitDate": "2024-07-15",
            "lastUpdatePostDateStruct": {
                "date": "2024-07-16",
                "type": "ACTUAL"
            }
        },
        "sponsorCollaboratorsModule": {
            "responsibleParty": {
                "type": "SPONSOR"
            },
            "leadSponsor": {
                "name": "KalVista Pharmaceuticals, Ltd.",
                "class": "INDUSTRY"
            }
        },
        "oversightModule": {
            "isFdaRegulatedDrug": true,
            "isFdaRegulatedDevice": false
        },
        "descriptionModule": {
            "briefSummary": "This is a multicenter pharmacokinetic (PK) subtrial to investigate the PK profile of KVD900 in adolescent patients 12 to 17 years of age with Hereditary Angioedema (HAE) type I or II."
        },
        "conditionsModule": {
            "conditions": [
                "Hereditary Angioedema"
            ],
            "keywords": [
                "KONFIDENT-S"
            ]
        },
        "designModule": {
            "studyType": "INTERVENTIONAL",
            "phases": [
                "PHASE3"
            ],
            "designInfo": {
                "allocation": "NA",
                "interventionModel": "SINGLE_GROUP",
                "primaryPurpose": "TREATMENT",
                "maskingInfo": {
                    "masking": "NONE"
                }
            },
            "enrollmentInfo": {
                "count": 12,
                "type": "ESTIMATED"
            }
        },
        "armsInterventionsModule": {
            "armGroups": [
                {
                    "label": "KVD900 600 mg",
                    "type": "EXPERIMENTAL",
                    "interventionNames": [
                        "Drug: KVD900 600 mg"
                    ]
                }
            ],
            "interventions": [
                {
                    "type": "DRUG",
                    "name": "KVD900 600 mg",
                    "description": "KVD900 Tablet 600 mg (2 x 300 mg)",
                    "armGroupLabels": [
                        "KVD900 600 mg"
                    ]
                }
            ]
        },
        "outcomesModule": {
            "primaryOutcomes": [
                {
                    "measure": "Pharmacokinetics - Cmax",
                    "timeFrame": "Up to 6 hours after IMP administration"
                },
                {
                    "measure": "Pharmacokinetics - Tmax",
                    "timeFrame": "Up to 6 hours after IMP administration"
                },
                {
                    "measure": "Pharmacokinetics - AUC",
                    "timeFrame": "Up to 6 hours after IMP administration"
                }
            ]
        },
        "eligibilityModule": {
            "eligibilityCriteria": "Inclusion Criteria:\n\n* Male or female adolescent patient 12 to 17 years of age at the time of enrollment and during sample collection in this PK subtrial.\n* Patient is currently participating in KVD900-302.\n* Patient must provide signed informed consent or assent (when applicable), and a legally authorized representative (LAR) must also provide signed informed consent when applicable.\n* Patient and LAR are willing and able to provide samples per the requirements of the protocol, including willingness to complete forms and the electronic Diary, obtain and return samples in a timely manner, and obtain samples while within the required age limit.\n\nExclusion Criteria:\n\n* Patient has a history of any bleeding disorder or currently taking any anti-coagulant or anti-platelet agent.",
            "healthyVolunteers": false,
            "sex": "ALL",
            "minimumAge": "12 Years",
            "maximumAge": "17 Years",
            "stdAges": [
                "CHILD"
            ]
        },
        "contactsLocationsModule": {
            "centralContacts": [
                {
                    "name": "KalVista Pharmaceuticals",
                    "role": "CONTACT",
                    "phone": "1 (857) 999-0075",
                    "email": "clinicalstudies@kalvista.com"
                }
            ],
            "overallOfficials": [
                {
                    "name": "Study Director",
                    "affiliation": "KalVista Pharmaceuticals, Ltd.",
                    "role": "STUDY_DIRECTOR"
                }
            ],
            "locations": [
                {
                    "facility": "KalVista Investigative Site",
                    "status": "RECRUITING",
                    "city": "Scottsdale",
                    "state": "Arizona",
                    "zip": "85251",
                    "country": "United States",
                    "geoPoint": {
                        "lat": 33.50921,
                        "lon": -111.89903
                    }
                },
                {
                    "facility": "KalVista Investigative Site",
                    "status": "RECRUITING",
                    "city": "Little Rock",
                    "state": "Arkansas",
                    "zip": "72205",
                    "country": "United States",
                    "geoPoint": {
                        "lat": 34.74648,
                        "lon": -92.28959
                    }
                },
                {
                    "facility": "KalVista Investigative Site",
                    "status": "RECRUITING",
                    "city": "San Diego",
                    "state": "California",
                    "zip": "92122",
                    "country": "United States",
                    "geoPoint": {
                        "lat": 32.71533,
                        "lon": -117.15726
                    }
                },
                {
                    "facility": "KalVista Investigative Site",
                    "status": "RECRUITING",
                    "city": "San Diego",
                    "state": "California",
                    "zip": "92123",
                    "country": "United States",
                    "geoPoint": {
                        "lat": 32.71533,
                        "lon": -117.15726
                    }
                },
                {
                    "facility": "KalVista Investigative Site",
                    "status": "RECRUITING",
                    "city": "Santa Monica",
                    "state": "California",
                    "zip": "90404",
                    "country": "United States",
                    "geoPoint": {
                        "lat": 34.01945,
                        "lon": -118.49119
                    }
                },
                {
                    "facility": "KalVista Investigative Site",
                    "status": "ACTIVE_NOT_RECRUITING",
                    "city": "Centennial",
                    "state": "Colorado",
                    "zip": "80112",
                    "country": "United States",
                    "geoPoint": {
                        "lat": 39.57916,
                        "lon": -104.87692
                    }
                },
                {
                    "facility": "KalVista Investigative Site",
                    "status": "RECRUITING",
                    "city": "Colorado Springs",
                    "state": "Colorado",
                    "zip": "80907",
                    "country": "United States",
                    "geoPoint": {
                        "lat": 38.83388,
                        "lon": -104.82136
                    }
                },
                {
                    "facility": "KalVista Investigative Site",
                    "status": "RECRUITING",
                    "city": "Evansville",
                    "state": "Indiana",
                    "zip": "47715",
                    "country": "United States",
                    "geoPoint": {
                        "lat": 37.97476,
                        "lon": -87.55585
                    }
                },
                {
                    "facility": "KalVista Investigative Site",
                    "status": "RECRUITING",
                    "city": "Overland Park",
                    "state": "Kansas",
                    "zip": "66211",
                    "country": "United States",
                    "geoPoint": {
                        "lat": 38.98223,
                        "lon": -94.67079
                    }
                },
                {
                    "facility": "KalVista Investigative Site",
                    "status": "COMPLETED",
                    "city": "Louisville",
                    "state": "Kentucky",
                    "zip": "40215",
                    "country": "United States",
                    "geoPoint": {
                        "lat": 38.25424,
                        "lon": -85.75941
                    }
                },
                {
                    "facility": "KalVista Investigative Site",
                    "status": "RECRUITING",
                    "city": "Chevy Chase",
                    "state": "Maryland",
                    "zip": "20815",
                    "country": "United States",
                    "geoPoint": {
                        "lat": 39.00287,
                        "lon": -77.07115
                    }
                },
                {
                    "facility": "KalVista Investigative Site",
                    "status": "RECRUITING",
                    "city": "Plymouth",
                    "state": "Minnesota",
                    "zip": "55446",
                    "country": "United States",
                    "geoPoint": {
                        "lat": 45.01052,
                        "lon": -93.45551
                    }
                },
                {
                    "facility": "KalVista Investigative Site",
                    "status": "RECRUITING",
                    "city": "Saint Louis",
                    "state": "Missouri",
                    "zip": "63141",
                    "country": "United States",
                    "geoPoint": {
                        "lat": 38.62727,
                        "lon": -90.19789
                    }
                },
                {
                    "facility": "KalVista Investigative Site",
                    "status": "ACTIVE_NOT_RECRUITING",
                    "city": "Charlotte",
                    "state": "North Carolina",
                    "zip": "28277",
                    "country": "United States",
                    "geoPoint": {
                        "lat": 35.22709,
                        "lon": -80.84313
                    }
                },
                {
                    "facility": "KalVista Investigative Site",
                    "status": "RECRUITING",
                    "city": "Cincinnati",
                    "state": "Ohio",
                    "zip": "45236",
                    "country": "United States",
                    "geoPoint": {
                        "lat": 39.12713,
                        "lon": -84.51435
                    }
                },
                {
                    "facility": "KalVista Investigative Site",
                    "status": "RECRUITING",
                    "city": "Toledo",
                    "state": "Ohio",
                    "zip": "43617",
                    "country": "United States",
                    "geoPoint": {
                        "lat": 41.66394,
                        "lon": -83.55521
                    }
                },
                {
                    "facility": "Kalvista Investigative Site",
                    "status": "RECRUITING",
                    "city": "Hershey",
                    "state": "Pennsylvania",
                    "zip": "17033",
                    "country": "United States",
                    "geoPoint": {
                        "lat": 40.28592,
                        "lon": -76.65025
                    }
                },
                {
                    "facility": "KalVista Investigative Site",
                    "status": "RECRUITING",
                    "city": "Dallas",
                    "state": "Texas",
                    "zip": "75231",
                    "country": "United States",
                    "geoPoint": {
                        "lat": 32.78306,
                        "lon": -96.80667
                    }
                },
                {
                    "facility": "KalVista Investigative Site",
                    "status": "RECRUITING",
                    "city": "Layton",
                    "state": "Utah",
                    "zip": "84041",
                    "country": "United States",
                    "geoPoint": {
                        "lat": 41.06022,
                        "lon": -111.97105
                    }
                },
                {
                    "facility": "KalVista Investigative Site",
                    "status": "RECRUITING",
                    "city": "Spokane",
                    "state": "Washington",
                    "zip": "99204",
                    "country": "United States",
                    "geoPoint": {
                        "lat": 47.65966,
                        "lon": -117.42908
                    }
                },
                {
                    "facility": "KalVista Investigative Site",
                    "status": "RECRUITING",
                    "city": "Campbelltown",
                    "zip": "2560",
                    "country": "Australia",
                    "geoPoint": {
                        "lat": -34.06667,
                        "lon": 150.81667
                    }
                },
                {
                    "facility": "KalVista Investigative Site",
                    "status": "RECRUITING",
                    "city": "Wien",
                    "zip": "1090",
                    "country": "Austria",
                    "geoPoint": {
                        "lat": 48.20849,
                        "lon": 16.37208
                    }
                },
                {
                    "facility": "KalVista Investigative Site",
                    "status": "RECRUITING",
                    "city": "Sofia",
                    "zip": "1431",
                    "country": "Bulgaria",
                    "geoPoint": {
                        "lat": 42.69751,
                        "lon": 23.32415
                    }
                },
                {
                    "facility": "KalVista Investigative Site",
                    "status": "RECRUITING",
                    "city": "Montr\u00e9al",
                    "zip": "H2W 1R7",
                    "country": "Canada",
                    "geoPoint": {
                        "lat": 45.50884,
                        "lon": -73.58781
                    }
                },
                {
                    "facility": "KalVista Investigative Site",
                    "status": "RECRUITING",
                    "city": "Grenoble Cedex 9",
                    "zip": "38043",
                    "country": "France",
                    "geoPoint": {
                        "lat": 45.16667,
                        "lon": 5.71667
                    }
                },
                {
                    "facility": "KalVista Investigative Site",
                    "status": "RECRUITING",
                    "city": "Lille Cedex",
                    "zip": "59037",
                    "country": "France",
                    "geoPoint": {
                        "lat": 50.63297,
                        "lon": 3.05858
                    }
                },
                {
                    "facility": "KalVista Investigative Site",
                    "status": "RECRUITING",
                    "city": "Lille",
                    "zip": "59037",
                    "country": "France",
                    "geoPoint": {
                        "lat": 50.63297,
                        "lon": 3.05858
                    }
                },
                {
                    "facility": "KalVista Investigative Site",
                    "status": "RECRUITING",
                    "city": "Paris",
                    "zip": "75012",
                    "country": "France",
                    "geoPoint": {
                        "lat": 48.85341,
                        "lon": 2.3488
                    }
                },
                {
                    "facility": "KalVista Investigative Site",
                    "status": "RECRUITING",
                    "city": "Berlin",
                    "zip": "12203",
                    "country": "Germany",
                    "geoPoint": {
                        "lat": 52.52437,
                        "lon": 13.41053
                    }
                },
                {
                    "facility": "KalVista Investigative Site",
                    "status": "RECRUITING",
                    "city": "Frankfurt",
                    "zip": "60590",
                    "country": "Germany",
                    "geoPoint": {
                        "lat": 50.11552,
                        "lon": 8.68417
                    }
                },
                {
                    "facility": "KalVista Investigative Site",
                    "status": "RECRUITING",
                    "city": "Mainz",
                    "zip": "55131",
                    "country": "Germany",
                    "geoPoint": {
                        "lat": 49.98419,
                        "lon": 8.2791
                    }
                },
                {
                    "facility": "KalVista Investigative Site",
                    "status": "RECRUITING",
                    "city": "Morfelden-Walldorf",
                    "zip": "64546",
                    "country": "Germany",
                    "geoPoint": {
                        "lat": 49.99472,
                        "lon": 8.58361
                    }
                },
                {
                    "facility": "KalVista Investigative Site",
                    "status": "RECRUITING",
                    "city": "Athens",
                    "zip": "11521",
                    "country": "Greece",
                    "geoPoint": {
                        "lat": 37.97945,
                        "lon": 23.71622
                    }
                },
                {
                    "facility": "KalVista Investigative Site",
                    "status": "RECRUITING",
                    "city": "Athens",
                    "zip": "11527",
                    "country": "Greece",
                    "geoPoint": {
                        "lat": 37.97945,
                        "lon": 23.71622
                    }
                },
                {
                    "facility": "KalVista Investigative Site",
                    "status": "RECRUITING",
                    "city": "Haifa",
                    "zip": "31048",
                    "country": "Israel",
                    "geoPoint": {
                        "lat": 32.81841,
                        "lon": 34.9885
                    }
                },
                {
                    "facility": "KalVista Investigative Site",
                    "status": "RECRUITING",
                    "city": "Petach Tikvah",
                    "zip": "4920235",
                    "country": "Israel",
                    "geoPoint": {
                        "lat": 32.08707,
                        "lon": 34.88747
                    }
                },
                {
                    "facility": "KalVista Investigative Site",
                    "status": "RECRUITING",
                    "city": "Ramat Gan",
                    "zip": "52621",
                    "country": "Israel",
                    "geoPoint": {
                        "lat": 32.08227,
                        "lon": 34.81065
                    }
                },
                {
                    "facility": "KalVista Investigative Site",
                    "status": "RECRUITING",
                    "city": "Tel Aviv",
                    "zip": "64239",
                    "country": "Israel",
                    "geoPoint": {
                        "lat": 32.08088,
                        "lon": 34.78057
                    }
                },
                {
                    "facility": "KalVista Investigative Site",
                    "status": "ACTIVE_NOT_RECRUITING",
                    "city": "Sapporo-city",
                    "state": "Hokkaido",
                    "zip": "002-8072",
                    "country": "Japan",
                    "geoPoint": {
                        "lat": 43.06667,
                        "lon": 141.35
                    }
                },
                {
                    "facility": "KalVista Investigative Site",
                    "status": "ACTIVE_NOT_RECRUITING",
                    "city": "Chiba-shi",
                    "zip": "260-8677",
                    "country": "Japan",
                    "geoPoint": {
                        "lat": 35.6,
                        "lon": 140.11667
                    }
                },
                {
                    "facility": "KalVista Investigative Site",
                    "status": "ACTIVE_NOT_RECRUITING",
                    "city": "Hiroshima-shi",
                    "zip": "730-8518",
                    "country": "Japan",
                    "geoPoint": {
                        "lat": 34.4,
                        "lon": 132.45
                    }
                },
                {
                    "facility": "KalVista Investigative Site",
                    "status": "ACTIVE_NOT_RECRUITING",
                    "city": "Kawagoe-shi",
                    "zip": "350-8550",
                    "country": "Japan",
                    "geoPoint": {
                        "lat": 35.90861,
                        "lon": 139.48528
                    }
                },
                {
                    "facility": "KalVista Investigative Site",
                    "status": "ACTIVE_NOT_RECRUITING",
                    "city": "Maebashi-city",
                    "zip": "371-8511",
                    "country": "Japan",
                    "geoPoint": {
                        "lat": 36.4,
                        "lon": 139.08333
                    }
                },
                {
                    "facility": "KalVista Investigative Site",
                    "status": "ACTIVE_NOT_RECRUITING",
                    "city": "Soka-shi",
                    "zip": "340-0041",
                    "country": "Japan",
                    "geoPoint": {
                        "lat": 35.83643,
                        "lon": 139.79957
                    }
                },
                {
                    "facility": "KalVista Investigative Site",
                    "status": "ACTIVE_NOT_RECRUITING",
                    "city": "Takatsuki-shi",
                    "zip": "569-8686",
                    "country": "Japan",
                    "geoPoint": {
                        "lat": 34.84833,
                        "lon": 135.61678
                    }
                },
                {
                    "facility": "KalVista Investigative Site",
                    "status": "ACTIVE_NOT_RECRUITING",
                    "city": "Tokyo",
                    "zip": "142-8666",
                    "country": "Japan",
                    "geoPoint": {
                        "lat": 35.6895,
                        "lon": 139.69171
                    }
                },
                {
                    "facility": "KalVista Investigative Site",
                    "status": "ACTIVE_NOT_RECRUITING",
                    "city": "Yokohama-shi",
                    "zip": "236-0004",
                    "country": "Japan",
                    "geoPoint": {
                        "lat": 35.43333,
                        "lon": 139.65
                    }
                },
                {
                    "facility": "KalVista Investigative Site",
                    "status": "RECRUITING",
                    "city": "Amsterdam",
                    "zip": "1105 AZ",
                    "country": "Netherlands",
                    "geoPoint": {
                        "lat": 52.37403,
                        "lon": 4.88969
                    }
                },
                {
                    "facility": "KalVista Investgative Site",
                    "status": "RECRUITING",
                    "city": "Auckland",
                    "zip": "1023",
                    "country": "New Zealand",
                    "geoPoint": {
                        "lat": -36.84853,
                        "lon": 174.76349
                    }
                },
                {
                    "facility": "KalVista Investigative Site",
                    "status": "RECRUITING",
                    "city": "S\u00e2ngeorgiu De Mure\u015f",
                    "zip": "547530",
                    "country": "Romania",
                    "geoPoint": {
                        "lat": 46.5696,
                        "lon": 24.59453
                    }
                },
                {
                    "facility": "KalVista Investigative Site",
                    "status": "RECRUITING",
                    "city": "Martin",
                    "zip": "036 59",
                    "country": "Slovakia",
                    "geoPoint": {
                        "lat": 49.06651,
                        "lon": 18.92399
                    }
                },
                {
                    "facility": "KalVista Investigative Site",
                    "status": "RECRUITING",
                    "city": "Cape Town",
                    "zip": "7700",
                    "country": "South Africa",
                    "geoPoint": {
                        "lat": -33.92584,
                        "lon": 18.42322
                    }
                },
                {
                    "facility": "KalVista Investigative Site",
                    "status": "RECRUITING",
                    "city": "Barcelona",
                    "zip": "08035",
                    "country": "Spain",
                    "geoPoint": {
                        "lat": 41.38879,
                        "lon": 2.15899
                    }
                },
                {
                    "facility": "KalVista Investigative Site",
                    "status": "RECRUITING",
                    "city": "Barcelona",
                    "zip": "08907",
                    "country": "Spain",
                    "geoPoint": {
                        "lat": 41.38879,
                        "lon": 2.15899
                    }
                },
                {
                    "facility": "KalVista Investigative Site",
                    "status": "RECRUITING",
                    "city": "Madrid",
                    "zip": "28046",
                    "country": "Spain",
                    "geoPoint": {
                        "lat": 40.4165,
                        "lon": -3.70256
                    }
                },
                {
                    "facility": "KalVista Investigative Site",
                    "status": "RECRUITING",
                    "city": "Birmingham",
                    "zip": "B9 5SS",
                    "country": "United Kingdom",
                    "geoPoint": {
                        "lat": 52.48142,
                        "lon": -1.89983
                    }
                },
                {
                    "facility": "KalVista Investigative Site",
                    "status": "RECRUITING",
                    "city": "Cambridge",
                    "zip": "CB2 0QQ",
                    "country": "United Kingdom",
                    "geoPoint": {
                        "lat": 52.2,
                        "lon": 0.11667
                    }
                },
                {
                    "facility": "KalVista Investigative Site",
                    "status": "RECRUITING",
                    "city": "Cardiff",
                    "zip": "CF14 4XW",
                    "country": "United Kingdom",
                    "geoPoint": {
                        "lat": 51.48,
                        "lon": -3.18
                    }
                },
                {
                    "facility": "KalVista Investgative Site",
                    "status": "RECRUITING",
                    "city": "Frimley",
                    "zip": "GU16 7UJ",
                    "country": "United Kingdom",
                    "geoPoint": {
                        "lat": 51.31667,
                        "lon": -0.74544
                    }
                },
                {
                    "facility": "KalVista Investigative Site",
                    "status": "RECRUITING",
                    "city": "Leeds",
                    "zip": "LS9 7TF",
                    "country": "United Kingdom",
                    "geoPoint": {
                        "lat": 53.79648,
                        "lon": -1.54785
                    }
                },
                {
                    "facility": "KalVista Investigative Site",
                    "status": "RECRUITING",
                    "city": "London",
                    "zip": "E1 2ES",
                    "country": "United Kingdom",
                    "geoPoint": {
                        "lat": 51.50853,
                        "lon": -0.12574
                    }
                },
                {
                    "facility": "KalVista Investigative Site",
                    "status": "RECRUITING",
                    "city": "London",
                    "zip": "NW3 2QG",
                    "country": "United Kingdom",
                    "geoPoint": {
                        "lat": 51.50853,
                        "lon": -0.12574
                    }
                }
            ]
        },
        "ipdSharingStatementModule": {
            "ipdSharing": "NO",
            "description": "Data will not be shared until all global regulatory filings are complete."
        }
    },
    "derivedSection": {
        "miscInfoModule": {
            "versionHolder": "2024-07-30"
        },
        "conditionBrowseModule": {
            "meshes": [
                {
                    "id": "D000000799",
                    "term": "Angioedema"
                },
                {
                    "id": "D000054179",
                    "term": "Angioedemas, Hereditary"
                }
            ],
            "ancestors": [
                {
                    "id": "D000014652",
                    "term": "Vascular Diseases"
                },
                {
                    "id": "D000002318",
                    "term": "Cardiovascular Diseases"
                },
                {
                    "id": "D000014581",
                    "term": "Urticaria"
                },
                {
                    "id": "D000017445",
                    "term": "Skin Diseases, Vascular"
                },
                {
                    "id": "D000012871",
                    "term": "Skin Diseases"
                },
                {
                    "id": "D000006969",
                    "term": "Hypersensitivity, Immediate"
                },
                {
                    "id": "D000006967",
                    "term": "Hypersensitivity"
                },
                {
                    "id": "D000007154",
                    "term": "Immune System Diseases"
                },
                {
                    "id": "D000081208",
                    "term": "Hereditary Complement Deficiency Diseases"
                },
                {
                    "id": "D000081207",
                    "term": "Primary Immunodeficiency Diseases"
                },
                {
                    "id": "D000030342",
                    "term": "Genetic Diseases, Inborn"
                },
                {
                    "id": "D000007153",
                    "term": "Immunologic Deficiency Syndromes"
                }
            ],
            "browseLeaves": [
                {
                    "id": "M4127",
                    "name": "Angioedema",
                    "asFound": "Angioedema",
                    "relevance": "HIGH"
                },
                {
                    "id": "M27584",
                    "name": "Angioedemas, Hereditary",
                    "asFound": "Hereditary Angioedema",
                    "relevance": "HIGH"
                },
                {
                    "id": "M17400",
                    "name": "Vascular Diseases",
                    "relevance": "LOW"
                },
                {
                    "id": "M17330",
                    "name": "Urticaria",
                    "relevance": "LOW"
                },
                {
                    "id": "M15674",
                    "name": "Skin Diseases",
                    "relevance": "LOW"
                },
                {
                    "id": "M19714",
                    "name": "Skin Diseases, Vascular",
                    "relevance": "LOW"
                },
                {
                    "id": "M10018",
                    "name": "Hypersensitivity",
                    "relevance": "LOW"
                },
                {
                    "id": "M10020",
                    "name": "Hypersensitivity, Immediate",
                    "relevance": "LOW"
                },
                {
                    "id": "M10200",
                    "name": "Immune System Diseases",
                    "relevance": "LOW"
                },
                {
                    "id": "M6879",
                    "name": "Deficiency Diseases",
                    "relevance": "LOW"
                },
                {
                    "id": "M2286",
                    "name": "Hereditary Complement Deficiency Diseases",
                    "relevance": "LOW"
                },
                {
                    "id": "M2285",
                    "name": "Primary Immunodeficiency Diseases",
                    "relevance": "LOW"
                },
                {
                    "id": "M10199",
                    "name": "Immunologic Deficiency Syndromes",
                    "relevance": "LOW"
                },
                {
                    "id": "M23686",
                    "name": "Genetic Diseases, Inborn",
                    "relevance": "LOW"
                },
                {
                    "id": "M16355",
                    "name": "Syndrome",
                    "relevance": "LOW"
                },
                {
                    "id": "T2734",
                    "name": "Hereditary Angioedema",
                    "asFound": "Hereditary Angioedema",
                    "relevance": "HIGH"
                }
            ],
            "browseBranches": [
                {
                    "abbrev": "BC14",
                    "name": "Heart and Blood Diseases"
                },
                {
                    "abbrev": "BC17",
                    "name": "Skin and Connective Tissue Diseases"
                },
                {
                    "abbrev": "BC20",
                    "name": "Immune System Diseases"
                },
                {
                    "abbrev": "All",
                    "name": "All Conditions"
                },
                {
                    "abbrev": "BC16",
                    "name": "Diseases and Abnormalities at or Before Birth"
                },
                {
                    "abbrev": "BC18",
                    "name": "Nutritional and Metabolic Diseases"
                },
                {
                    "abbrev": "BC23",
                    "name": "Symptoms and General Pathology"
                },
                {
                    "abbrev": "Rare",
                    "name": "Rare Diseases"
                }
            ]
        }
    },
    "hasResults": false
}