{
    "protocolSection": {
        "identificationModule": {
            "nctId": "NCT00231400",
            "orgStudyIdInfo": {
                "id": "DIREGC07005"
            },
            "secondaryIdInfos": [
                {
                    "id": "DIREGC07005",
                    "type": "OTHER",
                    "domain": "Sanofi Identifier"
                }
            ],
            "organization": {
                "fullName": "Sanofi",
                "class": "INDUSTRY"
            },
            "briefTitle": "Pompe Disease Registry Protocol",
            "officialTitle": "Pompe Disease Registry",
            "therapeuticArea": [
                "Other"
            ],
            "study": "pompe-disease-registry-protocol"
        },
        "statusModule": {
            "statusVerifiedDate": "2024-01",
            "overallStatus": "RECRUITING",
            "expandedAccessInfo": {
                "hasExpandedAccess": false
            },
            "startDateStruct": {
                "date": "2004-09-15",
                "type": "ACTUAL"
            },
            "primaryCompletionDateStruct": {
                "date": "2034-01-31",
                "type": "ESTIMATED"
            },
            "completionDateStruct": {
                "date": "2034-01-31",
                "type": "ESTIMATED"
            },
            "studyFirstSubmitDate": "2005-09-30",
            "studyFirstSubmitQcDate": "2005-09-30",
            "studyFirstPostDateStruct": {
                "date": "2005-10-04",
                "type": "ESTIMATED"
            },
            "lastUpdateSubmitDate": "2024-01-31",
            "lastUpdatePostDateStruct": {
                "date": "2024-02-01",
                "type": "ACTUAL"
            }
        },
        "sponsorCollaboratorsModule": {
            "responsibleParty": {
                "type": "SPONSOR"
            },
            "leadSponsor": {
                "name": "Genzyme, a Sanofi Company",
                "class": "INDUSTRY"
            }
        },
        "oversightModule": {
            "oversightHasDmc": false
        },
        "descriptionModule": {
            "briefSummary": "The Pompe Registry is a global, multicenter, international, longitudinal, observational, and voluntary program for patients with Pompe disease, designed to track the disease's natural history and outcomes in patients, both treated and not. Data from the Registry are also used to fulfill various global regulatory commitments, to support product development/reimbursement, and for other research and non-research related purposes.\n\nThe objectives of the Registry are:\n\n* To enhance understanding of the variability, progression, identification, and natural history of Pompe disease, with the ultimate goal of better guiding and assessing therapeutic intervention.\n* To assist the Pompe medical community with the development of recommendations for monitoring patients, and to provide reports on patient outcomes, to optimize patient care.\n* To characterize the Pompe disease population.\n* To evaluate the long-term effectiveness of alglucosidase alfa.",
            "detailedDescription": "Study Design Time Perspective: Retrospective and Prospective"
        },
        "conditionsModule": {
            "conditions": [
                "Glycogen Storage Disease Type II",
                "Pompe Disease"
            ],
            "keywords": [
                "Glycogen Storage Disease Type II (GSD-II)",
                "GSD-II",
                "Pompe Disease",
                "Pompe Disease (late-onset)",
                "Acid Maltase Deficiency Disease",
                "Glycogenosis II"
            ]
        },
        "designModule": {
            "studyType": "OBSERVATIONAL",
            "patientRegistry": true,
            "targetDuration": "5 Years",
            "designInfo": {
                "observationalModel": "COHORT",
                "timePerspective": "OTHER"
            },
            "enrollmentInfo": {
                "count": 2000,
                "type": "ESTIMATED"
            }
        },
        "outcomesModule": {
            "primaryOutcomes": [
                {
                    "measure": "Understanding of the variability, progression , identification and natural history of the manifestations of Pompe disease",
                    "timeFrame": "maximum 30 years"
                }
            ]
        },
        "eligibilityModule": {
            "eligibilityCriteria": "Inclusion Criteria:\n\nAll patients with a confirmed diagnosis of Pompe disease who have signed the informed consent and authorization form(s) are eligible for inclusion. Confirmed diagnosis is defined as documented GAA enzyme deficiency from blood, skin, or muscle tissue and/or documentation of 2 GAA gene mutations.\n\nExclusion Criteria:\n\nThere are no exclusion criteria in this Registry",
            "healthyVolunteers": false,
            "sex": "ALL",
            "stdAges": [
                "CHILD",
                "ADULT",
                "OLDER_ADULT"
            ],
            "studyPopulation": "All patients with a confirmed diagnosis of Pompe disease are eligible for inclusion in the Registry.",
            "samplingMethod": "NON_PROBABILITY_SAMPLE"
        },
        "contactsLocationsModule": {
            "centralContacts": [
                {
                    "name": "Trial Transparency email recommended (Toll free number for US & Canada)",
                    "role": "CONTACT",
                    "phone": "800-633-1610",
                    "phoneExt": "option 6",
                    "email": "Contact-Us@sanofi.com"
                },
                {
                    "name": "Pompe Registry HelpLine",
                    "role": "CONTACT",
                    "phone": "617-591-5500"
                }
            ],
            "overallOfficials": [
                {
                    "name": "Study Director",
                    "affiliation": "Genzyme, a Sanofi Company",
                    "role": "STUDY_DIRECTOR"
                }
            ],
            "locations": [
                {
                    "facility": "University Alabama at Birmingham Site Number : 840106",
                    "status": "RECRUITING",
                    "city": "Birmingham",
                    "state": "Alabama",
                    "zip": "35233",
                    "country": "United States",
                    "geoPoint": {
                        "lat": 33.52066,
                        "lon": -86.80249
                    }
                },
                {
                    "facility": "Arkansas Childrens Hospital Site Number : 840109",
                    "status": "RECRUITING",
                    "city": "Little Rock",
                    "state": "Arkansas",
                    "zip": "72202",
                    "country": "United States",
                    "geoPoint": {
                        "lat": 34.74648,
                        "lon": -92.28959
                    }
                },
                {
                    "facility": "University of Arkansas for Medical Sciences Site Number : 840113",
                    "status": "RECRUITING",
                    "city": "Little Rock",
                    "state": "Arkansas",
                    "zip": "72205",
                    "country": "United States",
                    "geoPoint": {
                        "lat": 34.74648,
                        "lon": -92.28959
                    }
                },
                {
                    "facility": "Loma Linda University- Genetics Site Number : 840070",
                    "status": "COMPLETED",
                    "city": "Loma Linda",
                    "state": "California",
                    "zip": "92354",
                    "country": "United States",
                    "geoPoint": {
                        "lat": 34.04835,
                        "lon": -117.26115
                    }
                },
                {
                    "facility": "Southern California Permanente Medical Group Site Number : 840108",
                    "status": "RECRUITING",
                    "city": "Los Angeles",
                    "state": "California",
                    "zip": "90027",
                    "country": "United States",
                    "geoPoint": {
                        "lat": 34.05223,
                        "lon": -118.24368
                    }
                },
                {
                    "facility": "Children's Hospital Oakland Site Number : 840029",
                    "status": "COMPLETED",
                    "city": "Oakland",
                    "state": "California",
                    "zip": "94609",
                    "country": "United States",
                    "geoPoint": {
                        "lat": 37.80437,
                        "lon": -122.2708
                    }
                },
                {
                    "facility": "Loma Linda University Children's Hospital Site Number : 840117",
                    "status": "RECRUITING",
                    "city": "San Bernardino",
                    "state": "California",
                    "zip": "92408",
                    "country": "United States",
                    "geoPoint": {
                        "lat": 34.10834,
                        "lon": -117.28977
                    }
                },
                {
                    "facility": "University of California at San Diego Site Number : 840007",
                    "status": "COMPLETED",
                    "city": "San Diego",
                    "state": "California",
                    "zip": "92093",
                    "country": "United States",
                    "geoPoint": {
                        "lat": 32.71533,
                        "lon": -117.15726
                    }
                },
                {
                    "facility": "Children's Hospital IMD Clinic Site Number : 840069",
                    "status": "COMPLETED",
                    "city": "Aurora",
                    "state": "Colorado",
                    "zip": "80045",
                    "country": "United States",
                    "geoPoint": {
                        "lat": 39.72943,
                        "lon": -104.83192
                    }
                },
                {
                    "facility": "Yale Site Number : 840047",
                    "status": "RECRUITING",
                    "city": "New Haven",
                    "state": "Connecticut",
                    "zip": "06520",
                    "country": "United States",
                    "geoPoint": {
                        "lat": 41.30815,
                        "lon": -72.92816
                    }
                },
                {
                    "facility": "Children's National Medical Center Site Number : 840067",
                    "status": "RECRUITING",
                    "city": "Washington",
                    "state": "District of Columbia",
                    "zip": "20010",
                    "country": "United States",
                    "geoPoint": {
                        "lat": 38.89511,
                        "lon": -77.03637
                    }
                },
                {
                    "facility": "University of Florida-Genetics Site Number : 840012",
                    "status": "RECRUITING",
                    "city": "Gainesville",
                    "state": "Florida",
                    "zip": "32610",
                    "country": "United States",
                    "geoPoint": {
                        "lat": 29.65163,
                        "lon": -82.32483
                    }
                },
                {
                    "facility": "University of Florida Pediatrics Genetics Site Number : 840121",
                    "status": "RECRUITING",
                    "city": "Jacksonville",
                    "state": "Florida",
                    "zip": "32207",
                    "country": "United States",
                    "geoPoint": {
                        "lat": 30.33218,
                        "lon": -81.65565
                    }
                },
                {
                    "facility": "The Atwal Clinic Site Number : 840112",
                    "status": "RECRUITING",
                    "city": "Jacksonville",
                    "state": "Florida",
                    "zip": "32216",
                    "country": "United States",
                    "geoPoint": {
                        "lat": 30.33218,
                        "lon": -81.65565
                    }
                },
                {
                    "facility": "University of Florida-Genetics Site Number : 840096",
                    "status": "RECRUITING",
                    "city": "Tampa",
                    "state": "Florida",
                    "zip": "33606",
                    "country": "United States",
                    "geoPoint": {
                        "lat": 27.94752,
                        "lon": -82.45843
                    }
                },
                {
                    "facility": "Emory University School of Medicine- Human Genetics Site Number : 840060",
                    "status": "RECRUITING",
                    "city": "Decatur",
                    "state": "Georgia",
                    "zip": "30033",
                    "country": "United States",
                    "geoPoint": {
                        "lat": 33.77483,
                        "lon": -84.29631
                    }
                },
                {
                    "facility": "Ann and Robert Lurie Children's Hospital Site Number : 840011",
                    "status": "RECRUITING",
                    "city": "Chicago",
                    "state": "Illinois",
                    "zip": "60611",
                    "country": "United States",
                    "geoPoint": {
                        "lat": 41.85003,
                        "lon": -87.65005
                    }
                },
                {
                    "facility": "Ann and Robert Lurie Children's Hospital Site Number : 840013",
                    "status": "RECRUITING",
                    "city": "Chicago",
                    "state": "Illinois",
                    "zip": "60611",
                    "country": "United States",
                    "geoPoint": {
                        "lat": 41.85003,
                        "lon": -87.65005
                    }
                },
                {
                    "facility": "Rush University Medical Center Genetics Site Number : 840079",
                    "status": "RECRUITING",
                    "city": "Chicago",
                    "state": "Illinois",
                    "zip": "60612",
                    "country": "United States",
                    "geoPoint": {
                        "lat": 41.85003,
                        "lon": -87.65005
                    }
                },
                {
                    "facility": "Indianapolis University School of Medicine Site Number : 840027",
                    "status": "RECRUITING",
                    "city": "Indianapolis",
                    "state": "Indiana",
                    "zip": "46202",
                    "country": "United States",
                    "geoPoint": {
                        "lat": 39.76838,
                        "lon": -86.15804
                    }
                },
                {
                    "facility": "University Of Kansas Medical Center Site Number : 840020",
                    "status": "RECRUITING",
                    "city": "Kansas City",
                    "state": "Kansas",
                    "zip": "66160",
                    "country": "United States",
                    "geoPoint": {
                        "lat": 39.11417,
                        "lon": -94.62746
                    }
                },
                {
                    "facility": "University of Louisville- Genetics Site Number : 840030",
                    "status": "RECRUITING",
                    "city": "Louisville",
                    "state": "Kentucky",
                    "zip": "40202",
                    "country": "United States",
                    "geoPoint": {
                        "lat": 38.25424,
                        "lon": -85.75941
                    }
                },
                {
                    "facility": "Ochsner Medical Center Site Number : 840120",
                    "status": "RECRUITING",
                    "city": "New Orleans",
                    "state": "Louisiana",
                    "zip": "70121",
                    "country": "United States",
                    "geoPoint": {
                        "lat": 29.95465,
                        "lon": -90.07507
                    }
                },
                {
                    "facility": "Maine Medical Center Pediatrics Site Number : 840064",
                    "status": "RECRUITING",
                    "city": "Portland",
                    "state": "Maine",
                    "zip": "04102",
                    "country": "United States",
                    "geoPoint": {
                        "lat": 43.66147,
                        "lon": -70.25533
                    }
                },
                {
                    "facility": "John Hopkins Site Number : 840044",
                    "status": "RECRUITING",
                    "city": "Baltimore",
                    "state": "Maryland",
                    "country": "United States",
                    "geoPoint": {
                        "lat": 39.29038,
                        "lon": -76.61219
                    }
                },
                {
                    "facility": "Massachusetts General Hospital-Genetics Site Number : 840062",
                    "status": "RECRUITING",
                    "city": "Boston",
                    "state": "Massachusetts",
                    "zip": "02114",
                    "country": "United States",
                    "geoPoint": {
                        "lat": 42.35843,
                        "lon": -71.05977
                    }
                },
                {
                    "facility": "Boston Children's Hospital Site Number : 840092",
                    "status": "RECRUITING",
                    "city": "Boston",
                    "state": "Massachusetts",
                    "zip": "2115",
                    "country": "United States",
                    "geoPoint": {
                        "lat": 42.35843,
                        "lon": -71.05977
                    }
                },
                {
                    "facility": "Baystate Health Site Number : 840002",
                    "status": "RECRUITING",
                    "city": "Springfield",
                    "state": "Massachusetts",
                    "zip": "01199",
                    "country": "United States",
                    "geoPoint": {
                        "lat": 42.10148,
                        "lon": -72.58981
                    }
                },
                {
                    "facility": "University of Michigan Pediatrics Site Number : 840107",
                    "status": "RECRUITING",
                    "city": "Ann Arbor",
                    "state": "Michigan",
                    "zip": "48109",
                    "country": "United States",
                    "geoPoint": {
                        "lat": 42.27756,
                        "lon": -83.74088
                    }
                },
                {
                    "facility": "Spectrum for Health Site Number : 840019",
                    "status": "RECRUITING",
                    "city": "Grand Rapids",
                    "state": "Michigan",
                    "zip": "49503",
                    "country": "United States",
                    "geoPoint": {
                        "lat": 42.96336,
                        "lon": -85.66809
                    }
                },
                {
                    "facility": "Infusion Associates Site Number : 840050",
                    "status": "RECRUITING",
                    "city": "Grand Rapids",
                    "state": "Michigan",
                    "zip": "49525",
                    "country": "United States",
                    "geoPoint": {
                        "lat": 42.96336,
                        "lon": -85.66809
                    }
                },
                {
                    "facility": "Children's Health Care Site Number : 840114",
                    "status": "RECRUITING",
                    "city": "Minneapolis",
                    "state": "Minnesota",
                    "zip": "55404",
                    "country": "United States",
                    "geoPoint": {
                        "lat": 44.97997,
                        "lon": -93.26384
                    }
                },
                {
                    "facility": "Children's Hospital and Clinics of Minnesota Site Number : 840046",
                    "status": "COMPLETED",
                    "city": "Minneapolis",
                    "state": "Minnesota",
                    "zip": "55404",
                    "country": "United States",
                    "geoPoint": {
                        "lat": 44.97997,
                        "lon": -93.26384
                    }
                },
                {
                    "facility": "University of Missouri Health System Department of Genetics Site Number : 840031",
                    "status": "RECRUITING",
                    "city": "Columibia",
                    "state": "Missouri",
                    "zip": "65212",
                    "country": "United States"
                },
                {
                    "facility": "Children's Mercy Hospital- Pediatrics Site Number : 840063",
                    "status": "COMPLETED",
                    "city": "Kansas City",
                    "state": "Missouri",
                    "zip": "64108",
                    "country": "United States",
                    "geoPoint": {
                        "lat": 39.09973,
                        "lon": -94.57857
                    }
                },
                {
                    "facility": "Washington University of St. Louis Site Number : 840100",
                    "status": "RECRUITING",
                    "city": "Saint Louis",
                    "state": "Missouri",
                    "zip": "63110",
                    "country": "United States",
                    "geoPoint": {
                        "lat": 38.62727,
                        "lon": -90.19789
                    }
                },
                {
                    "facility": "University of Nebraska Medical Center- Pediatrics Site Number : 840084",
                    "status": "RECRUITING",
                    "city": "Omaha",
                    "state": "Nebraska",
                    "zip": "68198",
                    "country": "United States",
                    "geoPoint": {
                        "lat": 41.25626,
                        "lon": -95.94043
                    }
                },
                {
                    "facility": "Hackensack University Medical Center Site Number : 840101",
                    "status": "RECRUITING",
                    "city": "Hackensack",
                    "state": "New Jersey",
                    "zip": "07601",
                    "country": "United States",
                    "geoPoint": {
                        "lat": 40.88593,
                        "lon": -74.04347
                    }
                },
                {
                    "facility": "Atlantic Health System Site Number : 840099",
                    "status": "RECRUITING",
                    "city": "Morristown",
                    "state": "New Jersey",
                    "zip": "07960",
                    "country": "United States",
                    "geoPoint": {
                        "lat": 40.79677,
                        "lon": -74.48154
                    }
                },
                {
                    "facility": "St. Peter's University Hospital Site Number : 840016",
                    "status": "RECRUITING",
                    "city": "New Brunswick",
                    "state": "New Jersey",
                    "zip": "08901",
                    "country": "United States",
                    "geoPoint": {
                        "lat": 40.48622,
                        "lon": -74.45182
                    }
                },
                {
                    "facility": "St. Joseph's Children's Hospital Site Number : 840057",
                    "status": "RECRUITING",
                    "city": "Paterson",
                    "state": "New Jersey",
                    "zip": "07503",
                    "country": "United States",
                    "geoPoint": {
                        "lat": 40.91677,
                        "lon": -74.17181
                    }
                },
                {
                    "facility": "Northwell Health Site Number : 840102",
                    "status": "RECRUITING",
                    "city": "Manhasset",
                    "state": "New York",
                    "zip": "11030",
                    "country": "United States",
                    "geoPoint": {
                        "lat": 40.79788,
                        "lon": -73.69957
                    }
                },
                {
                    "facility": "New York University School Of Medicine Site Number : 840040",
                    "status": "RECRUITING",
                    "city": "New York",
                    "state": "New York",
                    "zip": "10016",
                    "country": "United States",
                    "geoPoint": {
                        "lat": 40.71427,
                        "lon": -74.00597
                    }
                },
                {
                    "facility": "Metropolitan Hospital Center Site Number : 840110",
                    "status": "RECRUITING",
                    "city": "New York",
                    "state": "New York",
                    "zip": "10029-7494",
                    "country": "United States",
                    "geoPoint": {
                        "lat": 40.71427,
                        "lon": -74.00597
                    }
                },
                {
                    "facility": "Mt. Sinai School of Medicine Site Number : 840005",
                    "status": "RECRUITING",
                    "city": "New York",
                    "state": "New York",
                    "zip": "10029",
                    "country": "United States",
                    "geoPoint": {
                        "lat": 40.71427,
                        "lon": -74.00597
                    }
                },
                {
                    "facility": "University of Rochester Medical Center SOM Site Number : 840105",
                    "status": "RECRUITING",
                    "city": "Rochester",
                    "state": "New York",
                    "zip": "14642",
                    "country": "United States",
                    "geoPoint": {
                        "lat": 43.15478,
                        "lon": -77.61556
                    }
                },
                {
                    "facility": "State University of New York Site Number : 840052",
                    "status": "RECRUITING",
                    "city": "Syracuse",
                    "state": "New York",
                    "zip": "13210",
                    "country": "United States",
                    "geoPoint": {
                        "lat": 43.04812,
                        "lon": -76.14742
                    }
                },
                {
                    "facility": "New York Medical College Site Number : 840039",
                    "status": "RECRUITING",
                    "city": "Valhalla",
                    "state": "New York",
                    "zip": "10595",
                    "country": "United States",
                    "geoPoint": {
                        "lat": 41.07482,
                        "lon": -73.77513
                    }
                },
                {
                    "facility": "Carolinas Medical Center Hospital Site Number : 840065",
                    "status": "RECRUITING",
                    "city": "Charlotte",
                    "state": "North Carolina",
                    "zip": "28232",
                    "country": "United States",
                    "geoPoint": {
                        "lat": 35.22709,
                        "lon": -80.84313
                    }
                },
                {
                    "facility": "Duke University Medical Center Genetics Dept Site Number : 840037",
                    "status": "RECRUITING",
                    "city": "Durham",
                    "state": "North Carolina",
                    "zip": "27710",
                    "country": "United States",
                    "geoPoint": {
                        "lat": 35.99403,
                        "lon": -78.89862
                    }
                },
                {
                    "facility": "Cincinnati Children's Hospital-Genetics Site Number : 840041",
                    "status": "RECRUITING",
                    "city": "Cincinnati",
                    "state": "Ohio",
                    "country": "United States",
                    "geoPoint": {
                        "lat": 39.12713,
                        "lon": -84.51435
                    }
                },
                {
                    "facility": "UHCMC Site Number : 840119",
                    "status": "RECRUITING",
                    "city": "Cleveland",
                    "state": "Ohio",
                    "zip": "44106",
                    "country": "United States",
                    "geoPoint": {
                        "lat": 41.4995,
                        "lon": -81.69541
                    }
                },
                {
                    "facility": "Cleveland Clinic Foundation Pediatrics Site Number : 840048",
                    "status": "RECRUITING",
                    "city": "Cleveland",
                    "state": "Ohio",
                    "zip": "44195",
                    "country": "United States",
                    "geoPoint": {
                        "lat": 41.4995,
                        "lon": -81.69541
                    }
                },
                {
                    "facility": "Nationwide Children's Hospital Site Number : 840091",
                    "status": "RECRUITING",
                    "city": "Columbus",
                    "state": "Ohio",
                    "zip": "43205-2664",
                    "country": "United States",
                    "geoPoint": {
                        "lat": 39.96118,
                        "lon": -82.99879
                    }
                },
                {
                    "facility": "LSD Data Registry Site LLC Site Number : 840094",
                    "status": "RECRUITING",
                    "city": "Dublin",
                    "state": "Ohio",
                    "zip": "43017",
                    "country": "United States",
                    "geoPoint": {
                        "lat": 40.09923,
                        "lon": -83.11408
                    }
                },
                {
                    "facility": "Oregon Health & Sciences University Site Number : 840080",
                    "status": "RECRUITING",
                    "city": "Portland",
                    "state": "Oregon",
                    "zip": "97201",
                    "country": "United States",
                    "geoPoint": {
                        "lat": 45.52345,
                        "lon": -122.67621
                    }
                },
                {
                    "facility": "Penn Hershey Medical Center Site Number : 840061",
                    "status": "RECRUITING",
                    "city": "Hershey",
                    "state": "Pennsylvania",
                    "zip": "17033",
                    "country": "United States",
                    "geoPoint": {
                        "lat": 40.28592,
                        "lon": -76.65025
                    }
                },
                {
                    "facility": "Children's Hospital of Philadelphia Site Number : 840034",
                    "status": "RECRUITING",
                    "city": "Philadelphia",
                    "state": "Pennsylvania",
                    "country": "United States",
                    "geoPoint": {
                        "lat": 39.95233,
                        "lon": -75.16379
                    }
                },
                {
                    "facility": "UPMC Site Number : 840014",
                    "status": "RECRUITING",
                    "city": "Pittsburgh",
                    "state": "Pennsylvania",
                    "zip": "15213",
                    "country": "United States",
                    "geoPoint": {
                        "lat": 40.44062,
                        "lon": -79.99589
                    }
                },
                {
                    "facility": "University of Pittsburgh Site Number : 840023",
                    "status": "RECRUITING",
                    "city": "Pittsburgh",
                    "state": "Pennsylvania",
                    "zip": "15224",
                    "country": "United States",
                    "geoPoint": {
                        "lat": 40.44062,
                        "lon": -79.99589
                    }
                },
                {
                    "facility": "Rhode Island Hospital Genetics Site Number : 840053",
                    "status": "RECRUITING",
                    "city": "Providence",
                    "state": "Rhode Island",
                    "zip": "02903",
                    "country": "United States",
                    "geoPoint": {
                        "lat": 41.82399,
                        "lon": -71.41283
                    }
                },
                {
                    "facility": "Greenwood Genetcs Site Number : 840055",
                    "status": "RECRUITING",
                    "city": "Greenville",
                    "state": "South Carolina",
                    "zip": "29605",
                    "country": "United States",
                    "geoPoint": {
                        "lat": 34.85262,
                        "lon": -82.39401
                    }
                },
                {
                    "facility": "Vanderbilt University Hospital-Pediatrics Site Number : 840049",
                    "status": "RECRUITING",
                    "city": "Nashville",
                    "state": "Tennessee",
                    "zip": "38232",
                    "country": "United States",
                    "geoPoint": {
                        "lat": 36.16589,
                        "lon": -86.78444
                    }
                },
                {
                    "facility": "Baylor Research Center Site Number : 840058",
                    "status": "RECRUITING",
                    "city": "Dallas",
                    "state": "Texas",
                    "zip": "75226",
                    "country": "United States",
                    "geoPoint": {
                        "lat": 32.78306,
                        "lon": -96.80667
                    }
                },
                {
                    "facility": "Cook Children's Health Care System Site Number : 840024",
                    "status": "RECRUITING",
                    "city": "Fort Worth",
                    "state": "Texas",
                    "zip": "76104",
                    "country": "United States",
                    "geoPoint": {
                        "lat": 32.72541,
                        "lon": -97.32085
                    }
                },
                {
                    "facility": "University of Virginia School of Medicine-Pediatrics Site Number : 840078",
                    "status": "RECRUITING",
                    "city": "Charlottesville",
                    "state": "Virginia",
                    "zip": "22908",
                    "country": "United States",
                    "geoPoint": {
                        "lat": 38.02931,
                        "lon": -78.47668
                    }
                },
                {
                    "facility": "O&O Alpan, LLC Site Number : 840025",
                    "status": "RECRUITING",
                    "city": "Fairfax",
                    "state": "Virginia",
                    "zip": "22030",
                    "country": "United States",
                    "geoPoint": {
                        "lat": 38.84622,
                        "lon": -77.30637
                    }
                },
                {
                    "facility": "Children's Hospital of the Kings Daughters Site Number : 840072",
                    "status": "RECRUITING",
                    "city": "Norfolk",
                    "state": "Virginia",
                    "zip": "23507",
                    "country": "United States",
                    "geoPoint": {
                        "lat": 36.84681,
                        "lon": -76.28522
                    }
                },
                {
                    "facility": "Multicare Health System \u00bf Mary Bridge Childrens Hospital Site Number : 840115",
                    "status": "RECRUITING",
                    "city": "Tacoma",
                    "state": "Washington",
                    "zip": "98415",
                    "country": "United States",
                    "geoPoint": {
                        "lat": 47.25288,
                        "lon": -122.44429
                    }
                },
                {
                    "facility": "Children's Hospital of Wisconsin-Pediatrics Site Number : 840054",
                    "status": "RECRUITING",
                    "city": "Milwaukee",
                    "state": "Wisconsin",
                    "zip": "53226",
                    "country": "United States",
                    "geoPoint": {
                        "lat": 43.0389,
                        "lon": -87.90647
                    }
                },
                {
                    "facility": "Investigational Site Number : 152218",
                    "status": "RECRUITING",
                    "city": "Caba",
                    "state": "Buenos Aires",
                    "zip": "1424",
                    "country": "Argentina",
                    "geoPoint": {
                        "lat": -34.61315,
                        "lon": -58.37723
                    }
                },
                {
                    "facility": "Investigational Site Number : 153194",
                    "status": "RECRUITING",
                    "city": "Caba",
                    "state": "Buenos Aires",
                    "zip": "CPC1181ACH",
                    "country": "Argentina",
                    "geoPoint": {
                        "lat": -34.61315,
                        "lon": -58.37723
                    }
                },
                {
                    "facility": "Investigational Site Number : 153032",
                    "status": "RECRUITING",
                    "city": "Ciudad Aut\u00f3noma de Buenos Aires",
                    "state": "Buenos Aires",
                    "zip": "1425",
                    "country": "Argentina",
                    "geoPoint": {
                        "lat": -34.61315,
                        "lon": -58.37723
                    }
                },
                {
                    "facility": "Investigational Site Number : 036013",
                    "status": "RECRUITING",
                    "city": "Westmead",
                    "state": "New South Wales",
                    "zip": "2145",
                    "country": "Australia",
                    "geoPoint": {
                        "lat": -33.80383,
                        "lon": 150.98768
                    }
                },
                {
                    "facility": "Investigational Site Number : 151069",
                    "status": "RECRUITING",
                    "city": "Westmead",
                    "state": "New South Wales",
                    "zip": "2145",
                    "country": "Australia",
                    "geoPoint": {
                        "lat": -33.80383,
                        "lon": 150.98768
                    }
                },
                {
                    "facility": "Investigational Site Number : 154087",
                    "status": "RECRUITING",
                    "city": "Herston",
                    "state": "Queensland",
                    "zip": "4006",
                    "country": "Australia",
                    "geoPoint": {
                        "lat": -27.44453,
                        "lon": 153.01852
                    }
                },
                {
                    "facility": "Investigational Site Number : 151002",
                    "status": "RECRUITING",
                    "city": "Adelaide",
                    "state": "South Australia",
                    "zip": "5000",
                    "country": "Australia",
                    "geoPoint": {
                        "lat": -34.92866,
                        "lon": 138.59863
                    }
                },
                {
                    "facility": "Investigational Site Number : 151015",
                    "status": "RECRUITING",
                    "city": "Murdoch",
                    "state": "Western Australia",
                    "zip": "6150",
                    "country": "Australia",
                    "geoPoint": {
                        "lat": -32.06987,
                        "lon": 115.83757
                    }
                },
                {
                    "facility": "Investigational Site Number : 150722",
                    "status": "RECRUITING",
                    "city": "Antwerpen",
                    "zip": "2020",
                    "country": "Belgium",
                    "geoPoint": {
                        "lat": 51.21989,
                        "lon": 4.40346
                    }
                },
                {
                    "facility": "Investigational Site Number : 154298",
                    "status": "RECRUITING",
                    "city": "Brugge",
                    "zip": "8000",
                    "country": "Belgium",
                    "geoPoint": {
                        "lat": 51.20892,
                        "lon": 3.22424
                    }
                },
                {
                    "facility": "Investigational Site Number : 150684",
                    "status": "RECRUITING",
                    "city": "Bruxelles",
                    "zip": "1070",
                    "country": "Belgium",
                    "geoPoint": {
                        "lat": 50.85045,
                        "lon": 4.34878
                    }
                },
                {
                    "facility": "Investigational Site Number : 056010",
                    "status": "RECRUITING",
                    "city": "Bruxelles",
                    "zip": "BE-1200",
                    "country": "Belgium",
                    "geoPoint": {
                        "lat": 50.85045,
                        "lon": 4.34878
                    }
                },
                {
                    "facility": "Investigational Site Number : 152072",
                    "status": "RECRUITING",
                    "city": "Edegem",
                    "zip": "2650",
                    "country": "Belgium",
                    "geoPoint": {
                        "lat": 51.15662,
                        "lon": 4.44504
                    }
                },
                {
                    "facility": "Investigational Site Number : 152295",
                    "status": "RECRUITING",
                    "city": "Gent",
                    "zip": "9000",
                    "country": "Belgium",
                    "geoPoint": {
                        "lat": 51.05,
                        "lon": 3.71667
                    }
                },
                {
                    "facility": "Investigational Site Number : 153179",
                    "status": "RECRUITING",
                    "city": "Gosselies",
                    "zip": "6041",
                    "country": "Belgium",
                    "geoPoint": {
                        "lat": 50.46936,
                        "lon": 4.43324
                    }
                },
                {
                    "facility": "Investigational Site Number : 151668",
                    "status": "RECRUITING",
                    "city": "Leuven",
                    "zip": "3000",
                    "country": "Belgium",
                    "geoPoint": {
                        "lat": 50.87959,
                        "lon": 4.70093
                    }
                },
                {
                    "facility": "Investigational Site Number : 152126",
                    "status": "RECRUITING",
                    "city": "Leuven",
                    "zip": "3000",
                    "country": "Belgium",
                    "geoPoint": {
                        "lat": 50.87959,
                        "lon": 4.70093
                    }
                },
                {
                    "facility": "Hospital Universitario Walter Cantidio - UFC Site Number : 076011",
                    "status": "RECRUITING",
                    "city": "Fortaleza",
                    "state": "Cear\u00e1",
                    "zip": "60430-370",
                    "country": "Brazil",
                    "geoPoint": {
                        "lat": -3.71722,
                        "lon": -38.54306
                    }
                },
                {
                    "facility": "Hospital De Clinicas De Porto Alegre Site Number : 076008",
                    "status": "RECRUITING",
                    "city": "Porto Alegre",
                    "state": "Rio Grande Do Sul",
                    "zip": "90035-003",
                    "country": "Brazil",
                    "geoPoint": {
                        "lat": -30.03306,
                        "lon": -51.23
                    }
                },
                {
                    "facility": "Faculdade de Medicina de Ribeirao Preto - USP Site Number : 076009",
                    "status": "RECRUITING",
                    "city": "Ribeirao Preto",
                    "state": "S\u00e3o Paulo",
                    "zip": "14048-900",
                    "country": "Brazil",
                    "geoPoint": {
                        "lat": -21.1775,
                        "lon": -47.81028
                    }
                },
                {
                    "facility": "Instituto Fernandes Figueira - FIOCRUZ Site Number : 076001",
                    "status": "RECRUITING",
                    "city": "Rio de Janeiro",
                    "zip": "22250020",
                    "country": "Brazil",
                    "geoPoint": {
                        "lat": -22.90278,
                        "lon": -43.2075
                    }
                },
                {
                    "facility": "Instituto de Gen\u00e9tica e Erros Inatos do Metabolismo - IGEIM Site Number : 076002",
                    "status": "RECRUITING",
                    "city": "S\u00e3o Paulo",
                    "zip": "04020-041",
                    "country": "Brazil",
                    "geoPoint": {
                        "lat": -23.5475,
                        "lon": -46.63611
                    }
                },
                {
                    "facility": "N\u00facleo de Gest\u00e3o em Pesquisa (NGP) - UNIFESP Site Number : 076012",
                    "status": "RECRUITING",
                    "city": "S\u00e3o Paulo",
                    "zip": "04037002",
                    "country": "Brazil",
                    "geoPoint": {
                        "lat": -23.5475,
                        "lon": -46.63611
                    }
                },
                {
                    "facility": "Hospital das Cl\u00ednicas da Faculdade de Medicina da USP Site Number : 076004",
                    "status": "RECRUITING",
                    "city": "S\u00e3o Paulo",
                    "zip": "05403-000",
                    "country": "Brazil",
                    "geoPoint": {
                        "lat": -23.5475,
                        "lon": -46.63611
                    }
                },
                {
                    "facility": "Hospital das Cl\u00ednicas da Faculdade de Medicina da USP Site Number : 076007",
                    "status": "RECRUITING",
                    "city": "S\u00e3o Paulo",
                    "zip": "05403-000",
                    "country": "Brazil",
                    "geoPoint": {
                        "lat": -23.5475,
                        "lon": -46.63611
                    }
                },
                {
                    "facility": "Investigational Site Number : 100001",
                    "status": "RECRUITING",
                    "city": "Sofia",
                    "zip": "1680",
                    "country": "Bulgaria",
                    "geoPoint": {
                        "lat": 42.69751,
                        "lon": 23.32415
                    }
                },
                {
                    "facility": "Investigational Site Number : 124022",
                    "status": "RECRUITING",
                    "city": "Moncton",
                    "state": "New Brunswick",
                    "zip": "E1C2Z3",
                    "country": "Canada",
                    "geoPoint": {
                        "lat": 46.09454,
                        "lon": -64.7965
                    }
                },
                {
                    "facility": "Investigational Site Number : 124004",
                    "status": "RECRUITING",
                    "city": "Montreal",
                    "state": "Quebec",
                    "zip": "H3A2B4",
                    "country": "Canada",
                    "geoPoint": {
                        "lat": 45.50884,
                        "lon": -73.58781
                    }
                },
                {
                    "facility": "Investigational Site Number : 152002",
                    "status": "RECRUITING",
                    "city": "Punta Arenas",
                    "country": "Chile",
                    "geoPoint": {
                        "lat": -53.15483,
                        "lon": -70.91129
                    }
                },
                {
                    "facility": "Investigational Site Number : 152001",
                    "status": "RECRUITING",
                    "city": "Santiago",
                    "country": "Chile",
                    "geoPoint": {
                        "lat": -33.45694,
                        "lon": -70.64827
                    }
                },
                {
                    "facility": "Investigational Site Number : 153203",
                    "status": "COMPLETED",
                    "city": "Beijing",
                    "country": "China",
                    "geoPoint": {
                        "lat": 39.9075,
                        "lon": 116.39723
                    }
                },
                {
                    "facility": "Investigational Site Number : 170001",
                    "status": "RECRUITING",
                    "city": "Bogota",
                    "country": "Colombia",
                    "geoPoint": {
                        "lat": 4.60971,
                        "lon": -74.08175
                    }
                },
                {
                    "facility": "Investigational Site Number : 1910001",
                    "status": "RECRUITING",
                    "city": "Zagreb",
                    "zip": "10000",
                    "country": "Croatia",
                    "geoPoint": {
                        "lat": 45.81444,
                        "lon": 15.97798
                    }
                },
                {
                    "facility": "Investigational Site Number : 1910002",
                    "status": "RECRUITING",
                    "city": "Zagreb",
                    "zip": "10000",
                    "country": "Croatia",
                    "geoPoint": {
                        "lat": 45.81444,
                        "lon": 15.97798
                    }
                },
                {
                    "facility": "Investigational Site Number : 151229",
                    "status": "RECRUITING",
                    "city": "K\u00f8benhavn \u00d8",
                    "zip": "2100",
                    "country": "Denmark",
                    "geoPoint": {
                        "lat": 55.67594,
                        "lon": 12.56553
                    }
                },
                {
                    "facility": "Investigational Site Number : 250010",
                    "status": "RECRUITING",
                    "city": "Bordeaux",
                    "zip": "33000",
                    "country": "France",
                    "geoPoint": {
                        "lat": 44.84044,
                        "lon": -0.5805
                    }
                },
                {
                    "facility": "Investigational Site Number : 250012",
                    "status": "RECRUITING",
                    "city": "Brest",
                    "zip": "29200",
                    "country": "France",
                    "geoPoint": {
                        "lat": 48.3903,
                        "lon": -4.48628
                    }
                },
                {
                    "facility": "Investigational Site Number : 250003",
                    "status": "RECRUITING",
                    "city": "BRON Cedex",
                    "zip": "69677",
                    "country": "France",
                    "geoPoint": {
                        "lat": 45.73333,
                        "lon": 4.91667
                    }
                },
                {
                    "facility": "Investigational Site Number : 250007",
                    "status": "RECRUITING",
                    "city": "BRON Cedex",
                    "zip": "69677",
                    "country": "France",
                    "geoPoint": {
                        "lat": 45.73333,
                        "lon": 4.91667
                    }
                },
                {
                    "facility": "Investigational Site Number : 250009",
                    "status": "RECRUITING",
                    "city": "Caen",
                    "zip": "14000",
                    "country": "France",
                    "geoPoint": {
                        "lat": 49.18585,
                        "lon": -0.35912
                    }
                },
                {
                    "facility": "Investigational Site Number : 250015",
                    "status": "RECRUITING",
                    "city": "GRENOBLE cedex",
                    "zip": "38043",
                    "country": "France",
                    "geoPoint": {
                        "lat": 45.16667,
                        "lon": 5.71667
                    }
                },
                {
                    "facility": "Investigational Site Number : 250008",
                    "status": "RECRUITING",
                    "city": "Lille Cedex",
                    "zip": "59037",
                    "country": "France",
                    "geoPoint": {
                        "lat": 50.63297,
                        "lon": 3.05858
                    }
                },
                {
                    "facility": "Investigational Site Number : 250002",
                    "status": "COMPLETED",
                    "city": "Marseille Cedex 05",
                    "zip": "13385",
                    "country": "France",
                    "geoPoint": {
                        "lat": 43.29551,
                        "lon": 5.38958
                    }
                },
                {
                    "facility": "Investigational Site Number : 250017",
                    "status": "RECRUITING",
                    "city": "NANCY Cedex",
                    "zip": "54035",
                    "country": "France",
                    "geoPoint": {
                        "lat": 48.68439,
                        "lon": 6.18496
                    }
                },
                {
                    "facility": "Investigational Site Number : 250019",
                    "status": "RECRUITING",
                    "city": "NANTES Cedex 1",
                    "zip": "44035",
                    "country": "France",
                    "geoPoint": {
                        "lat": 47.21725,
                        "lon": -1.55336
                    }
                },
                {
                    "facility": "Investigational Site Number : 250005",
                    "status": "RECRUITING",
                    "city": "Nice cedex 1",
                    "zip": "06001",
                    "country": "France",
                    "geoPoint": {
                        "lat": 43.70313,
                        "lon": 7.26608
                    }
                },
                {
                    "facility": "Investigational Site Number : 250011",
                    "status": "RECRUITING",
                    "city": "NIMES Cedex 9",
                    "zip": "30029",
                    "country": "France",
                    "geoPoint": {
                        "lat": 43.83333,
                        "lon": 4.35
                    }
                },
                {
                    "facility": "Investigational Site Number : 250001",
                    "status": "RECRUITING",
                    "city": "PARIS Cedex 13",
                    "zip": "75013",
                    "country": "France",
                    "geoPoint": {
                        "lat": 48.85341,
                        "lon": 2.3488
                    }
                },
                {
                    "facility": "Investigational Site Number : 250004",
                    "status": "RECRUITING",
                    "city": "Paris",
                    "zip": "75015",
                    "country": "France",
                    "geoPoint": {
                        "lat": 48.85341,
                        "lon": 2.3488
                    }
                },
                {
                    "facility": "Investigational Site Number : 250018",
                    "status": "RECRUITING",
                    "city": "St Etienne",
                    "zip": "42055",
                    "country": "France",
                    "geoPoint": {
                        "lat": 45.43389,
                        "lon": 4.39
                    }
                },
                {
                    "facility": "Investigational Site Number : 250016",
                    "status": "RECRUITING",
                    "city": "Strasbourg Cedex 2",
                    "zip": "67098",
                    "country": "France",
                    "geoPoint": {
                        "lat": 48.58392,
                        "lon": 7.74553
                    }
                },
                {
                    "facility": "Investigational Site Number : 250014",
                    "status": "RECRUITING",
                    "city": "Toulouse",
                    "zip": "31200",
                    "country": "France",
                    "geoPoint": {
                        "lat": 43.60426,
                        "lon": 1.44367
                    }
                },
                {
                    "facility": "Investigational Site Number : 250006",
                    "status": "RECRUITING",
                    "city": "Tours",
                    "zip": "37044",
                    "country": "France",
                    "geoPoint": {
                        "lat": 47.38333,
                        "lon": 0.68333
                    }
                },
                {
                    "facility": "Investigational Site Number : 25013",
                    "status": "RECRUITING",
                    "city": "Vannes Cedex",
                    "zip": "56017",
                    "country": "France",
                    "geoPoint": {
                        "lat": 47.66667,
                        "lon": -2.75
                    }
                },
                {
                    "facility": "Investigational Site Number : 154150",
                    "status": "RECRUITING",
                    "city": "Gie\u00dfen",
                    "zip": "35392",
                    "country": "Germany",
                    "geoPoint": {
                        "lat": 50.58727,
                        "lon": 8.67554
                    }
                },
                {
                    "facility": "Investigational Site Number : 154215",
                    "status": "RECRUITING",
                    "city": "Hamburg",
                    "zip": "20354",
                    "country": "Germany",
                    "geoPoint": {
                        "lat": 53.57532,
                        "lon": 10.01534
                    }
                },
                {
                    "facility": "Investigational Site Number : 300001",
                    "status": "RECRUITING",
                    "city": "Thessaloniki",
                    "zip": "54642",
                    "country": "Greece",
                    "geoPoint": {
                        "lat": 40.64361,
                        "lon": 22.93086
                    }
                },
                {
                    "facility": "Investigational Site Number : 344001",
                    "status": "RECRUITING",
                    "city": "Kowloon",
                    "country": "Hong Kong",
                    "geoPoint": {
                        "lat": 22.31667,
                        "lon": 114.18333
                    }
                },
                {
                    "facility": "Investigational Site Number : 3480009",
                    "status": "RECRUITING",
                    "city": "Debrecen",
                    "zip": "4032",
                    "country": "Hungary",
                    "geoPoint": {
                        "lat": 47.53333,
                        "lon": 21.63333
                    }
                },
                {
                    "facility": "Investigational Site Number : 3480007",
                    "status": "RECRUITING",
                    "city": "Ny\u00edregyh\u00e1za",
                    "zip": "4400",
                    "country": "Hungary",
                    "geoPoint": {
                        "lat": 47.95539,
                        "lon": 21.71671
                    }
                },
                {
                    "facility": "Investigational Site Number : 3480011",
                    "status": "RECRUITING",
                    "city": "P\u00e9cs",
                    "zip": "7623",
                    "country": "Hungary",
                    "geoPoint": {
                        "lat": 46.08333,
                        "lon": 18.23333
                    }
                },
                {
                    "facility": "Investigational Site Number : 3480012",
                    "status": "RECRUITING",
                    "city": "Sz\u00e9kesfeh\u00e9rv\u00e1r",
                    "zip": "8000",
                    "country": "Hungary",
                    "geoPoint": {
                        "lat": 47.18995,
                        "lon": 18.41034
                    }
                },
                {
                    "facility": "Investigational Site Number : 356003",
                    "status": "RECRUITING",
                    "city": "Ahmedabad",
                    "zip": "380015",
                    "country": "India",
                    "geoPoint": {
                        "lat": 23.02579,
                        "lon": 72.58727
                    }
                },
                {
                    "facility": "Investigational Site Number : 356001",
                    "status": "RECRUITING",
                    "city": "Kolkata",
                    "zip": "700017",
                    "country": "India",
                    "geoPoint": {
                        "lat": 22.56263,
                        "lon": 88.36304
                    }
                },
                {
                    "facility": "Investigational Site Number : 3560004",
                    "status": "RECRUITING",
                    "city": "Secunderabad",
                    "zip": "500026",
                    "country": "India",
                    "geoPoint": {
                        "lat": 17.50427,
                        "lon": 78.54263
                    }
                },
                {
                    "facility": "Investigational Site Number : 356002",
                    "status": "RECRUITING",
                    "city": "Vellore",
                    "zip": "632004",
                    "country": "India",
                    "geoPoint": {
                        "lat": 12.9184,
                        "lon": 79.13255
                    }
                },
                {
                    "facility": "Investigational Site Number : 360001",
                    "status": "RECRUITING",
                    "city": "Jakarta",
                    "country": "Indonesia",
                    "geoPoint": {
                        "lat": -6.21462,
                        "lon": 106.84513
                    }
                },
                {
                    "facility": "Investigational Site Number : 3760003",
                    "status": "COMPLETED",
                    "city": "Tel Aviv",
                    "country": "Israel",
                    "geoPoint": {
                        "lat": 32.08088,
                        "lon": 34.78057
                    }
                },
                {
                    "facility": "Investigational Site Number : 380008",
                    "status": "RECRUITING",
                    "city": "Brescia",
                    "zip": "25123",
                    "country": "Italy",
                    "geoPoint": {
                        "lat": 45.53558,
                        "lon": 10.21472
                    }
                },
                {
                    "facility": "Investigational Site Number : 380006",
                    "status": "RECRUITING",
                    "city": "Cagliari",
                    "zip": "09126",
                    "country": "Italy",
                    "geoPoint": {
                        "lat": 39.23054,
                        "lon": 9.11917
                    }
                },
                {
                    "facility": "Investigational Site Number : 380014",
                    "status": "RECRUITING",
                    "city": "Ferrara",
                    "zip": "44124",
                    "country": "Italy",
                    "geoPoint": {
                        "lat": 44.83804,
                        "lon": 11.62057
                    }
                },
                {
                    "facility": "Investigational Site Number : 380005",
                    "status": "RECRUITING",
                    "city": "Firenze",
                    "zip": "50141",
                    "country": "Italy",
                    "geoPoint": {
                        "lat": 43.77925,
                        "lon": 11.24626
                    }
                },
                {
                    "facility": "Investigational Site Number : 380004",
                    "status": "RECRUITING",
                    "city": "Genova",
                    "zip": "16147",
                    "country": "Italy",
                    "geoPoint": {
                        "lat": 44.40478,
                        "lon": 8.94438
                    }
                },
                {
                    "facility": "Investigational Site Number : 380013",
                    "status": "RECRUITING",
                    "city": "Messina",
                    "zip": "98125",
                    "country": "Italy",
                    "geoPoint": {
                        "lat": 38.19394,
                        "lon": 15.55256
                    }
                },
                {
                    "facility": "Investigational Site Number : 380016",
                    "status": "RECRUITING",
                    "city": "Milano",
                    "zip": "20122",
                    "country": "Italy",
                    "geoPoint": {
                        "lat": 45.46427,
                        "lon": 9.18951
                    }
                },
                {
                    "facility": "Investigational Site Number : 380007",
                    "status": "RECRUITING",
                    "city": "Milano",
                    "zip": "20133",
                    "country": "Italy",
                    "geoPoint": {
                        "lat": 45.46427,
                        "lon": 9.18951
                    }
                },
                {
                    "facility": "Investigational Site Number : 380009",
                    "status": "RECRUITING",
                    "city": "Monza",
                    "country": "Italy",
                    "geoPoint": {
                        "lat": 45.58005,
                        "lon": 9.27246
                    }
                },
                {
                    "facility": "Investigational Site Number : 380010",
                    "status": "RECRUITING",
                    "city": "Napoli",
                    "country": "Italy",
                    "geoPoint": {
                        "lat": 40.85216,
                        "lon": 14.26811
                    }
                },
                {
                    "facility": "Investigational Site Number : 380019",
                    "status": "RECRUITING",
                    "city": "Napoli",
                    "country": "Italy",
                    "geoPoint": {
                        "lat": 40.85216,
                        "lon": 14.26811
                    }
                },
                {
                    "facility": "Investigational Site Number : 380002",
                    "status": "RECRUITING",
                    "city": "Padova",
                    "zip": "35128",
                    "country": "Italy",
                    "geoPoint": {
                        "lat": 45.40797,
                        "lon": 11.88586
                    }
                },
                {
                    "facility": "Investigational Site Number : 380011",
                    "status": "RECRUITING",
                    "city": "Padova",
                    "country": "Italy",
                    "geoPoint": {
                        "lat": 45.40797,
                        "lon": 11.88586
                    }
                },
                {
                    "facility": "Investigational Site Number : 380003",
                    "status": "RECRUITING",
                    "city": "Pavia",
                    "zip": "27100",
                    "country": "Italy",
                    "geoPoint": {
                        "lat": 45.19205,
                        "lon": 9.15917
                    }
                },
                {
                    "facility": "Investigational Site Number : 380015",
                    "status": "RECRUITING",
                    "city": "Roma",
                    "zip": "00165",
                    "country": "Italy",
                    "geoPoint": {
                        "lat": 41.89193,
                        "lon": 12.51133
                    }
                },
                {
                    "facility": "Investigational Site Number : 380012",
                    "status": "RECRUITING",
                    "city": "Roma",
                    "country": "Italy",
                    "geoPoint": {
                        "lat": 41.89193,
                        "lon": 12.51133
                    }
                },
                {
                    "facility": "Investigational Site Number : 380017",
                    "status": "RECRUITING",
                    "city": "Torino",
                    "zip": "10126",
                    "country": "Italy",
                    "geoPoint": {
                        "lat": 45.07049,
                        "lon": 7.68682
                    }
                },
                {
                    "facility": "Investigational Site Number : 380001",
                    "status": "RECRUITING",
                    "city": "Udine",
                    "zip": "33100",
                    "country": "Italy",
                    "geoPoint": {
                        "lat": 46.0693,
                        "lon": 13.23715
                    }
                },
                {
                    "facility": "Investigational Site Number : 392106",
                    "status": "RECRUITING",
                    "city": "Sakyo-ku",
                    "state": "Kyoto",
                    "zip": "606-8507",
                    "country": "Japan"
                },
                {
                    "facility": "Investigational Site Number : 392105",
                    "status": "RECRUITING",
                    "city": "Ginowan",
                    "state": "Okinawa",
                    "zip": "901-2214",
                    "country": "Japan",
                    "geoPoint": {
                        "lat": 26.26265,
                        "lon": 127.76147
                    }
                },
                {
                    "facility": "Investigational Site Number : 4000001",
                    "status": "RECRUITING",
                    "city": "Amman",
                    "zip": "261",
                    "country": "Jordan",
                    "geoPoint": {
                        "lat": 31.95522,
                        "lon": 35.94503
                    }
                },
                {
                    "facility": "Investigational Site Number : 153178",
                    "status": "RECRUITING",
                    "city": "Yangsan-si",
                    "state": "Gyeongsangnam-do",
                    "zip": "50612",
                    "country": "Korea, Republic of"
                },
                {
                    "facility": "Investigational Site Number : 153191",
                    "status": "RECRUITING",
                    "city": "Daejeon",
                    "country": "Korea, Republic of",
                    "geoPoint": {
                        "lat": 36.32139,
                        "lon": 127.41972
                    }
                },
                {
                    "facility": "Investigational Site Number : 153225",
                    "status": "RECRUITING",
                    "city": "Jeonnam",
                    "country": "Korea, Republic of"
                },
                {
                    "facility": "Investigational Site Number : 153180",
                    "status": "RECRUITING",
                    "city": "Seoul",
                    "zip": "03080",
                    "country": "Korea, Republic of",
                    "geoPoint": {
                        "lat": 37.566,
                        "lon": 126.9784
                    }
                },
                {
                    "facility": "Investigational Site Number : 153196",
                    "status": "COMPLETED",
                    "city": "Seoul",
                    "zip": "03080",
                    "country": "Korea, Republic of",
                    "geoPoint": {
                        "lat": 37.566,
                        "lon": 126.9784
                    }
                },
                {
                    "facility": "Investigational Site Number : 153192",
                    "status": "RECRUITING",
                    "city": "Seoul",
                    "zip": "04401",
                    "country": "Korea, Republic of",
                    "geoPoint": {
                        "lat": 37.566,
                        "lon": 126.9784
                    }
                },
                {
                    "facility": "Investigational Site Number : 151149",
                    "status": "RECRUITING",
                    "city": "Seoul",
                    "zip": "05505",
                    "country": "Korea, Republic of",
                    "geoPoint": {
                        "lat": 37.566,
                        "lon": 126.9784
                    }
                },
                {
                    "facility": "Investigational Site Number : 153176",
                    "status": "RECRUITING",
                    "city": "Seoul",
                    "country": "Korea, Republic of",
                    "geoPoint": {
                        "lat": 37.566,
                        "lon": 126.9784
                    }
                },
                {
                    "facility": "Investigational Site Number : 153212",
                    "status": "RECRUITING",
                    "city": "Seoul",
                    "country": "Korea, Republic of",
                    "geoPoint": {
                        "lat": 37.566,
                        "lon": 126.9784
                    }
                },
                {
                    "facility": "Investigational Site Number : 153222",
                    "status": "RECRUITING",
                    "city": "Seoul",
                    "country": "Korea, Republic of",
                    "geoPoint": {
                        "lat": 37.566,
                        "lon": 126.9784
                    }
                },
                {
                    "facility": "Investigational Site Number : 154148",
                    "status": "RECRUITING",
                    "city": "Yangsan",
                    "zip": "50612",
                    "country": "Korea, Republic of",
                    "geoPoint": {
                        "lat": 35.34199,
                        "lon": 129.03358
                    }
                },
                {
                    "facility": "Investigational Site Number : 154225",
                    "status": "RECRUITING",
                    "city": "Kuwait",
                    "country": "Kuwait",
                    "geoPoint": {
                        "lat": 29.36972,
                        "lon": 47.97833
                    }
                },
                {
                    "facility": "Investigational Site Number : 4220004",
                    "status": "RECRUITING",
                    "city": "Beirut",
                    "zip": "11072210",
                    "country": "Lebanon",
                    "geoPoint": {
                        "lat": 33.88894,
                        "lon": 35.49442
                    }
                },
                {
                    "facility": "Investigational Site Number : 4220002",
                    "status": "RECRUITING",
                    "city": "Hazmieh",
                    "country": "Lebanon"
                },
                {
                    "facility": "Investigational Site Number : 458001",
                    "status": "RECRUITING",
                    "city": "Jalan Pahang",
                    "zip": "50586",
                    "country": "Malaysia"
                },
                {
                    "facility": "Investigational Site Number : 458002",
                    "status": "RECRUITING",
                    "city": "Lembah Pantai",
                    "zip": "59100",
                    "country": "Malaysia"
                },
                {
                    "facility": "Investigational Site Number : 152029",
                    "status": "RECRUITING",
                    "city": "Rotterdam",
                    "zip": "3015GD",
                    "country": "Netherlands",
                    "geoPoint": {
                        "lat": 51.9225,
                        "lon": 4.47917
                    }
                },
                {
                    "facility": "Investigational Site Number : 154264",
                    "status": "RECRUITING",
                    "city": "Karachi",
                    "country": "Pakistan",
                    "geoPoint": {
                        "lat": 24.8608,
                        "lon": 67.0104
                    }
                },
                {
                    "facility": "Investigational Site Number : 154266",
                    "status": "RECRUITING",
                    "city": "Lahore",
                    "country": "Pakistan",
                    "geoPoint": {
                        "lat": 31.558,
                        "lon": 74.35071
                    }
                },
                {
                    "facility": "Investigational Site Number : 608001",
                    "status": "RECRUITING",
                    "city": "Manila",
                    "zip": "1000",
                    "country": "Philippines",
                    "geoPoint": {
                        "lat": 14.6042,
                        "lon": 120.9822
                    }
                },
                {
                    "facility": "Investigational Site Number : 150575",
                    "status": "RECRUITING",
                    "city": "Warszawa",
                    "zip": "04-730",
                    "country": "Poland",
                    "geoPoint": {
                        "lat": 52.22977,
                        "lon": 21.01178
                    }
                },
                {
                    "facility": "Investigational Site Number : 620008",
                    "status": "RECRUITING",
                    "city": "Coimbra",
                    "zip": "3000-075",
                    "country": "Portugal",
                    "geoPoint": {
                        "lat": 40.20564,
                        "lon": -8.41955
                    }
                },
                {
                    "facility": "Investigational Site Number : 620006",
                    "status": "RECRUITING",
                    "city": "Lisboa",
                    "zip": "1649-035",
                    "country": "Portugal",
                    "geoPoint": {
                        "lat": 38.71667,
                        "lon": -9.13333
                    }
                },
                {
                    "facility": "Investigational Site Number : 154099",
                    "status": "RECRUITING",
                    "city": "Bucuresti",
                    "zip": "022328",
                    "country": "Romania",
                    "geoPoint": {
                        "lat": 44.42802,
                        "lon": 26.09665
                    }
                },
                {
                    "facility": "Investigational Site Number : 643002",
                    "status": "COMPLETED",
                    "city": "Moscow",
                    "zip": "117218",
                    "country": "Russian Federation",
                    "geoPoint": {
                        "lat": 55.75222,
                        "lon": 37.61556
                    }
                },
                {
                    "facility": "Investigational Site Number : 682004",
                    "status": "RECRUITING",
                    "city": "Makkah",
                    "zip": "21955",
                    "country": "Saudi Arabia"
                },
                {
                    "facility": "Investigational Site Number : 682001",
                    "status": "RECRUITING",
                    "city": "Qatif",
                    "country": "Saudi Arabia"
                },
                {
                    "facility": "Investigational Site Number : 6880001",
                    "status": "RECRUITING",
                    "city": "Belgrade",
                    "zip": "11000",
                    "country": "Serbia",
                    "geoPoint": {
                        "lat": 44.80401,
                        "lon": 20.46513
                    }
                },
                {
                    "facility": "Investigational Site Number : 702001",
                    "status": "RECRUITING",
                    "city": "Singapore",
                    "zip": "229899",
                    "country": "Singapore",
                    "geoPoint": {
                        "lat": 1.28967,
                        "lon": 103.85007
                    }
                },
                {
                    "facility": "Investigational Site Number : 703001",
                    "status": "RECRUITING",
                    "city": "Bratislava",
                    "zip": "83340",
                    "country": "Slovakia",
                    "geoPoint": {
                        "lat": 48.14816,
                        "lon": 17.10674
                    }
                },
                {
                    "facility": "Investigational Site Number : 154093",
                    "status": "RECRUITING",
                    "city": "Chiayi",
                    "country": "Taiwan"
                },
                {
                    "facility": "Investigational Site Number : 152152",
                    "status": "RECRUITING",
                    "city": "Hualien",
                    "country": "Taiwan"
                },
                {
                    "facility": "Investigational Site Number : 152246",
                    "status": "RECRUITING",
                    "city": "Kaohsiung Hsien,",
                    "country": "Taiwan"
                },
                {
                    "facility": "Investigational Site Number : 152244",
                    "status": "RECRUITING",
                    "city": "Kaohsiung",
                    "zip": "807",
                    "country": "Taiwan",
                    "geoPoint": {
                        "lat": 22.61626,
                        "lon": 120.31333
                    }
                },
                {
                    "facility": "Investigational Site Number : 151534",
                    "status": "RECRUITING",
                    "city": "New Taipei City",
                    "zip": "23142",
                    "country": "Taiwan",
                    "geoPoint": {
                        "lat": 25.01111,
                        "lon": 121.44583
                    }
                },
                {
                    "facility": "Investigational Site Number : 151500",
                    "status": "RECRUITING",
                    "city": "Putz City, Chia-yi",
                    "country": "Taiwan"
                },
                {
                    "facility": "Investigational Site Number : 151179",
                    "status": "RECRUITING",
                    "city": "Taichung City",
                    "zip": "404",
                    "country": "Taiwan",
                    "geoPoint": {
                        "lat": 24.1469,
                        "lon": 120.6839
                    }
                },
                {
                    "facility": "Investigational Site Number : 151181",
                    "status": "RECRUITING",
                    "city": "Taichung",
                    "zip": "00407",
                    "country": "Taiwan",
                    "geoPoint": {
                        "lat": 24.1469,
                        "lon": 120.6839
                    }
                },
                {
                    "facility": "Investigational Site Number : 153248",
                    "status": "RECRUITING",
                    "city": "Tainan",
                    "zip": "70403",
                    "country": "Taiwan",
                    "geoPoint": {
                        "lat": 22.99083,
                        "lon": 120.21333
                    }
                },
                {
                    "facility": "Investigational Site Number : 152153",
                    "status": "RECRUITING",
                    "city": "Tainan",
                    "country": "Taiwan",
                    "geoPoint": {
                        "lat": 22.99083,
                        "lon": 120.21333
                    }
                },
                {
                    "facility": "Investigational Site Number : 151182",
                    "status": "RECRUITING",
                    "city": "Taipei",
                    "zip": "10041",
                    "country": "Taiwan",
                    "geoPoint": {
                        "lat": 25.04776,
                        "lon": 121.53185
                    }
                },
                {
                    "facility": "Investigational Site Number : 152321",
                    "status": "RECRUITING",
                    "city": "Taipei",
                    "zip": "10449",
                    "country": "Taiwan",
                    "geoPoint": {
                        "lat": 25.04776,
                        "lon": 121.53185
                    }
                },
                {
                    "facility": "Investigational Site Number : 152226",
                    "status": "RECRUITING",
                    "city": "Taipei",
                    "country": "Taiwan",
                    "geoPoint": {
                        "lat": 25.04776,
                        "lon": 121.53185
                    }
                },
                {
                    "facility": "Investigational Site Number : 153158",
                    "status": "RECRUITING",
                    "city": "Tao Yuan County",
                    "country": "Taiwan"
                },
                {
                    "facility": "Investigational Site Number : 764002",
                    "status": "COMPLETED",
                    "city": "Bangkok",
                    "zip": "10400",
                    "country": "Thailand",
                    "geoPoint": {
                        "lat": 13.75398,
                        "lon": 100.50144
                    }
                },
                {
                    "facility": "Investigational Site Number : 764003",
                    "status": "RECRUITING",
                    "city": "Bangkok",
                    "zip": "10400",
                    "country": "Thailand",
                    "geoPoint": {
                        "lat": 13.75398,
                        "lon": 100.50144
                    }
                },
                {
                    "facility": "Investigational Site Number : 764004",
                    "status": "RECRUITING",
                    "city": "Bangkok",
                    "zip": "10700",
                    "country": "Thailand",
                    "geoPoint": {
                        "lat": 13.75398,
                        "lon": 100.50144
                    }
                },
                {
                    "facility": "Investigational Site Number : 764001",
                    "status": "RECRUITING",
                    "city": "Bangkok",
                    "country": "Thailand",
                    "geoPoint": {
                        "lat": 13.75398,
                        "lon": 100.50144
                    }
                },
                {
                    "facility": "Investigational Site Number : 764005",
                    "status": "RECRUITING",
                    "city": "Khon Kaen",
                    "zip": "40002",
                    "country": "Thailand",
                    "geoPoint": {
                        "lat": 16.44671,
                        "lon": 102.833
                    }
                },
                {
                    "facility": "Investigational Site Number : 152287",
                    "status": "RECRUITING",
                    "city": "Birmingham",
                    "zip": "B152TH",
                    "country": "United Kingdom",
                    "geoPoint": {
                        "lat": 52.48142,
                        "lon": -1.89983
                    }
                },
                {
                    "facility": "Investigational Site Number : 154240",
                    "status": "RECRUITING",
                    "city": "Birmingham",
                    "zip": "B46NH",
                    "country": "United Kingdom",
                    "geoPoint": {
                        "lat": 52.48142,
                        "lon": -1.89983
                    }
                },
                {
                    "facility": "Investigational Site Number : 154212",
                    "status": "RECRUITING",
                    "city": "Hanoi",
                    "country": "Vietnam",
                    "geoPoint": {
                        "lat": 21.0245,
                        "lon": 105.84117
                    }
                },
                {
                    "facility": "Investigational Site Number : 704002",
                    "status": "RECRUITING",
                    "city": "Ho Chi Minh City",
                    "zip": "700000",
                    "country": "Vietnam",
                    "geoPoint": {
                        "lat": 10.82302,
                        "lon": 106.62965
                    }
                }
            ]
        },
        "referencesModule": {
            "references": [
                {
                    "pmid": "25085280",
                    "type": "BACKGROUND",
                    "citation": "Kishnani PS, Amartino HM, Lindberg C, Miller TM, Wilson A, Keutzer J. Methods of diagnosis of patients with Pompe disease: Data from the Pompe Registry. Mol Genet Metab. 2014 Sep-Oct;113(1-2):84-91. doi: 10.1016/j.ymgme.2014.07.014. Epub 2014 Jul 16."
                },
                {
                    "pmid": "23997011",
                    "type": "BACKGROUND",
                    "citation": "Kishnani PS, Amartino HM, Lindberg C, Miller TM, Wilson A, Keutzer J; Pompe Registry Boards of Advisors. Timing of diagnosis of patients with Pompe disease: data from the Pompe registry. Am J Med Genet A. 2013 Oct;161A(10):2431-43. doi: 10.1002/ajmg.a.36110. Epub 2013 Aug 30."
                },
                {
                    "pmid": "21439876",
                    "type": "BACKGROUND",
                    "citation": "Byrne BJ, Kishnani PS, Case LE, Merlini L, Muller-Felber W, Prasad S, van der Ploeg A. Pompe disease: design, methodology, and early findings from the Pompe Registry. Mol Genet Metab. 2011 May;103(1):1-11. doi: 10.1016/j.ymgme.2011.02.004. Epub 2011 Feb 11. Erratum In: Mol Genet Metab. 2011 Nov;104(3):424."
                },
                {
                    "pmid": "30943998",
                    "type": "DERIVED",
                    "citation": "Zhao Y, Wang Z, Lu J, Gu X, Huang Y, Qiu Z, Wei Y, Yan C. Characteristics of Pompe disease in China: a report from the Pompe registry. Orphanet J Rare Dis. 2019 Apr 3;14(1):78. doi: 10.1186/s13023-019-1054-0."
                }
            ]
        }
    },
    "derivedSection": {
        "miscInfoModule": {
            "versionHolder": "2024-07-30",
            "removedCountries": [
                "Czechia",
                "United Arab Emirates"
            ]
        },
        "conditionBrowseModule": {
            "meshes": [
                {
                    "id": "D000006009",
                    "term": "Glycogen Storage Disease Type II"
                },
                {
                    "id": "D000006008",
                    "term": "Glycogen Storage Disease"
                },
                {
                    "id": "D000004194",
                    "term": "Disease"
                }
            ],
            "ancestors": [
                {
                    "id": "D000020140",
                    "term": "Lysosomal Storage Diseases, Nervous System"
                },
                {
                    "id": "D000020739",
                    "term": "Brain Diseases, Metabolic, Inborn"
                },
                {
                    "id": "D000001928",
                    "term": "Brain Diseases, Metabolic"
                },
                {
                    "id": "D000001927",
                    "term": "Brain Diseases"
                },
                {
                    "id": "D000002493",
                    "term": "Central Nervous System Diseases"
                },
                {
                    "id": "D000009422",
                    "term": "Nervous System Diseases"
                },
                {
                    "id": "D000008661",
                    "term": "Metabolism, Inborn Errors"
                },
                {
                    "id": "D000030342",
                    "term": "Genetic Diseases, Inborn"
                },
                {
                    "id": "D000002239",
                    "term": "Carbohydrate Metabolism, Inborn Errors"
                },
                {
                    "id": "D000016464",
                    "term": "Lysosomal Storage Diseases"
                },
                {
                    "id": "D000008659",
                    "term": "Metabolic Diseases"
                },
                {
                    "id": "D000010335",
                    "term": "Pathologic Processes"
                }
            ],
            "browseLeaves": [
                {
                    "id": "M6879",
                    "name": "Deficiency Diseases",
                    "relevance": "LOW"
                },
                {
                    "id": "M9114",
                    "name": "Glycogen Storage Disease",
                    "asFound": "Glycogen Storage Disease",
                    "relevance": "HIGH"
                },
                {
                    "id": "M9115",
                    "name": "Glycogen Storage Disease Type II",
                    "asFound": "Glycogen Storage Disease Type II",
                    "relevance": "HIGH"
                },
                {
                    "id": "M18871",
                    "name": "Lysosomal Storage Diseases",
                    "relevance": "LOW"
                },
                {
                    "id": "M5204",
                    "name": "Brain Diseases",
                    "relevance": "LOW"
                },
                {
                    "id": "M5205",
                    "name": "Brain Diseases, Metabolic",
                    "relevance": "LOW"
                },
                {
                    "id": "M22498",
                    "name": "Brain Diseases, Metabolic, Inborn",
                    "relevance": "LOW"
                },
                {
                    "id": "M5742",
                    "name": "Central Nervous System Diseases",
                    "relevance": "LOW"
                },
                {
                    "id": "M11641",
                    "name": "Metabolism, Inborn Errors",
                    "relevance": "LOW"
                },
                {
                    "id": "M23686",
                    "name": "Genetic Diseases, Inborn",
                    "relevance": "LOW"
                },
                {
                    "id": "M5498",
                    "name": "Carbohydrate Metabolism, Inborn Errors",
                    "relevance": "LOW"
                },
                {
                    "id": "M11639",
                    "name": "Metabolic Diseases",
                    "relevance": "LOW"
                },
                {
                    "id": "T2562",
                    "name": "Glycogen Storage Disease Type 2",
                    "asFound": "Pompe Disease",
                    "relevance": "HIGH"
                }
            ],
            "browseBranches": [
                {
                    "abbrev": "BC18",
                    "name": "Nutritional and Metabolic Diseases"
                },
                {
                    "abbrev": "All",
                    "name": "All Conditions"
                },
                {
                    "abbrev": "BC16",
                    "name": "Diseases and Abnormalities at or Before Birth"
                },
                {
                    "abbrev": "BC10",
                    "name": "Nervous System Diseases"
                },
                {
                    "abbrev": "Rare",
                    "name": "Rare Diseases"
                }
            ]
        }
    },
    "hasResults": false
}