{
    "protocolSection": {
        "identificationModule": {
            "nctId": "NCT06011577",
            "orgStudyIdInfo": {
                "id": "REL-1017-304"
            },
            "organization": {
                "fullName": "Relmada Therapeutics, Inc.",
                "class": "INDUSTRY"
            },
            "briefTitle": "Randomized, Double-Blind, Placebo-Controlled Trial of REL-1017 as Adjunctive Treatment for MDD",
            "officialTitle": "A Randomized, Double-Blind, Placebo-Controlled Trial of REL-1017 as an Adjunctive Treatment for Major Depressive Disorder (RELIGHT)",
            "acronym": "RELIGHT",
            "therapeuticArea": [
                "Mental Health",
                "Other"
            ],
            "study": "randomized-double-blind-placebo-controlled-trial-of-rel-as-adjunctive-treatment-for-mdd"
        },
        "statusModule": {
            "statusVerifiedDate": "2024-07",
            "overallStatus": "RECRUITING",
            "expandedAccessInfo": {
                "hasExpandedAccess": true,
                "nctId": "NCT06009003",
                "statusForNctId": "AVAILABLE"
            },
            "startDateStruct": {
                "date": "2023-08-17",
                "type": "ACTUAL"
            },
            "primaryCompletionDateStruct": {
                "date": "2024-12",
                "type": "ESTIMATED"
            },
            "completionDateStruct": {
                "date": "2024-12",
                "type": "ESTIMATED"
            },
            "studyFirstSubmitDate": "2023-08-21",
            "studyFirstSubmitQcDate": "2023-08-21",
            "studyFirstPostDateStruct": {
                "date": "2023-08-25",
                "type": "ACTUAL"
            },
            "lastUpdateSubmitDate": "2024-07-25",
            "lastUpdatePostDateStruct": {
                "date": "2024-07-29",
                "type": "ACTUAL"
            }
        },
        "sponsorCollaboratorsModule": {
            "responsibleParty": {
                "type": "SPONSOR"
            },
            "leadSponsor": {
                "name": "Relmada Therapeutics, Inc.",
                "class": "INDUSTRY"
            }
        },
        "oversightModule": {
            "oversightHasDmc": true,
            "isFdaRegulatedDrug": true,
            "isFdaRegulatedDevice": false
        },
        "descriptionModule": {
            "briefSummary": "A Phase 3, randomized, double-blind, placebo-controlled, multicenter trial of REL-1017 in patients with major depressive disorder (MDD).",
            "detailedDescription": "This is an outpatient, 2-arm, Phase 3, multicenter, randomized, double-blind, placebo-controlled study to assess the efficacy and safety of REL-1017 once daily (QD) as an adjunctive treatment of Major Depressive Disorder in patients with inadequate response to ongoing background antidepressant treatment. Eligible patients will continue to take their background antidepressant therapy and be randomized in a 1:1 ratio to treatment with REL-1017 or placebo for a 4 week treatment period."
        },
        "conditionsModule": {
            "conditions": [
                "Major Depressive Disorder",
                "Depression"
            ],
            "keywords": [
                "REL-1017",
                "esmethadone",
                "Relmada",
                "antidepressant",
                "adjunctive",
                "NMDA receptor antagonist",
                "Relight",
                "Depression"
            ]
        },
        "designModule": {
            "studyType": "INTERVENTIONAL",
            "phases": [
                "PHASE3"
            ],
            "designInfo": {
                "allocation": "RANDOMIZED",
                "interventionModel": "PARALLEL",
                "primaryPurpose": "TREATMENT",
                "maskingInfo": {
                    "masking": "QUADRUPLE",
                    "whoMasked": [
                        "PARTICIPANT",
                        "CARE_PROVIDER",
                        "INVESTIGATOR",
                        "OUTCOMES_ASSESSOR"
                    ]
                }
            },
            "enrollmentInfo": {
                "count": 417,
                "type": "ESTIMATED"
            }
        },
        "armsInterventionsModule": {
            "armGroups": [
                {
                    "label": "REL-1017 25 mg",
                    "type": "EXPERIMENTAL",
                    "description": "During the double blind treatment period (28 days), participants will take 1 tablet of REL-1017 25 mg, orally, per day in addition to their ongoing antidepressant (ADT)",
                    "interventionNames": [
                        "Drug: REL-1017"
                    ]
                },
                {
                    "label": "Placebo",
                    "type": "PLACEBO_COMPARATOR",
                    "description": "During the double blind treatment period (28 days), participants will take 1 tablet of placebo, orally, per day in addition to their ongoing antidepressant (ADT)",
                    "interventionNames": [
                        "Drug: Placebo"
                    ]
                }
            ],
            "interventions": [
                {
                    "type": "DRUG",
                    "name": "REL-1017",
                    "description": "REL-1017 tablet",
                    "armGroupLabels": [
                        "REL-1017 25 mg"
                    ],
                    "otherNames": [
                        "esmethadone"
                    ]
                },
                {
                    "type": "DRUG",
                    "name": "Placebo",
                    "description": "Placebo tablet",
                    "armGroupLabels": [
                        "Placebo"
                    ]
                }
            ]
        },
        "outcomesModule": {
            "primaryOutcomes": [
                {
                    "measure": "Change in MADRS Total Score From Baseline to Day 28",
                    "description": "The MADRS is a 10-item scale and items are scored between 0-6 points. For each item, a score of 0 indicates the absence of symptoms, and a score of 6 indicates symptoms of maximum severity. A maximum total score is 60 points.",
                    "timeFrame": "Day 28"
                }
            ]
        },
        "eligibilityModule": {
            "eligibilityCriteria": "Inclusion Criteria:\n\n* Body mass index (BMI) between 18.0 and 35.0 kg/m2.\n* Diagnosed with Major Depressive Disorder (MDD) based on Structured Clinical Interview for DSM-5 (SCID-5) for MDD.\n* Inadequate response to 1 to 3 adequate antidepressant treatments in the current MDE.\n\nExclusion Criteria:\n\n* Psychiatric hospitalization during the current major depressive episode.\n* History or presence of clinically significant health conditions which in the opinion of the Investigator would negatively impact the safety of the participant.\n* Participants who, in the Investigator's judgment, are at significant risk for suicide.\n* Pregnant or planning to become pregnant.",
            "healthyVolunteers": false,
            "sex": "ALL",
            "minimumAge": "18 Years",
            "maximumAge": "65 Years",
            "stdAges": [
                "ADULT",
                "OLDER_ADULT"
            ]
        },
        "contactsLocationsModule": {
            "centralContacts": [
                {
                    "name": "Senior Vice President",
                    "role": "CONTACT",
                    "phone": "786-638-7384",
                    "email": "clinicaltrials@relmada.com"
                }
            ],
            "overallOfficials": [
                {
                    "name": "Paul Greene, PhD",
                    "affiliation": "Relmada Therapeutics",
                    "role": "STUDY_DIRECTOR"
                }
            ],
            "locations": [
                {
                    "facility": "Relmada Site",
                    "status": "RECRUITING",
                    "city": "Dothan",
                    "state": "Alabama",
                    "zip": "36303",
                    "country": "United States",
                    "geoPoint": {
                        "lat": 31.22323,
                        "lon": -85.39049
                    }
                },
                {
                    "facility": "Relmada Site",
                    "status": "RECRUITING",
                    "city": "Homewood",
                    "state": "Alabama",
                    "zip": "35209",
                    "country": "United States",
                    "geoPoint": {
                        "lat": 33.47177,
                        "lon": -86.80082
                    }
                },
                {
                    "facility": "Relmada Site",
                    "status": "RECRUITING",
                    "city": "Anaheim",
                    "state": "California",
                    "zip": "92805",
                    "country": "United States",
                    "geoPoint": {
                        "lat": 33.83529,
                        "lon": -117.9145
                    }
                },
                {
                    "facility": "Relmada Site",
                    "status": "RECRUITING",
                    "city": "Lafayette",
                    "state": "California",
                    "zip": "94549",
                    "country": "United States",
                    "geoPoint": {
                        "lat": 37.88576,
                        "lon": -122.11802
                    }
                },
                {
                    "facility": "Relmada Site",
                    "status": "RECRUITING",
                    "city": "Newport Beach",
                    "state": "California",
                    "zip": "92660",
                    "country": "United States",
                    "geoPoint": {
                        "lat": 33.61891,
                        "lon": -117.92895
                    }
                },
                {
                    "facility": "Relmada Site",
                    "status": "RECRUITING",
                    "city": "Orange",
                    "state": "California",
                    "zip": "92868",
                    "country": "United States",
                    "geoPoint": {
                        "lat": 33.78779,
                        "lon": -117.85311
                    }
                },
                {
                    "facility": "Relmada Site",
                    "status": "RECRUITING",
                    "city": "Redlands",
                    "state": "California",
                    "zip": "92374",
                    "country": "United States",
                    "geoPoint": {
                        "lat": 34.05557,
                        "lon": -117.18254
                    }
                },
                {
                    "facility": "Relmada Site",
                    "status": "RECRUITING",
                    "city": "Sherman Oaks",
                    "state": "California",
                    "zip": "91403",
                    "country": "United States",
                    "geoPoint": {
                        "lat": 34.15112,
                        "lon": -118.44925
                    }
                },
                {
                    "facility": "Relmada Site",
                    "status": "RECRUITING",
                    "city": "Farmington",
                    "state": "Connecticut",
                    "zip": "06030",
                    "country": "United States",
                    "geoPoint": {
                        "lat": 41.71982,
                        "lon": -72.83204
                    }
                },
                {
                    "facility": "Relmada Site",
                    "status": "RECRUITING",
                    "city": "Brandon",
                    "state": "Florida",
                    "zip": "33511",
                    "country": "United States",
                    "geoPoint": {
                        "lat": 27.9378,
                        "lon": -82.28592
                    }
                },
                {
                    "facility": "Relmada Site",
                    "status": "RECRUITING",
                    "city": "Hialeah",
                    "state": "Florida",
                    "zip": "33027",
                    "country": "United States",
                    "geoPoint": {
                        "lat": 25.8576,
                        "lon": -80.27811
                    }
                },
                {
                    "facility": "Relmada Site",
                    "status": "RECRUITING",
                    "city": "Jacksonville",
                    "state": "Florida",
                    "zip": "32256",
                    "country": "United States",
                    "geoPoint": {
                        "lat": 30.33218,
                        "lon": -81.65565
                    }
                },
                {
                    "facility": "Relmada Site",
                    "status": "RECRUITING",
                    "city": "Miami",
                    "state": "Florida",
                    "zip": "33133",
                    "country": "United States",
                    "geoPoint": {
                        "lat": 25.77427,
                        "lon": -80.19366
                    }
                },
                {
                    "facility": "Relmada Site",
                    "status": "RECRUITING",
                    "city": "Miami",
                    "state": "Florida",
                    "zip": "33174",
                    "country": "United States",
                    "geoPoint": {
                        "lat": 25.77427,
                        "lon": -80.19366
                    }
                },
                {
                    "facility": "Relmada Site",
                    "status": "RECRUITING",
                    "city": "Okeechobee",
                    "state": "Florida",
                    "zip": "34972",
                    "country": "United States",
                    "geoPoint": {
                        "lat": 27.24393,
                        "lon": -80.82978
                    }
                },
                {
                    "facility": "Relmada Site",
                    "status": "RECRUITING",
                    "city": "Tampa",
                    "state": "Florida",
                    "zip": "33607",
                    "country": "United States",
                    "geoPoint": {
                        "lat": 27.94752,
                        "lon": -82.45843
                    }
                },
                {
                    "facility": "Relmada Site",
                    "status": "RECRUITING",
                    "city": "Springfield",
                    "state": "Illinois",
                    "zip": "62794",
                    "country": "United States",
                    "geoPoint": {
                        "lat": 39.80172,
                        "lon": -89.64371
                    }
                },
                {
                    "facility": "Relmada Site",
                    "status": "RECRUITING",
                    "city": "Baltimore",
                    "state": "Maryland",
                    "zip": "21208",
                    "country": "United States",
                    "geoPoint": {
                        "lat": 39.29038,
                        "lon": -76.61219
                    }
                },
                {
                    "facility": "Relmada Site",
                    "status": "RECRUITING",
                    "city": "Mankato",
                    "state": "Minnesota",
                    "zip": "56001",
                    "country": "United States",
                    "geoPoint": {
                        "lat": 44.15906,
                        "lon": -94.00915
                    }
                },
                {
                    "facility": "Relmada Site",
                    "status": "RECRUITING",
                    "city": "Toms River",
                    "state": "New Jersey",
                    "zip": "08755",
                    "country": "United States",
                    "geoPoint": {
                        "lat": 39.95373,
                        "lon": -74.19792
                    }
                },
                {
                    "facility": "Relmada Site",
                    "status": "RECRUITING",
                    "city": "Brooklyn",
                    "state": "New York",
                    "zip": "11235",
                    "country": "United States",
                    "geoPoint": {
                        "lat": 40.6501,
                        "lon": -73.94958
                    }
                },
                {
                    "facility": "Relmada Site",
                    "status": "RECRUITING",
                    "city": "Cedarhurst",
                    "state": "New York",
                    "zip": "11516",
                    "country": "United States",
                    "geoPoint": {
                        "lat": 40.62288,
                        "lon": -73.7243
                    }
                },
                {
                    "facility": "Relmada Site",
                    "status": "RECRUITING",
                    "city": "New York",
                    "state": "New York",
                    "zip": "10036",
                    "country": "United States",
                    "geoPoint": {
                        "lat": 40.71427,
                        "lon": -74.00597
                    }
                },
                {
                    "facility": "Relmada Site",
                    "status": "RECRUITING",
                    "city": "Philadelphia",
                    "state": "Pennsylvania",
                    "zip": "19104",
                    "country": "United States",
                    "geoPoint": {
                        "lat": 39.95233,
                        "lon": -75.16379
                    }
                },
                {
                    "facility": "Relmada Site",
                    "status": "RECRUITING",
                    "city": "Franklin",
                    "state": "Tennessee",
                    "zip": "37067",
                    "country": "United States",
                    "geoPoint": {
                        "lat": 35.92506,
                        "lon": -86.86889
                    }
                },
                {
                    "facility": "Relmada Site",
                    "status": "RECRUITING",
                    "city": "Memphis",
                    "state": "Tennessee",
                    "zip": "38119",
                    "country": "United States",
                    "geoPoint": {
                        "lat": 35.14953,
                        "lon": -90.04898
                    }
                },
                {
                    "facility": "Relmada Site",
                    "status": "RECRUITING",
                    "city": "Austin",
                    "state": "Texas",
                    "zip": "78712",
                    "country": "United States",
                    "geoPoint": {
                        "lat": 30.26715,
                        "lon": -97.74306
                    }
                },
                {
                    "facility": "Relmada Site",
                    "status": "RECRUITING",
                    "city": "Bellaire",
                    "state": "Texas",
                    "zip": "77401",
                    "country": "United States",
                    "geoPoint": {
                        "lat": 29.70579,
                        "lon": -95.45883
                    }
                },
                {
                    "facility": "Relmada Site",
                    "status": "RECRUITING",
                    "city": "Friendswood",
                    "state": "Texas",
                    "zip": "77546",
                    "country": "United States",
                    "geoPoint": {
                        "lat": 29.5294,
                        "lon": -95.20104
                    }
                },
                {
                    "facility": "Relmada Site",
                    "status": "RECRUITING",
                    "city": "Houston",
                    "state": "Texas",
                    "zip": "77030",
                    "country": "United States",
                    "geoPoint": {
                        "lat": 29.76328,
                        "lon": -95.36327
                    }
                },
                {
                    "facility": "Relmada Site",
                    "status": "RECRUITING",
                    "city": "Wichita Falls",
                    "state": "Texas",
                    "zip": "76309",
                    "country": "United States",
                    "geoPoint": {
                        "lat": 33.91371,
                        "lon": -98.49339
                    }
                },
                {
                    "facility": "Relmada Site",
                    "status": "RECRUITING",
                    "city": "Clinton",
                    "state": "Utah",
                    "zip": "84015",
                    "country": "United States",
                    "geoPoint": {
                        "lat": 41.13967,
                        "lon": -112.0505
                    }
                },
                {
                    "facility": "Relmada Site",
                    "status": "RECRUITING",
                    "city": "Draper",
                    "state": "Utah",
                    "zip": "84020",
                    "country": "United States",
                    "geoPoint": {
                        "lat": 40.52467,
                        "lon": -111.86382
                    }
                },
                {
                    "facility": "Relmada Site",
                    "status": "RECRUITING",
                    "city": "Rutland",
                    "state": "Vermont",
                    "zip": "05701",
                    "country": "United States",
                    "geoPoint": {
                        "lat": 43.61062,
                        "lon": -72.97261
                    }
                },
                {
                    "facility": "Relmada Site",
                    "status": "RECRUITING",
                    "city": "Charlottesville",
                    "state": "Virginia",
                    "zip": "22903",
                    "country": "United States",
                    "geoPoint": {
                        "lat": 38.02931,
                        "lon": -78.47668
                    }
                },
                {
                    "facility": "Relmada Site",
                    "status": "RECRUITING",
                    "city": "Seattle",
                    "state": "Washington",
                    "zip": "98104",
                    "country": "United States",
                    "geoPoint": {
                        "lat": 47.60621,
                        "lon": -122.33207
                    }
                }
            ]
        },
        "referencesModule": {
            "seeAlsoLinks": [
                {
                    "label": "Study Homepage",
                    "url": "http://www.relightstudies.com"
                }
            ]
        }
    },
    "derivedSection": {
        "miscInfoModule": {
            "versionHolder": "2024-07-30"
        },
        "conditionBrowseModule": {
            "meshes": [
                {
                    "id": "D000003863",
                    "term": "Depression"
                },
                {
                    "id": "D000003866",
                    "term": "Depressive Disorder"
                },
                {
                    "id": "D000003865",
                    "term": "Depressive Disorder, Major"
                }
            ],
            "ancestors": [
                {
                    "id": "D000001526",
                    "term": "Behavioral Symptoms"
                },
                {
                    "id": "D000019964",
                    "term": "Mood Disorders"
                },
                {
                    "id": "D000001523",
                    "term": "Mental Disorders"
                }
            ],
            "browseLeaves": [
                {
                    "id": "M7058",
                    "name": "Depression",
                    "asFound": "Depressive Disorder",
                    "relevance": "HIGH"
                },
                {
                    "id": "M7061",
                    "name": "Depressive Disorder",
                    "asFound": "Depressive Disorder",
                    "relevance": "HIGH"
                },
                {
                    "id": "M7060",
                    "name": "Depressive Disorder, Major",
                    "asFound": "Major Depressive Disorder",
                    "relevance": "HIGH"
                },
                {
                    "id": "M4818",
                    "name": "Behavioral Symptoms",
                    "relevance": "LOW"
                },
                {
                    "id": "M21835",
                    "name": "Mood Disorders",
                    "relevance": "LOW"
                },
                {
                    "id": "M4815",
                    "name": "Mental Disorders",
                    "relevance": "LOW"
                },
                {
                    "id": "M14473",
                    "name": "Psychotic Disorders",
                    "relevance": "LOW"
                }
            ],
            "browseBranches": [
                {
                    "abbrev": "BXM",
                    "name": "Behaviors and Mental Disorders"
                },
                {
                    "abbrev": "All",
                    "name": "All Conditions"
                }
            ]
        },
        "interventionBrowseModule": {
            "browseLeaves": [
                {
                    "id": "M4247",
                    "name": "Antidepressive Agents",
                    "relevance": "LOW"
                }
            ],
            "browseBranches": [
                {
                    "abbrev": "PsychDr",
                    "name": "Psychotropic Drugs"
                },
                {
                    "abbrev": "All",
                    "name": "All Drugs and Chemicals"
                }
            ]
        }
    },
    "hasResults": false
}