{
    "protocolSection": {
        "identificationModule": {
            "nctId": "NCT05835219",
            "orgStudyIdInfo": {
                "id": "000422"
            },
            "organization": {
                "fullName": "Ferring Pharmaceuticals",
                "class": "INDUSTRY"
            },
            "briefTitle": "REBYOTA\u2122 Prospective Registry",
            "officialTitle": "REBYOTA\u2122 for the Prevention of Recurrence of Clostridioides Difficile Infection (CDI) in Adult Patients: An Observational Study",
            "acronym": "ROAR",
            "therapeuticArea": [
                "Infectious Diseases"
            ],
            "study": "rebyota-prospective-registry"
        },
        "statusModule": {
            "statusVerifiedDate": "2024-06",
            "overallStatus": "RECRUITING",
            "expandedAccessInfo": {
                "hasExpandedAccess": false
            },
            "startDateStruct": {
                "date": "2023-06-19",
                "type": "ACTUAL"
            },
            "primaryCompletionDateStruct": {
                "date": "2025-07-07",
                "type": "ESTIMATED"
            },
            "completionDateStruct": {
                "date": "2025-08-01",
                "type": "ESTIMATED"
            },
            "studyFirstSubmitDate": "2023-04-18",
            "studyFirstSubmitQcDate": "2023-04-18",
            "studyFirstPostDateStruct": {
                "date": "2023-04-28",
                "type": "ACTUAL"
            },
            "lastUpdateSubmitDate": "2024-06-10",
            "lastUpdatePostDateStruct": {
                "date": "2024-06-11",
                "type": "ACTUAL"
            }
        },
        "sponsorCollaboratorsModule": {
            "responsibleParty": {
                "type": "SPONSOR"
            },
            "leadSponsor": {
                "name": "Ferring Pharmaceuticals",
                "class": "INDUSTRY"
            }
        },
        "oversightModule": {
            "isFdaRegulatedDrug": true,
            "isFdaRegulatedDevice": false
        },
        "descriptionModule": {
            "briefSummary": "This is a prospective observational cohort study designed to collect data on patients who received REBYOTA\u2122 for the prevention of rCDI in the routine care setting. As all data collected for this study are observational, the decision to prescribe REBYOTA\u2122 is at the treating physician's discretion and independent from the decision to enroll the patient in the study. Data will be collected from patients' medical records after obtaining informed consent. Data about clinical history, CDI events (primary and recurrent: severity, treatment), CDI-related symptoms, treatments, medical procedures, Adverse Events(AEs), and healthcare resource utilization (i.e., hospitalizations and re-admissions) will be collected through 6 months of follow-up from the date of REBYOTA\u2122 administration."
        },
        "conditionsModule": {
            "conditions": [
                "Recurrence of Clostridium Difficile Infection"
            ]
        },
        "designModule": {
            "studyType": "OBSERVATIONAL",
            "patientRegistry": false,
            "designInfo": {
                "observationalModel": "COHORT",
                "timePerspective": "PROSPECTIVE"
            },
            "enrollmentInfo": {
                "count": 500,
                "type": "ESTIMATED"
            }
        },
        "armsInterventionsModule": {
            "armGroups": [
                {
                    "label": "REBYOTA\u2122",
                    "interventionNames": [
                        "Drug: REBYOTA\u2122"
                    ]
                }
            ],
            "interventions": [
                {
                    "type": "DRUG",
                    "name": "REBYOTA\u2122",
                    "description": "REBYOTA\u2122 is administered in the rectum",
                    "armGroupLabels": [
                        "REBYOTA\u2122"
                    ]
                }
            ]
        },
        "outcomesModule": {
            "primaryOutcomes": [
                {
                    "measure": "Proportion of patients without Recurrence of Clostridioides Difficile Infection (rCDI) (as determined by the treating physician)",
                    "timeFrame": "8 weeks after initial REBYOTA\u2122 treatment"
                }
            ],
            "secondaryOutcomes": [
                {
                    "measure": "Proportion of patients with sustained clinical response, defined as treatment success of the presenting rCDI episode and no new CDI episodes occurring for more than 8 weeks through 6 months after initial REBYOTA\u2122 treatment",
                    "timeFrame": "6 months after initial REBYOTA\u2122 treatment"
                },
                {
                    "measure": "Total number of CDI episodes",
                    "timeFrame": "6 months after initial REBYOTA\u2122 treatment"
                },
                {
                    "measure": "Time to any CDI episode",
                    "timeFrame": "6 months after initial REBYOTA\u2122 treatment"
                },
                {
                    "measure": "Daily mean changes in Clostridium difficile Infection-Daily Symptoms (CDIDaySyms\u2122) scores from baseline to 7 days after REBYOTA\u2122 administration",
                    "timeFrame": "7 days after REBYOTA\u2122 administration"
                },
                {
                    "measure": "Hospitalizations and re-admissions during follow-up for up to 6 months (all-cause and CDI-related) after receiving REBYOTA\u2122",
                    "timeFrame": "Up to 6 months after receiving REBYOTA\u2122"
                }
            ]
        },
        "eligibilityModule": {
            "eligibilityCriteria": "Inclusion Criteria:\n\n* Signed and dated informed consent form (ICF)\n* Age \u2265 18 years\n* Diagnosis of rCDI as determined by the treating physician\n* Completed antibiotic treatment for the presenting rCDI episode\n* Prescription for REBYOTA\u2122 to prevent rCDI according to the approved indication\n\nExclusion Criteria:\n\n* Currently enrolled in an interventional clinical trial",
            "healthyVolunteers": false,
            "sex": "ALL",
            "minimumAge": "18 Years",
            "stdAges": [
                "ADULT",
                "OLDER_ADULT"
            ],
            "studyPopulation": "Subjects who have received antibiotic treatment for Clostridioides Difficile Infection",
            "samplingMethod": "NON_PROBABILITY_SAMPLE"
        },
        "contactsLocationsModule": {
            "centralContacts": [
                {
                    "name": "Global Clinical Compliance",
                    "role": "CONTACT",
                    "phone": "+1 833-548-1402 (US/Canada)",
                    "email": "DK0-Disclosure@ferring.com"
                },
                {
                    "name": "Global Clinical Compliance",
                    "role": "CONTACT",
                    "phone": "+1 862-286-5200 (outside US)",
                    "email": "DK0-Disclosure@ferring.com"
                }
            ],
            "overallOfficials": [
                {
                    "name": "Global Clinical Compliance",
                    "affiliation": "Ferring Pharmaceuticals",
                    "role": "STUDY_DIRECTOR"
                }
            ],
            "locations": [
                {
                    "facility": "Ferring Investigational Site",
                    "status": "RECRUITING",
                    "city": "Chula Vista",
                    "state": "California",
                    "zip": "91910",
                    "country": "United States",
                    "geoPoint": {
                        "lat": 32.64005,
                        "lon": -117.0842
                    }
                },
                {
                    "facility": "Ferring Investigational Site",
                    "status": "RECRUITING",
                    "city": "Murrieta",
                    "state": "California",
                    "zip": "92563",
                    "country": "United States",
                    "geoPoint": {
                        "lat": 33.55391,
                        "lon": -117.21392
                    }
                },
                {
                    "facility": "Ferring Investigational Site",
                    "status": "RECRUITING",
                    "city": "Hamden",
                    "state": "Connecticut",
                    "zip": "06518",
                    "country": "United States",
                    "geoPoint": {
                        "lat": 41.39593,
                        "lon": -72.89677
                    }
                },
                {
                    "facility": "Ferring Investigational Site",
                    "status": "RECRUITING",
                    "city": "Gainesville",
                    "state": "Florida",
                    "zip": "32610",
                    "country": "United States",
                    "geoPoint": {
                        "lat": 29.65163,
                        "lon": -82.32483
                    }
                },
                {
                    "facility": "Ferring Investigational Site",
                    "status": "RECRUITING",
                    "city": "Orlando",
                    "state": "Florida",
                    "zip": "32806",
                    "country": "United States",
                    "geoPoint": {
                        "lat": 28.53834,
                        "lon": -81.37924
                    }
                },
                {
                    "facility": "Ferring Investigational Site",
                    "status": "RECRUITING",
                    "city": "Port Orange",
                    "state": "Florida",
                    "zip": "32127",
                    "country": "United States",
                    "geoPoint": {
                        "lat": 29.13832,
                        "lon": -80.99561
                    }
                },
                {
                    "facility": "Ferring Investigational Site",
                    "status": "RECRUITING",
                    "city": "Tampa",
                    "state": "Florida",
                    "zip": "33614",
                    "country": "United States",
                    "geoPoint": {
                        "lat": 27.94752,
                        "lon": -82.45843
                    }
                },
                {
                    "facility": "Ferring Investigational Site",
                    "status": "RECRUITING",
                    "city": "Zephyrhills",
                    "state": "Florida",
                    "zip": "33542",
                    "country": "United States",
                    "geoPoint": {
                        "lat": 28.23362,
                        "lon": -82.18119
                    }
                },
                {
                    "facility": "Ferrin Investigational Site",
                    "status": "RECRUITING",
                    "city": "Atlanta",
                    "state": "Georgia",
                    "zip": "30322",
                    "country": "United States",
                    "geoPoint": {
                        "lat": 33.749,
                        "lon": -84.38798
                    }
                },
                {
                    "facility": "Ferring Investigational Site",
                    "status": "RECRUITING",
                    "city": "LaGrange",
                    "state": "Georgia",
                    "zip": "30240",
                    "country": "United States",
                    "geoPoint": {
                        "lat": 33.03929,
                        "lon": -85.03133
                    }
                },
                {
                    "facility": "Ferring Investigational Site",
                    "status": "RECRUITING",
                    "city": "Savannah",
                    "state": "Georgia",
                    "zip": "31405",
                    "country": "United States",
                    "geoPoint": {
                        "lat": 32.08354,
                        "lon": -81.09983
                    }
                },
                {
                    "facility": "Ferring Investigational Site",
                    "status": "RECRUITING",
                    "city": "Burr Ridge",
                    "state": "Illinois",
                    "zip": "60527",
                    "country": "United States",
                    "geoPoint": {
                        "lat": 41.74892,
                        "lon": -87.91839
                    }
                },
                {
                    "facility": "Ferring Investigational Site",
                    "status": "RECRUITING",
                    "city": "Iowa City",
                    "state": "Iowa",
                    "zip": "52242",
                    "country": "United States",
                    "contacts": [
                        {
                            "name": "Global Clinical Compliance",
                            "role": "CONTACT"
                        }
                    ],
                    "geoPoint": {
                        "lat": 41.66113,
                        "lon": -91.53017
                    }
                },
                {
                    "facility": "Ferring Investigational Site",
                    "status": "RECRUITING",
                    "city": "Wichita",
                    "state": "Kansas",
                    "zip": "67211",
                    "country": "United States",
                    "geoPoint": {
                        "lat": 37.69224,
                        "lon": -97.33754
                    }
                },
                {
                    "facility": "Ferring Investigational Site",
                    "status": "RECRUITING",
                    "city": "Jefferson",
                    "state": "Louisiana",
                    "zip": "70121",
                    "country": "United States",
                    "geoPoint": {
                        "lat": 29.96604,
                        "lon": -90.15313
                    }
                },
                {
                    "facility": "Ferring Investigational Site",
                    "status": "RECRUITING",
                    "city": "Boston",
                    "state": "Massachusetts",
                    "zip": "02115",
                    "country": "United States",
                    "geoPoint": {
                        "lat": 42.35843,
                        "lon": -71.05977
                    }
                },
                {
                    "facility": "Ferring Investigational Site",
                    "status": "RECRUITING",
                    "city": "Worcester",
                    "state": "Massachusetts",
                    "zip": "01608",
                    "country": "United States",
                    "geoPoint": {
                        "lat": 42.26259,
                        "lon": -71.80229
                    }
                },
                {
                    "facility": "Ferring Investigational Site",
                    "status": "RECRUITING",
                    "city": "Detroit",
                    "state": "Michigan",
                    "zip": "48202",
                    "country": "United States",
                    "geoPoint": {
                        "lat": 42.33143,
                        "lon": -83.04575
                    }
                },
                {
                    "facility": "Ferring Investigational Site",
                    "status": "RECRUITING",
                    "city": "Farmington Hills",
                    "state": "Michigan",
                    "zip": "48336",
                    "country": "United States",
                    "contacts": [
                        {
                            "name": "Global Clinical Compliance",
                            "role": "CONTACT"
                        }
                    ],
                    "geoPoint": {
                        "lat": 42.48531,
                        "lon": -83.37716
                    }
                },
                {
                    "facility": "Ferring Investigational Site",
                    "status": "RECRUITING",
                    "city": "Omaha",
                    "state": "Nebraska",
                    "zip": "68198",
                    "country": "United States",
                    "geoPoint": {
                        "lat": 41.25626,
                        "lon": -95.94043
                    }
                },
                {
                    "facility": "Ferring Investigational Site",
                    "status": "RECRUITING",
                    "city": "Teaneck",
                    "state": "New Jersey",
                    "zip": "07666",
                    "country": "United States",
                    "contacts": [
                        {
                            "name": "Global Clinical Compliance",
                            "role": "CONTACT"
                        }
                    ],
                    "geoPoint": {
                        "lat": 40.8976,
                        "lon": -74.01597
                    }
                },
                {
                    "facility": "Ferring Investigational Site",
                    "status": "RECRUITING",
                    "city": "New York",
                    "state": "New York",
                    "zip": "10016",
                    "country": "United States",
                    "geoPoint": {
                        "lat": 40.71427,
                        "lon": -74.00597
                    }
                },
                {
                    "facility": "Ferring Investigational Site",
                    "status": "RECRUITING",
                    "city": "New York",
                    "state": "New York",
                    "zip": "10021",
                    "country": "United States",
                    "contacts": [
                        {
                            "name": "Global Clinical Compliance",
                            "role": "CONTACT"
                        }
                    ],
                    "geoPoint": {
                        "lat": 40.71427,
                        "lon": -74.00597
                    }
                },
                {
                    "facility": "Ferring Investigational Site",
                    "status": "RECRUITING",
                    "city": "New York",
                    "state": "New York",
                    "zip": "10279",
                    "country": "United States",
                    "geoPoint": {
                        "lat": 40.71427,
                        "lon": -74.00597
                    }
                },
                {
                    "facility": "Ferring Investigational Site",
                    "status": "RECRUITING",
                    "city": "Rochester",
                    "state": "New York",
                    "zip": "14618",
                    "country": "United States",
                    "geoPoint": {
                        "lat": 43.15478,
                        "lon": -77.61556
                    }
                },
                {
                    "facility": "Ferring Investigational Site",
                    "status": "RECRUITING",
                    "city": "Stony Brook",
                    "state": "New York",
                    "zip": "11794",
                    "country": "United States",
                    "contacts": [
                        {
                            "name": "Global Clinical Compliance",
                            "role": "CONTACT"
                        }
                    ],
                    "geoPoint": {
                        "lat": 40.92565,
                        "lon": -73.14094
                    }
                },
                {
                    "facility": "Ferring Investigational Site",
                    "status": "RECRUITING",
                    "city": "Cincinnati",
                    "state": "Ohio",
                    "zip": "45267",
                    "country": "United States",
                    "geoPoint": {
                        "lat": 39.12713,
                        "lon": -84.51435
                    }
                },
                {
                    "facility": "Ferring Investigational Site",
                    "status": "RECRUITING",
                    "city": "Middleburg Heights",
                    "state": "Ohio",
                    "zip": "44130",
                    "country": "United States",
                    "geoPoint": {
                        "lat": 41.36144,
                        "lon": -81.81291
                    }
                },
                {
                    "facility": "Ferring Investigational Site",
                    "status": "RECRUITING",
                    "city": "DuBois",
                    "state": "Pennsylvania",
                    "zip": "15801",
                    "country": "United States",
                    "geoPoint": {
                        "lat": 41.11923,
                        "lon": -78.76003
                    }
                },
                {
                    "facility": "Ferring Investigational Site",
                    "status": "RECRUITING",
                    "city": "Pittsburgh",
                    "state": "Pennsylvania",
                    "zip": "15237",
                    "country": "United States",
                    "contacts": [
                        {
                            "name": "Global Clinical Compliance",
                            "role": "CONTACT"
                        }
                    ],
                    "geoPoint": {
                        "lat": 40.44062,
                        "lon": -79.99589
                    }
                },
                {
                    "facility": "Ferring Investigational Site",
                    "status": "RECRUITING",
                    "city": "Charleston",
                    "state": "South Carolina",
                    "zip": "29425",
                    "country": "United States",
                    "geoPoint": {
                        "lat": 32.77657,
                        "lon": -79.93092
                    }
                },
                {
                    "facility": "Ferring Investigational Site",
                    "status": "RECRUITING",
                    "city": "Knoxville",
                    "state": "Tennessee",
                    "zip": "37909",
                    "country": "United States",
                    "geoPoint": {
                        "lat": 35.96064,
                        "lon": -83.92074
                    }
                },
                {
                    "facility": "Ferring Investigational Site",
                    "status": "RECRUITING",
                    "city": "Dallas",
                    "state": "Texas",
                    "zip": "75246",
                    "country": "United States",
                    "geoPoint": {
                        "lat": 32.78306,
                        "lon": -96.80667
                    }
                },
                {
                    "facility": "Ferring Investigational Site",
                    "status": "RECRUITING",
                    "city": "Houston",
                    "state": "Texas",
                    "zip": "77030",
                    "country": "United States",
                    "geoPoint": {
                        "lat": 29.76328,
                        "lon": -95.36327
                    }
                },
                {
                    "facility": "Ferring Investigational Site",
                    "status": "RECRUITING",
                    "city": "West Jordan",
                    "state": "Utah",
                    "zip": "84088",
                    "country": "United States",
                    "geoPoint": {
                        "lat": 40.60967,
                        "lon": -111.9391
                    }
                },
                {
                    "facility": "Ferring Investigational Site",
                    "status": "RECRUITING",
                    "city": "Charlottesville",
                    "state": "Virginia",
                    "zip": "22903",
                    "country": "United States",
                    "contacts": [
                        {
                            "name": "Global Clinical Compliance",
                            "role": "CONTACT"
                        }
                    ],
                    "geoPoint": {
                        "lat": 38.02931,
                        "lon": -78.47668
                    }
                }
            ]
        },
        "ipdSharingStatementModule": {
            "ipdSharing": "NO"
        }
    },
    "derivedSection": {
        "miscInfoModule": {
            "versionHolder": "2024-07-30"
        },
        "conditionBrowseModule": {
            "meshes": [
                {
                    "id": "D000007239",
                    "term": "Infections"
                },
                {
                    "id": "D000003015",
                    "term": "Clostridium Infections"
                },
                {
                    "id": "D000012008",
                    "term": "Recurrence"
                }
            ],
            "ancestors": [
                {
                    "id": "D000020969",
                    "term": "Disease Attributes"
                },
                {
                    "id": "D000010335",
                    "term": "Pathologic Processes"
                },
                {
                    "id": "D000016908",
                    "term": "Gram-Positive Bacterial Infections"
                },
                {
                    "id": "D000001424",
                    "term": "Bacterial Infections"
                },
                {
                    "id": "D000001423",
                    "term": "Bacterial Infections and Mycoses"
                }
            ],
            "browseLeaves": [
                {
                    "id": "M14850",
                    "name": "Recurrence",
                    "asFound": "Recurrence",
                    "relevance": "HIGH"
                },
                {
                    "id": "M10283",
                    "name": "Infections",
                    "asFound": "Infection",
                    "relevance": "HIGH"
                },
                {
                    "id": "M6368",
                    "name": "Communicable Diseases",
                    "relevance": "LOW"
                },
                {
                    "id": "M6247",
                    "name": "Clostridium Infections",
                    "asFound": "Clostridium Difficile Infection",
                    "relevance": "HIGH"
                },
                {
                    "id": "M22700",
                    "name": "Disease Attributes",
                    "relevance": "LOW"
                },
                {
                    "id": "M4722",
                    "name": "Bacterial Infections",
                    "relevance": "LOW"
                },
                {
                    "id": "M19252",
                    "name": "Gram-Positive Bacterial Infections",
                    "relevance": "LOW"
                },
                {
                    "id": "M12136",
                    "name": "Mycoses",
                    "relevance": "LOW"
                },
                {
                    "id": "M4721",
                    "name": "Bacterial Infections and Mycoses",
                    "relevance": "LOW"
                }
            ],
            "browseBranches": [
                {
                    "abbrev": "BC23",
                    "name": "Symptoms and General Pathology"
                },
                {
                    "abbrev": "All",
                    "name": "All Conditions"
                },
                {
                    "abbrev": "BC01",
                    "name": "Infections"
                }
            ]
        }
    },
    "hasResults": false
}