{
    "protocolSection": {
        "identificationModule": {
            "nctId": "NCT06183931",
            "orgStudyIdInfo": {
                "id": "D6810C00001"
            },
            "organization": {
                "fullName": "Alexion Pharmaceuticals, Inc.",
                "class": "INDUSTRY"
            },
            "briefTitle": "Study of ALXN2220 Versus Placebo in Adults With ATTR-CM",
            "officialTitle": "A Phase 3, Randomized, Double-blind, Placebo-controlled, Multicenter Study to Evaluate the Efficacy and Safety of Amyloid Depleter ALXN2220 in Adult Participants With Transthyretin Amyloid Cardiomyopathy (ATTR-CM)",
            "acronym": "DepleTTR-CM",
            "therapeuticArea": [
                "Cardiovascular"
            ],
            "study": "study-of-versus-placebo-in-adults-with-attr-cm"
        },
        "statusModule": {
            "statusVerifiedDate": "2024-07",
            "overallStatus": "RECRUITING",
            "expandedAccessInfo": {
                "hasExpandedAccess": false
            },
            "startDateStruct": {
                "date": "2024-01-11",
                "type": "ACTUAL"
            },
            "primaryCompletionDateStruct": {
                "date": "2028-07-31",
                "type": "ESTIMATED"
            },
            "completionDateStruct": {
                "date": "2028-11-30",
                "type": "ESTIMATED"
            },
            "studyFirstSubmitDate": "2023-11-15",
            "studyFirstSubmitQcDate": "2023-12-14",
            "studyFirstPostDateStruct": {
                "date": "2023-12-28",
                "type": "ACTUAL"
            },
            "lastUpdateSubmitDate": "2024-07-29",
            "lastUpdatePostDateStruct": {
                "date": "2024-07-30",
                "type": "ESTIMATED"
            }
        },
        "sponsorCollaboratorsModule": {
            "responsibleParty": {
                "type": "SPONSOR"
            },
            "leadSponsor": {
                "name": "Alexion Pharmaceuticals, Inc.",
                "class": "INDUSTRY"
            }
        },
        "oversightModule": {
            "oversightHasDmc": true,
            "isFdaRegulatedDrug": true,
            "isFdaRegulatedDevice": false
        },
        "descriptionModule": {
            "briefSummary": "The primary objective of this study is to assess the efficacy of ALXN2220 in the treatment of adult participants with ATTR-CM by evaluating the difference between the ALXN2220 and placebo groups as assessed by the composite endpoint of all-cause mortality (ACM) and total cardiovascular (CV) clinical events."
        },
        "conditionsModule": {
            "conditions": [
                "Transthyretin Amyloid Cardiomyopathy"
            ],
            "keywords": [
                "Amyloid Depleter",
                "ALXN2220",
                "Transthyretin Amyloid Cardiomyopathy",
                "Transthyretin amyloid (ATTR)",
                "Transthyretin (TTR)",
                "N-terminal pro b-type natriuretic peptide (NT-proBNP)",
                "NT-proBNP",
                "Amyloidosis",
                "ATTR-CM"
            ]
        },
        "designModule": {
            "studyType": "INTERVENTIONAL",
            "phases": [
                "PHASE3"
            ],
            "designInfo": {
                "allocation": "RANDOMIZED",
                "interventionModel": "PARALLEL",
                "primaryPurpose": "TREATMENT",
                "maskingInfo": {
                    "masking": "QUADRUPLE",
                    "whoMasked": [
                        "PARTICIPANT",
                        "CARE_PROVIDER",
                        "INVESTIGATOR",
                        "OUTCOMES_ASSESSOR"
                    ]
                }
            },
            "enrollmentInfo": {
                "count": 1000,
                "type": "ESTIMATED"
            }
        },
        "armsInterventionsModule": {
            "armGroups": [
                {
                    "label": "ALXN2220",
                    "type": "EXPERIMENTAL",
                    "description": "Participants will receive weight-based dose of ALXN2220 via intravenous (IV) infusion every 4 weeks (q4w) for at least 24 months up to a maximum of 48 months.",
                    "interventionNames": [
                        "Drug: ALXN2220"
                    ]
                },
                {
                    "label": "Placebo",
                    "type": "PLACEBO_COMPARATOR",
                    "description": "Participants will receive placebo via IV infusion q4w for at least 24 months up to a maximum of 48 months.",
                    "interventionNames": [
                        "Drug: Placebo"
                    ]
                }
            ],
            "interventions": [
                {
                    "type": "DRUG",
                    "name": "ALXN2220",
                    "description": "Participants will receive ALXN2220 via IV infusion.",
                    "armGroupLabels": [
                        "ALXN2220"
                    ]
                },
                {
                    "type": "DRUG",
                    "name": "Placebo",
                    "description": "Participants will receive placebo via IV infusion.",
                    "armGroupLabels": [
                        "Placebo"
                    ]
                }
            ]
        },
        "outcomesModule": {
            "primaryOutcomes": [
                {
                    "measure": "Composite of Events of All-cause Mortality (ACM) and Total Cardiovascular (CV) Clinical Events",
                    "timeFrame": "Baseline up to the end study (up to Month 48)"
                }
            ],
            "secondaryOutcomes": [
                {
                    "measure": "Composite of Events of ACM and Total Heart Failure (HF)",
                    "timeFrame": "Baseline up to the end of study (up to Month 48)"
                },
                {
                    "measure": "Change From Baseline in Kansas City Cardiomyopathy Questionnaire-Overall Score (KCCQ-OS) at Month 24",
                    "timeFrame": "Baseline, Month 24"
                },
                {
                    "measure": "Time to CV-related Mortality",
                    "timeFrame": "Baseline up to the end of study (up to Month 48)"
                },
                {
                    "measure": "Change from Baseline in Six-minute Walk Test (6MWT) at Month 24",
                    "timeFrame": "Baseline, Month 24"
                },
                {
                    "measure": "Number of Participants With CV Clinical Events",
                    "timeFrame": "Baseline up to the end of study (up to Month 48)"
                },
                {
                    "measure": "Time to ACM",
                    "timeFrame": "Baseline up to the end of study (up to Month 48)"
                }
            ]
        },
        "eligibilityModule": {
            "eligibilityCriteria": "Inclusion Criteria:\n\n* Centrally confirmed diagnosis of ATTR-CM with either wild-type or variant TTR genotype\n* End-diastolic interventricular septal wall thickness \u2265 11 mm for women or \u2265 12 mm for men on echocardiography measured at Screening\n* NT-proBNP \\> 2000 pg/mL at Screening\n* Treatment with a loop diuretic for at least 30 days prior to Screening\n* History of heart failure NYHA Class II-IV at Screening\n* Life expectancy of \u2265 6 months as per the Investigator's judgment\n* Males and females of childbearing ability must use contraception\n\nExclusion Criteria:\n\n* Known leptomeningeal amyloidosis\n* Known light chain (AL) or secondary amyloidosis (AA), or any other form of systemic amyloidosis\n* Acute coronary syndrome, unstable angina, stroke, transient ischemic attack, coronary revascularization, cardiac device implantation, cardiac valve repair, or major surgery within 3 months of Screening\n* Uncontrolled clinically significant cardiac arrhythmia, per Investigator's assessment\n* LVEF \\< 30% on echocardiography\n* Renal failure requiring dialysis or an eGFR \\< 20 mL/min/1.73 m2 at Screening\n* Polyneuropathy with PND score IV",
            "healthyVolunteers": false,
            "sex": "ALL",
            "minimumAge": "18 Years",
            "maximumAge": "90 Years",
            "stdAges": [
                "ADULT",
                "OLDER_ADULT"
            ]
        },
        "contactsLocationsModule": {
            "centralContacts": [
                {
                    "name": "Alexion Pharmaceuticals, Inc. (Sponsor)",
                    "role": "CONTACT",
                    "phone": "1-855-752-2356",
                    "email": "clinicaltrials@alexion.com"
                }
            ],
            "locations": [
                {
                    "facility": "Research Site",
                    "status": "RECRUITING",
                    "city": "Irvine",
                    "state": "California",
                    "zip": "92614",
                    "country": "United States",
                    "geoPoint": {
                        "lat": 33.66946,
                        "lon": -117.82311
                    }
                },
                {
                    "facility": "Research Site",
                    "status": "NOT_YET_RECRUITING",
                    "city": "La Jolla",
                    "state": "California",
                    "zip": "92037",
                    "country": "United States",
                    "geoPoint": {
                        "lat": 32.84727,
                        "lon": -117.2742
                    }
                },
                {
                    "facility": "Research Site",
                    "status": "NOT_YET_RECRUITING",
                    "city": "Palo Alto",
                    "state": "California",
                    "zip": "94304",
                    "country": "United States",
                    "geoPoint": {
                        "lat": 37.44188,
                        "lon": -122.14302
                    }
                },
                {
                    "facility": "Research Site",
                    "status": "RECRUITING",
                    "city": "San Francisco",
                    "state": "California",
                    "zip": "94143",
                    "country": "United States",
                    "geoPoint": {
                        "lat": 37.77493,
                        "lon": -122.41942
                    }
                },
                {
                    "facility": "Research Site",
                    "status": "RECRUITING",
                    "city": "Aurora",
                    "state": "Colorado",
                    "zip": "80045",
                    "country": "United States",
                    "geoPoint": {
                        "lat": 39.72943,
                        "lon": -104.83192
                    }
                },
                {
                    "facility": "Research Site",
                    "status": "RECRUITING",
                    "city": "Washington",
                    "state": "District of Columbia",
                    "zip": "20010",
                    "country": "United States",
                    "geoPoint": {
                        "lat": 38.89511,
                        "lon": -77.03637
                    }
                },
                {
                    "facility": "Research Site",
                    "status": "NOT_YET_RECRUITING",
                    "city": "Jacksonville",
                    "state": "Florida",
                    "zip": "32224",
                    "country": "United States",
                    "geoPoint": {
                        "lat": 30.33218,
                        "lon": -81.65565
                    }
                },
                {
                    "facility": "Research Site",
                    "status": "RECRUITING",
                    "city": "Weston",
                    "state": "Florida",
                    "zip": "33331",
                    "country": "United States",
                    "geoPoint": {
                        "lat": 26.10037,
                        "lon": -80.39977
                    }
                },
                {
                    "facility": "Research Site",
                    "status": "RECRUITING",
                    "city": "Atlanta",
                    "state": "Georgia",
                    "zip": "30309",
                    "country": "United States",
                    "geoPoint": {
                        "lat": 33.749,
                        "lon": -84.38798
                    }
                },
                {
                    "facility": "Research Site",
                    "status": "NOT_YET_RECRUITING",
                    "city": "Atlanta",
                    "state": "Georgia",
                    "zip": "30322",
                    "country": "United States",
                    "geoPoint": {
                        "lat": 33.749,
                        "lon": -84.38798
                    }
                },
                {
                    "facility": "Research Site",
                    "status": "NOT_YET_RECRUITING",
                    "city": "Chicago",
                    "state": "Illinois",
                    "zip": "60611",
                    "country": "United States",
                    "geoPoint": {
                        "lat": 41.85003,
                        "lon": -87.65005
                    }
                },
                {
                    "facility": "Research Site",
                    "status": "NOT_YET_RECRUITING",
                    "city": "Chicago",
                    "state": "Illinois",
                    "zip": "60637",
                    "country": "United States",
                    "geoPoint": {
                        "lat": 41.85003,
                        "lon": -87.65005
                    }
                },
                {
                    "facility": "Research Site",
                    "status": "RECRUITING",
                    "city": "Indianapolis",
                    "state": "Indiana",
                    "zip": "46202",
                    "country": "United States",
                    "geoPoint": {
                        "lat": 39.76838,
                        "lon": -86.15804
                    }
                },
                {
                    "facility": "Research Site",
                    "status": "NOT_YET_RECRUITING",
                    "city": "Kansas City",
                    "state": "Kansas",
                    "zip": "66160",
                    "country": "United States",
                    "geoPoint": {
                        "lat": 39.11417,
                        "lon": -94.62746
                    }
                },
                {
                    "facility": "Research Site",
                    "status": "NOT_YET_RECRUITING",
                    "city": "Boston",
                    "state": "Massachusetts",
                    "zip": "02115",
                    "country": "United States",
                    "geoPoint": {
                        "lat": 42.35843,
                        "lon": -71.05977
                    }
                },
                {
                    "facility": "Research Site",
                    "status": "RECRUITING",
                    "city": "Boston",
                    "state": "Massachusetts",
                    "zip": "02118",
                    "country": "United States",
                    "geoPoint": {
                        "lat": 42.35843,
                        "lon": -71.05977
                    }
                },
                {
                    "facility": "Research Site",
                    "status": "WITHDRAWN",
                    "city": "Minneapolis",
                    "state": "Minnesota",
                    "zip": "55417",
                    "country": "United States",
                    "geoPoint": {
                        "lat": 44.97997,
                        "lon": -93.26384
                    }
                },
                {
                    "facility": "Research Site",
                    "status": "WITHDRAWN",
                    "city": "Minneapolis",
                    "state": "Minnesota",
                    "zip": "55421",
                    "country": "United States",
                    "geoPoint": {
                        "lat": 44.97997,
                        "lon": -93.26384
                    }
                },
                {
                    "facility": "Research Site",
                    "status": "NOT_YET_RECRUITING",
                    "city": "Rochester",
                    "state": "Minnesota",
                    "zip": "55905",
                    "country": "United States",
                    "geoPoint": {
                        "lat": 44.02163,
                        "lon": -92.4699
                    }
                },
                {
                    "facility": "Research Site",
                    "status": "NOT_YET_RECRUITING",
                    "city": "Kansas City",
                    "state": "Missouri",
                    "zip": "64111",
                    "country": "United States",
                    "geoPoint": {
                        "lat": 39.09973,
                        "lon": -94.57857
                    }
                },
                {
                    "facility": "Research Site",
                    "status": "RECRUITING",
                    "city": "Saint Louis",
                    "state": "Missouri",
                    "zip": "63110",
                    "country": "United States",
                    "geoPoint": {
                        "lat": 38.62727,
                        "lon": -90.19789
                    }
                },
                {
                    "facility": "Research Site",
                    "status": "RECRUITING",
                    "city": "New York",
                    "state": "New York",
                    "zip": "10016",
                    "country": "United States",
                    "geoPoint": {
                        "lat": 40.71427,
                        "lon": -74.00597
                    }
                },
                {
                    "facility": "Research Site",
                    "status": "RECRUITING",
                    "city": "New York",
                    "state": "New York",
                    "zip": "10032",
                    "country": "United States",
                    "geoPoint": {
                        "lat": 40.71427,
                        "lon": -74.00597
                    }
                },
                {
                    "facility": "Research Site",
                    "status": "RECRUITING",
                    "city": "Stony Brook",
                    "state": "New York",
                    "zip": "11794",
                    "country": "United States",
                    "geoPoint": {
                        "lat": 40.92565,
                        "lon": -73.14094
                    }
                },
                {
                    "facility": "Research Site",
                    "status": "RECRUITING",
                    "city": "Chapel Hill",
                    "state": "North Carolina",
                    "zip": "27599",
                    "country": "United States",
                    "geoPoint": {
                        "lat": 35.9132,
                        "lon": -79.05584
                    }
                },
                {
                    "facility": "Research Site",
                    "status": "NOT_YET_RECRUITING",
                    "city": "Durham",
                    "state": "North Carolina",
                    "zip": "27705",
                    "country": "United States",
                    "geoPoint": {
                        "lat": 35.99403,
                        "lon": -78.89862
                    }
                },
                {
                    "facility": "Research Site",
                    "status": "RECRUITING",
                    "city": "Cleveland",
                    "state": "Ohio",
                    "zip": "44195",
                    "country": "United States",
                    "geoPoint": {
                        "lat": 41.4995,
                        "lon": -81.69541
                    }
                },
                {
                    "facility": "Research Site",
                    "status": "RECRUITING",
                    "city": "Columbus",
                    "state": "Ohio",
                    "zip": "43210",
                    "country": "United States",
                    "geoPoint": {
                        "lat": 39.96118,
                        "lon": -82.99879
                    }
                },
                {
                    "facility": "Research Site",
                    "status": "NOT_YET_RECRUITING",
                    "city": "Portland",
                    "state": "Oregon",
                    "zip": "97239",
                    "country": "United States",
                    "geoPoint": {
                        "lat": 45.52345,
                        "lon": -122.67621
                    }
                },
                {
                    "facility": "Research Site",
                    "status": "RECRUITING",
                    "city": "Danville",
                    "state": "Pennsylvania",
                    "zip": "17822",
                    "country": "United States",
                    "geoPoint": {
                        "lat": 40.96342,
                        "lon": -76.61273
                    }
                },
                {
                    "facility": "Research Site",
                    "status": "RECRUITING",
                    "city": "Philadelphia",
                    "state": "Pennsylvania",
                    "zip": "19104",
                    "country": "United States",
                    "geoPoint": {
                        "lat": 39.95233,
                        "lon": -75.16379
                    }
                },
                {
                    "facility": "Research Site",
                    "status": "WITHDRAWN",
                    "city": "Providence",
                    "state": "Rhode Island",
                    "zip": "02908",
                    "country": "United States",
                    "geoPoint": {
                        "lat": 41.82399,
                        "lon": -71.41283
                    }
                },
                {
                    "facility": "Research Site",
                    "status": "NOT_YET_RECRUITING",
                    "city": "Charleston",
                    "state": "South Carolina",
                    "zip": "29425",
                    "country": "United States",
                    "geoPoint": {
                        "lat": 32.77657,
                        "lon": -79.93092
                    }
                },
                {
                    "facility": "Research Site",
                    "status": "RECRUITING",
                    "city": "Greenville",
                    "state": "South Carolina",
                    "zip": "29605",
                    "country": "United States",
                    "geoPoint": {
                        "lat": 34.85262,
                        "lon": -82.39401
                    }
                },
                {
                    "facility": "Research Site",
                    "status": "NOT_YET_RECRUITING",
                    "city": "Nashville",
                    "state": "Tennessee",
                    "zip": "37232",
                    "country": "United States",
                    "geoPoint": {
                        "lat": 36.16589,
                        "lon": -86.78444
                    }
                },
                {
                    "facility": "Research Site",
                    "status": "NOT_YET_RECRUITING",
                    "city": "Fort Worth",
                    "state": "Texas",
                    "zip": "76104",
                    "country": "United States",
                    "geoPoint": {
                        "lat": 32.72541,
                        "lon": -97.32085
                    }
                },
                {
                    "facility": "Research Site",
                    "status": "RECRUITING",
                    "city": "Houston",
                    "state": "Texas",
                    "zip": "77030",
                    "country": "United States",
                    "geoPoint": {
                        "lat": 29.76328,
                        "lon": -95.36327
                    }
                },
                {
                    "facility": "Research Site",
                    "status": "NOT_YET_RECRUITING",
                    "city": "Salt Lake City",
                    "state": "Utah",
                    "zip": "84132",
                    "country": "United States",
                    "geoPoint": {
                        "lat": 40.76078,
                        "lon": -111.89105
                    }
                },
                {
                    "facility": "Research Site",
                    "status": "RECRUITING",
                    "city": "Falls Church",
                    "state": "Virginia",
                    "zip": "22042",
                    "country": "United States",
                    "geoPoint": {
                        "lat": 38.88233,
                        "lon": -77.17109
                    }
                },
                {
                    "facility": "Research Site",
                    "status": "RECRUITING",
                    "city": "Richmond",
                    "state": "Virginia",
                    "zip": "23298",
                    "country": "United States",
                    "geoPoint": {
                        "lat": 37.55376,
                        "lon": -77.46026
                    }
                },
                {
                    "facility": "Research Site",
                    "status": "NOT_YET_RECRUITING",
                    "city": "Seattle",
                    "state": "Washington",
                    "zip": "98195",
                    "country": "United States",
                    "geoPoint": {
                        "lat": 47.60621,
                        "lon": -122.33207
                    }
                },
                {
                    "facility": "Research Site",
                    "status": "RECRUITING",
                    "city": "Madison",
                    "state": "Wisconsin",
                    "zip": "53705",
                    "country": "United States",
                    "geoPoint": {
                        "lat": 43.07305,
                        "lon": -89.40123
                    }
                },
                {
                    "facility": "Research Site",
                    "status": "NOT_YET_RECRUITING",
                    "city": "Buenos Aires",
                    "zip": "1425",
                    "country": "Argentina",
                    "geoPoint": {
                        "lat": -34.61315,
                        "lon": -58.37723
                    }
                },
                {
                    "facility": "Research Site",
                    "status": "WITHDRAWN",
                    "city": "Buenos Aires",
                    "zip": "C1110 AAF",
                    "country": "Argentina",
                    "geoPoint": {
                        "lat": -34.61315,
                        "lon": -58.37723
                    }
                },
                {
                    "facility": "Research Site",
                    "status": "NOT_YET_RECRUITING",
                    "city": "Caba",
                    "zip": "C1006ACC",
                    "country": "Argentina",
                    "geoPoint": {
                        "lat": -34.61315,
                        "lon": -58.37723
                    }
                },
                {
                    "facility": "Research Site",
                    "status": "NOT_YET_RECRUITING",
                    "city": "Caba",
                    "zip": "C1428DCO",
                    "country": "Argentina",
                    "geoPoint": {
                        "lat": -34.61315,
                        "lon": -58.37723
                    }
                },
                {
                    "facility": "Research Site",
                    "status": "NOT_YET_RECRUITING",
                    "city": "Ciudad Autonoma Buenos Aires",
                    "zip": "C1181ACH",
                    "country": "Argentina",
                    "geoPoint": {
                        "lat": -34.61315,
                        "lon": -58.37723
                    }
                },
                {
                    "facility": "Research Site",
                    "status": "NOT_YET_RECRUITING",
                    "city": "Cordoba",
                    "zip": "X5016",
                    "country": "Argentina",
                    "geoPoint": {
                        "lat": -31.4135,
                        "lon": -64.18105
                    }
                },
                {
                    "facility": "Research Site",
                    "status": "NOT_YET_RECRUITING",
                    "city": "Pilar",
                    "zip": "B1629AHJ",
                    "country": "Argentina",
                    "geoPoint": {
                        "lat": -31.6789,
                        "lon": -63.87964
                    }
                },
                {
                    "facility": "Research Site",
                    "status": "NOT_YET_RECRUITING",
                    "city": "Bedford Park",
                    "zip": "5042",
                    "country": "Australia",
                    "geoPoint": {
                        "lat": -35.03333,
                        "lon": 138.56667
                    }
                },
                {
                    "facility": "Research Site",
                    "status": "NOT_YET_RECRUITING",
                    "city": "Box Hill",
                    "zip": "3128",
                    "country": "Australia",
                    "geoPoint": {
                        "lat": -37.81887,
                        "lon": 145.12545
                    }
                },
                {
                    "facility": "Research Site",
                    "status": "RECRUITING",
                    "city": "Brisbane",
                    "zip": "4102",
                    "country": "Australia",
                    "geoPoint": {
                        "lat": -27.46794,
                        "lon": 153.02809
                    }
                },
                {
                    "facility": "Research Site",
                    "status": "RECRUITING",
                    "city": "Darlinghurst",
                    "zip": "2010",
                    "country": "Australia",
                    "geoPoint": {
                        "lat": -33.87939,
                        "lon": 151.21925
                    }
                },
                {
                    "facility": "Research Site",
                    "status": "RECRUITING",
                    "city": "Joondalup",
                    "zip": "6027",
                    "country": "Australia",
                    "geoPoint": {
                        "lat": -31.74445,
                        "lon": 115.76835
                    }
                },
                {
                    "facility": "Research Site",
                    "status": "RECRUITING",
                    "city": "Melbourne",
                    "zip": "3004",
                    "country": "Australia",
                    "geoPoint": {
                        "lat": -37.814,
                        "lon": 144.96332
                    }
                },
                {
                    "facility": "Research Site",
                    "status": "RECRUITING",
                    "city": "Westmead",
                    "zip": "2145",
                    "country": "Australia",
                    "geoPoint": {
                        "lat": -33.80383,
                        "lon": 150.98768
                    }
                },
                {
                    "facility": "Research Site",
                    "status": "RECRUITING",
                    "city": "Graz",
                    "zip": "8036",
                    "country": "Austria",
                    "geoPoint": {
                        "lat": 47.06667,
                        "lon": 15.45
                    }
                },
                {
                    "facility": "Research Site",
                    "status": "NOT_YET_RECRUITING",
                    "city": "Innsbruck",
                    "zip": "6020",
                    "country": "Austria",
                    "geoPoint": {
                        "lat": 47.26266,
                        "lon": 11.39454
                    }
                },
                {
                    "facility": "Research Site",
                    "status": "NOT_YET_RECRUITING",
                    "city": "Wels",
                    "zip": "4600",
                    "country": "Austria",
                    "geoPoint": {
                        "lat": 48.16667,
                        "lon": 14.03333
                    }
                },
                {
                    "facility": "Research Site",
                    "status": "RECRUITING",
                    "city": "Wien",
                    "zip": "1090",
                    "country": "Austria",
                    "geoPoint": {
                        "lat": 48.20849,
                        "lon": 16.37208
                    }
                },
                {
                    "facility": "Research Site",
                    "status": "NOT_YET_RECRUITING",
                    "city": "Wien",
                    "zip": "1160",
                    "country": "Austria",
                    "geoPoint": {
                        "lat": 48.20849,
                        "lon": 16.37208
                    }
                },
                {
                    "facility": "Research Site",
                    "status": "RECRUITING",
                    "city": "Bruges",
                    "zip": "8000",
                    "country": "Belgium",
                    "geoPoint": {
                        "lat": 51.20892,
                        "lon": 3.22424
                    }
                },
                {
                    "facility": "Research Site",
                    "status": "NOT_YET_RECRUITING",
                    "city": "Brussels",
                    "zip": "1070",
                    "country": "Belgium",
                    "geoPoint": {
                        "lat": 50.85045,
                        "lon": 4.34878
                    }
                },
                {
                    "facility": "Research Site",
                    "status": "RECRUITING",
                    "city": "Genk",
                    "zip": "3600",
                    "country": "Belgium",
                    "geoPoint": {
                        "lat": 50.965,
                        "lon": 5.50082
                    }
                },
                {
                    "facility": "Research Site",
                    "status": "NOT_YET_RECRUITING",
                    "city": "Campinas",
                    "zip": "13083",
                    "country": "Brazil",
                    "geoPoint": {
                        "lat": -22.90556,
                        "lon": -47.06083
                    }
                },
                {
                    "facility": "Research Site",
                    "status": "NOT_YET_RECRUITING",
                    "city": "Fortaleza",
                    "zip": "60430-375",
                    "country": "Brazil",
                    "geoPoint": {
                        "lat": -3.71722,
                        "lon": -38.54306
                    }
                },
                {
                    "facility": "Research Site",
                    "status": "NOT_YET_RECRUITING",
                    "city": "Porto Alegre",
                    "zip": "90560-030",
                    "country": "Brazil",
                    "geoPoint": {
                        "lat": -30.03306,
                        "lon": -51.23
                    }
                },
                {
                    "facility": "Research Site",
                    "status": "RECRUITING",
                    "city": "Ribeir\u00e3o Preto",
                    "zip": "14026-020",
                    "country": "Brazil",
                    "geoPoint": {
                        "lat": -21.1775,
                        "lon": -47.81028
                    }
                },
                {
                    "facility": "Research Site",
                    "status": "NOT_YET_RECRUITING",
                    "city": "Ribeir\u00e3o Preto",
                    "zip": "14051-140",
                    "country": "Brazil",
                    "geoPoint": {
                        "lat": -21.1775,
                        "lon": -47.81028
                    }
                },
                {
                    "facility": "Research Site",
                    "status": "NOT_YET_RECRUITING",
                    "city": "Rio de Janeiro",
                    "zip": "20551-030",
                    "country": "Brazil",
                    "geoPoint": {
                        "lat": -22.90278,
                        "lon": -43.2075
                    }
                },
                {
                    "facility": "Research Site",
                    "status": "RECRUITING",
                    "city": "Rio de Janeiro",
                    "zip": "22270-005",
                    "country": "Brazil",
                    "geoPoint": {
                        "lat": -22.90278,
                        "lon": -43.2075
                    }
                },
                {
                    "facility": "Research Site",
                    "status": "RECRUITING",
                    "city": "Sao Paulo",
                    "zip": "05403-000",
                    "country": "Brazil",
                    "geoPoint": {
                        "lat": -23.5475,
                        "lon": -46.63611
                    }
                },
                {
                    "facility": "Research Site",
                    "status": "NOT_YET_RECRUITING",
                    "city": "Sao Paulo",
                    "zip": "05652-900",
                    "country": "Brazil",
                    "geoPoint": {
                        "lat": -23.5475,
                        "lon": -46.63611
                    }
                },
                {
                    "facility": "Research Site",
                    "status": "NOT_YET_RECRUITING",
                    "city": "S\u00e3o Paulo",
                    "zip": "01323-001",
                    "country": "Brazil",
                    "geoPoint": {
                        "lat": -23.5475,
                        "lon": -46.63611
                    }
                },
                {
                    "facility": "Research Site",
                    "status": "WITHDRAWN",
                    "city": "S\u00e3o Paulo",
                    "zip": "01409-02",
                    "country": "Brazil",
                    "geoPoint": {
                        "lat": -23.5475,
                        "lon": -46.63611
                    }
                },
                {
                    "facility": "Research Site",
                    "status": "NOT_YET_RECRUITING",
                    "city": "S\u00e3o Paulo",
                    "zip": "04012-909",
                    "country": "Brazil",
                    "geoPoint": {
                        "lat": -23.5475,
                        "lon": -46.63611
                    }
                },
                {
                    "facility": "Research Site",
                    "status": "RECRUITING",
                    "city": "Calgary",
                    "state": "Alberta",
                    "zip": "T2N 1N4",
                    "country": "Canada",
                    "geoPoint": {
                        "lat": 51.05011,
                        "lon": -114.08529
                    }
                },
                {
                    "facility": "Research Site",
                    "status": "NOT_YET_RECRUITING",
                    "city": "Vancouver",
                    "state": "British Columbia",
                    "zip": "V5Z 1M9",
                    "country": "Canada",
                    "geoPoint": {
                        "lat": 49.24966,
                        "lon": -123.11934
                    }
                },
                {
                    "facility": "Research Site",
                    "status": "NOT_YET_RECRUITING",
                    "city": "Winnipeg",
                    "state": "Manitoba",
                    "zip": "R2H 2A6",
                    "country": "Canada",
                    "geoPoint": {
                        "lat": 49.8844,
                        "lon": -97.14704
                    }
                },
                {
                    "facility": "Research Site",
                    "status": "RECRUITING",
                    "city": "London",
                    "state": "Ontario",
                    "zip": "N6C 2R5",
                    "country": "Canada",
                    "geoPoint": {
                        "lat": 42.98339,
                        "lon": -81.23304
                    }
                },
                {
                    "facility": "Research Site",
                    "status": "NOT_YET_RECRUITING",
                    "city": "Toronto",
                    "state": "Ontario",
                    "zip": "M5G 2C4",
                    "country": "Canada",
                    "geoPoint": {
                        "lat": 43.70011,
                        "lon": -79.4163
                    }
                },
                {
                    "facility": "Research Site",
                    "status": "NOT_YET_RECRUITING",
                    "city": "Chicoutimi",
                    "state": "Quebec",
                    "zip": "G7H 5H6",
                    "country": "Canada",
                    "geoPoint": {
                        "lat": 48.41963,
                        "lon": -71.06369
                    }
                },
                {
                    "facility": "Research Site",
                    "status": "NOT_YET_RECRUITING",
                    "city": "Montr\u00e9al",
                    "state": "Quebec",
                    "zip": "H1T 1C8",
                    "country": "Canada",
                    "geoPoint": {
                        "lat": 45.50884,
                        "lon": -73.58781
                    }
                },
                {
                    "facility": "Research Site",
                    "status": "NOT_YET_RECRUITING",
                    "city": "Montr\u00e9al",
                    "state": "Quebec",
                    "zip": "H2X 0A9",
                    "country": "Canada",
                    "geoPoint": {
                        "lat": 45.50884,
                        "lon": -73.58781
                    }
                },
                {
                    "facility": "Research Site",
                    "status": "NOT_YET_RECRUITING",
                    "city": "Rimouski",
                    "state": "Quebec",
                    "zip": "G5L 5T1",
                    "country": "Canada",
                    "geoPoint": {
                        "lat": 48.44879,
                        "lon": -68.52396
                    }
                },
                {
                    "facility": "Research Site",
                    "status": "NOT_YET_RECRUITING",
                    "city": "Beijing",
                    "zip": "100029",
                    "country": "China",
                    "geoPoint": {
                        "lat": 39.9075,
                        "lon": 116.39723
                    }
                },
                {
                    "facility": "Research Site",
                    "status": "NOT_YET_RECRUITING",
                    "city": "Beijing",
                    "zip": "100034",
                    "country": "China",
                    "geoPoint": {
                        "lat": 39.9075,
                        "lon": 116.39723
                    }
                },
                {
                    "facility": "Research Site",
                    "status": "NOT_YET_RECRUITING",
                    "city": "Beijing",
                    "zip": "100037",
                    "country": "China",
                    "geoPoint": {
                        "lat": 39.9075,
                        "lon": 116.39723
                    }
                },
                {
                    "facility": "Research Site",
                    "status": "RECRUITING",
                    "city": "Beijing",
                    "zip": "100191",
                    "country": "China",
                    "geoPoint": {
                        "lat": 39.9075,
                        "lon": 116.39723
                    }
                },
                {
                    "facility": "Research Site",
                    "status": "RECRUITING",
                    "city": "Beijing",
                    "zip": "100730",
                    "country": "China",
                    "geoPoint": {
                        "lat": 39.9075,
                        "lon": 116.39723
                    }
                },
                {
                    "facility": "Research Site",
                    "status": "RECRUITING",
                    "city": "Changsha",
                    "zip": "430033",
                    "country": "China",
                    "geoPoint": {
                        "lat": 28.19874,
                        "lon": 112.97087
                    }
                },
                {
                    "facility": "Research Site",
                    "status": "RECRUITING",
                    "city": "Chengdu",
                    "zip": "610000",
                    "country": "China",
                    "geoPoint": {
                        "lat": 30.66667,
                        "lon": 104.06667
                    }
                },
                {
                    "facility": "Research Site",
                    "status": "RECRUITING",
                    "city": "Chengdu",
                    "zip": "610072",
                    "country": "China",
                    "geoPoint": {
                        "lat": 30.66667,
                        "lon": 104.06667
                    }
                },
                {
                    "facility": "Research Site",
                    "status": "NOT_YET_RECRUITING",
                    "city": "Chongqing",
                    "zip": "400042",
                    "country": "China",
                    "geoPoint": {
                        "lat": 29.56278,
                        "lon": 106.55278
                    }
                },
                {
                    "facility": "Research Site",
                    "status": "WITHDRAWN",
                    "city": "Dalian",
                    "zip": "116011",
                    "country": "China",
                    "geoPoint": {
                        "lat": 38.91222,
                        "lon": 121.60222
                    }
                },
                {
                    "facility": "Research Site",
                    "status": "NOT_YET_RECRUITING",
                    "city": "Fuzhou",
                    "zip": "350005",
                    "country": "China",
                    "geoPoint": {
                        "lat": 26.06139,
                        "lon": 119.30611
                    }
                },
                {
                    "facility": "Research Site",
                    "status": "RECRUITING",
                    "city": "Guangzhou",
                    "zip": "510080",
                    "country": "China",
                    "geoPoint": {
                        "lat": 23.11667,
                        "lon": 113.25
                    }
                },
                {
                    "facility": "Research Site",
                    "status": "RECRUITING",
                    "city": "Guiyang",
                    "zip": "550044",
                    "country": "China",
                    "geoPoint": {
                        "lat": 26.58333,
                        "lon": 106.71667
                    }
                },
                {
                    "facility": "Research Site",
                    "status": "NOT_YET_RECRUITING",
                    "city": "Hangzhou",
                    "zip": "310003",
                    "country": "China",
                    "geoPoint": {
                        "lat": 30.29365,
                        "lon": 120.16142
                    }
                },
                {
                    "facility": "Research Site",
                    "status": "RECRUITING",
                    "city": "Hangzhou",
                    "zip": "310009",
                    "country": "China",
                    "geoPoint": {
                        "lat": 30.29365,
                        "lon": 120.16142
                    }
                },
                {
                    "facility": "Research Site",
                    "status": "NOT_YET_RECRUITING",
                    "city": "Hangzhou",
                    "zip": "310014",
                    "country": "China",
                    "geoPoint": {
                        "lat": 30.29365,
                        "lon": 120.16142
                    }
                },
                {
                    "facility": "Research Site",
                    "status": "NOT_YET_RECRUITING",
                    "city": "Harbin",
                    "zip": "150001",
                    "country": "China",
                    "geoPoint": {
                        "lat": 45.75,
                        "lon": 126.65
                    }
                },
                {
                    "facility": "Research Site",
                    "status": "NOT_YET_RECRUITING",
                    "city": "Hefei",
                    "zip": "230001",
                    "country": "China",
                    "geoPoint": {
                        "lat": 31.86389,
                        "lon": 117.28083
                    }
                },
                {
                    "facility": "Research Site",
                    "status": "RECRUITING",
                    "city": "Jinan",
                    "zip": "250021",
                    "country": "China",
                    "geoPoint": {
                        "lat": 36.66833,
                        "lon": 116.99722
                    }
                },
                {
                    "facility": "Research Site",
                    "status": "NOT_YET_RECRUITING",
                    "city": "Nanjing",
                    "zip": "210029",
                    "country": "China",
                    "geoPoint": {
                        "lat": 32.06167,
                        "lon": 118.77778
                    }
                },
                {
                    "facility": "Research Site",
                    "status": "NOT_YET_RECRUITING",
                    "city": "Shanghai",
                    "zip": "200032",
                    "country": "China",
                    "geoPoint": {
                        "lat": 31.22222,
                        "lon": 121.45806
                    }
                },
                {
                    "facility": "Research Site",
                    "status": "NOT_YET_RECRUITING",
                    "city": "Suzhou",
                    "zip": "215006",
                    "country": "China",
                    "geoPoint": {
                        "lat": 31.30408,
                        "lon": 120.59538
                    }
                },
                {
                    "facility": "Research Site",
                    "status": "WITHDRAWN",
                    "city": "Tianjin",
                    "zip": "300222",
                    "country": "China",
                    "geoPoint": {
                        "lat": 39.14222,
                        "lon": 117.17667
                    }
                },
                {
                    "facility": "Research Site",
                    "status": "NOT_YET_RECRUITING",
                    "city": "Wuhan",
                    "zip": "430022",
                    "country": "China",
                    "geoPoint": {
                        "lat": 30.58333,
                        "lon": 114.26667
                    }
                },
                {
                    "facility": "Research Site",
                    "status": "RECRUITING",
                    "city": "Wuhan",
                    "zip": "430030",
                    "country": "China",
                    "geoPoint": {
                        "lat": 30.58333,
                        "lon": 114.26667
                    }
                },
                {
                    "facility": "Research Site",
                    "status": "RECRUITING",
                    "city": "Xi'an",
                    "zip": "710061",
                    "country": "China",
                    "geoPoint": {
                        "lat": 34.25833,
                        "lon": 108.92861
                    }
                },
                {
                    "facility": "Research Site",
                    "status": "NOT_YET_RECRUITING",
                    "city": "Brno",
                    "zip": "656 91",
                    "country": "Czechia",
                    "geoPoint": {
                        "lat": 49.19522,
                        "lon": 16.60796
                    }
                },
                {
                    "facility": "Research Site",
                    "status": "NOT_YET_RECRUITING",
                    "city": "Praha 4",
                    "zip": "140 00",
                    "country": "Czechia",
                    "geoPoint": {
                        "lat": 50.08804,
                        "lon": 14.42076
                    }
                },
                {
                    "facility": "Research Site",
                    "status": "NOT_YET_RECRUITING",
                    "city": "Praha",
                    "zip": "128 08",
                    "country": "Czechia",
                    "geoPoint": {
                        "lat": 50.08804,
                        "lon": 14.42076
                    }
                },
                {
                    "facility": "Research Site",
                    "status": "NOT_YET_RECRUITING",
                    "city": "Aarhus",
                    "zip": "8200",
                    "country": "Denmark",
                    "geoPoint": {
                        "lat": 56.15674,
                        "lon": 10.21076
                    }
                },
                {
                    "facility": "Research Site",
                    "status": "NOT_YET_RECRUITING",
                    "city": "Copenhagen",
                    "zip": "DK-2100",
                    "country": "Denmark",
                    "geoPoint": {
                        "lat": 55.67594,
                        "lon": 12.56553
                    }
                },
                {
                    "facility": "Research Site",
                    "status": "NOT_YET_RECRUITING",
                    "city": "Odense C",
                    "zip": "5000",
                    "country": "Denmark",
                    "geoPoint": {
                        "lat": 55.39594,
                        "lon": 10.38831
                    }
                },
                {
                    "facility": "Research Site",
                    "status": "RECRUITING",
                    "city": "Bron",
                    "zip": "69677",
                    "country": "France",
                    "geoPoint": {
                        "lat": 45.73333,
                        "lon": 4.91667
                    }
                },
                {
                    "facility": "Research Site",
                    "status": "RECRUITING",
                    "city": "Chambray Les Tours",
                    "zip": "37170",
                    "country": "France",
                    "geoPoint": {
                        "lat": 47.33537,
                        "lon": 0.70286
                    }
                },
                {
                    "facility": "Research Site",
                    "status": "RECRUITING",
                    "city": "Cr\u00e9teil C\u00e9dex",
                    "zip": "94010",
                    "country": "France",
                    "geoPoint": {
                        "lat": 48.78333,
                        "lon": 2.46667
                    }
                },
                {
                    "facility": "Research Site",
                    "status": "RECRUITING",
                    "city": "Marseille",
                    "zip": "13005",
                    "country": "France",
                    "geoPoint": {
                        "lat": 43.29551,
                        "lon": 5.38958
                    }
                },
                {
                    "facility": "Research Site",
                    "status": "RECRUITING",
                    "city": "Montpellier",
                    "zip": "34295",
                    "country": "France",
                    "geoPoint": {
                        "lat": 43.61092,
                        "lon": 3.87723
                    }
                },
                {
                    "facility": "Research Site",
                    "status": "RECRUITING",
                    "city": "Paris Cedex 13",
                    "zip": "75651",
                    "country": "France",
                    "geoPoint": {
                        "lat": 48.85341,
                        "lon": 2.3488
                    }
                },
                {
                    "facility": "Research Site",
                    "status": "RECRUITING",
                    "city": "Paris",
                    "zip": "75018",
                    "country": "France",
                    "geoPoint": {
                        "lat": 48.85341,
                        "lon": 2.3488
                    }
                },
                {
                    "facility": "Research Site",
                    "status": "RECRUITING",
                    "city": "Pessac",
                    "zip": "33604",
                    "country": "France",
                    "geoPoint": {
                        "lat": 44.81011,
                        "lon": -0.64129
                    }
                },
                {
                    "facility": "Research Site",
                    "status": "RECRUITING",
                    "city": "Poitiers",
                    "zip": "86021",
                    "country": "France",
                    "geoPoint": {
                        "lat": 46.58333,
                        "lon": 0.33333
                    }
                },
                {
                    "facility": "Research Site",
                    "status": "RECRUITING",
                    "city": "Rennes Cedex 9",
                    "zip": "35033",
                    "country": "France",
                    "geoPoint": {
                        "lat": 48.11198,
                        "lon": -1.67429
                    }
                },
                {
                    "facility": "Research Site",
                    "status": "RECRUITING",
                    "city": "Saint-Herblain",
                    "zip": "44093",
                    "country": "France",
                    "geoPoint": {
                        "lat": 47.21765,
                        "lon": -1.64841
                    }
                },
                {
                    "facility": "Research Site",
                    "status": "RECRUITING",
                    "city": "Toulouse",
                    "zip": "31059",
                    "country": "France",
                    "geoPoint": {
                        "lat": 43.60426,
                        "lon": 1.44367
                    }
                },
                {
                    "facility": "Research Site",
                    "status": "NOT_YET_RECRUITING",
                    "city": "Bonn",
                    "zip": "53127",
                    "country": "Germany",
                    "geoPoint": {
                        "lat": 50.73438,
                        "lon": 7.09549
                    }
                },
                {
                    "facility": "Research Site",
                    "status": "NOT_YET_RECRUITING",
                    "city": "Cologne",
                    "zip": "50937",
                    "country": "Germany",
                    "geoPoint": {
                        "lat": 50.93333,
                        "lon": 6.95
                    }
                },
                {
                    "facility": "Research Site",
                    "status": "NOT_YET_RECRUITING",
                    "city": "Essen",
                    "zip": "45147",
                    "country": "Germany",
                    "geoPoint": {
                        "lat": 51.45657,
                        "lon": 7.01228
                    }
                },
                {
                    "facility": "Research Site",
                    "status": "RECRUITING",
                    "city": "Gie\u00dfen",
                    "zip": "35392",
                    "country": "Germany",
                    "geoPoint": {
                        "lat": 50.58727,
                        "lon": 8.67554
                    }
                },
                {
                    "facility": "Research Site",
                    "status": "RECRUITING",
                    "city": "Greifwald",
                    "zip": "17489",
                    "country": "Germany"
                },
                {
                    "facility": "Research Site",
                    "status": "WITHDRAWN",
                    "city": "G\u00f6ttingen",
                    "zip": "37075",
                    "country": "Germany",
                    "geoPoint": {
                        "lat": 51.53443,
                        "lon": 9.93228
                    }
                },
                {
                    "facility": "Research Site",
                    "status": "RECRUITING",
                    "city": "Hamburg",
                    "zip": "22767",
                    "country": "Germany",
                    "geoPoint": {
                        "lat": 53.57532,
                        "lon": 10.01534
                    }
                },
                {
                    "facility": "Research Site",
                    "status": "RECRUITING",
                    "city": "Hannover",
                    "zip": "30625",
                    "country": "Germany",
                    "geoPoint": {
                        "lat": 52.37052,
                        "lon": 9.73322
                    }
                },
                {
                    "facility": "Research Site",
                    "status": "RECRUITING",
                    "city": "Heidelberg",
                    "zip": "69120",
                    "country": "Germany",
                    "geoPoint": {
                        "lat": 49.40768,
                        "lon": 8.69079
                    }
                },
                {
                    "facility": "Research Site",
                    "status": "RECRUITING",
                    "city": "Homburg",
                    "zip": "66421",
                    "country": "Germany",
                    "geoPoint": {
                        "lat": 49.32637,
                        "lon": 7.33867
                    }
                },
                {
                    "facility": "Research Site",
                    "status": "RECRUITING",
                    "city": "Kiel",
                    "zip": "24105",
                    "country": "Germany",
                    "geoPoint": {
                        "lat": 54.32133,
                        "lon": 10.13489
                    }
                },
                {
                    "facility": "Research Site",
                    "status": "NOT_YET_RECRUITING",
                    "city": "Leipzig",
                    "zip": "04103",
                    "country": "Germany",
                    "geoPoint": {
                        "lat": 51.33962,
                        "lon": 12.37129
                    }
                },
                {
                    "facility": "Research Site",
                    "status": "NOT_YET_RECRUITING",
                    "city": "M\u00fcnchen",
                    "zip": "81377",
                    "country": "Germany",
                    "geoPoint": {
                        "lat": 48.13743,
                        "lon": 11.57549
                    }
                },
                {
                    "facility": "Research Site",
                    "status": "RECRUITING",
                    "city": "M\u00fcnster",
                    "zip": "48149",
                    "country": "Germany",
                    "geoPoint": {
                        "lat": 51.96236,
                        "lon": 7.62571
                    }
                },
                {
                    "facility": "Research Site",
                    "status": "WITHDRAWN",
                    "city": "W\u00fcrzburg",
                    "zip": "97078",
                    "country": "Germany",
                    "geoPoint": {
                        "lat": 49.79391,
                        "lon": 9.95121
                    }
                },
                {
                    "facility": "Research Site",
                    "status": "RECRUITING",
                    "city": "W\u00fcrzburg",
                    "zip": "97078",
                    "country": "Germany",
                    "geoPoint": {
                        "lat": 49.79391,
                        "lon": 9.95121
                    }
                },
                {
                    "facility": "Research Site",
                    "status": "WITHDRAWN",
                    "city": "Athens",
                    "zip": "11528",
                    "country": "Greece",
                    "geoPoint": {
                        "lat": 37.97945,
                        "lon": 23.71622
                    }
                },
                {
                    "facility": "Research Site",
                    "status": "RECRUITING",
                    "city": "Athens",
                    "zip": "11528",
                    "country": "Greece",
                    "geoPoint": {
                        "lat": 37.97945,
                        "lon": 23.71622
                    }
                },
                {
                    "facility": "Research Site",
                    "status": "NOT_YET_RECRUITING",
                    "city": "Dublin",
                    "zip": "7",
                    "country": "Ireland",
                    "geoPoint": {
                        "lat": 53.33306,
                        "lon": -6.24889
                    }
                },
                {
                    "facility": "Research Site",
                    "status": "NOT_YET_RECRUITING",
                    "city": "Dublin",
                    "zip": "8",
                    "country": "Ireland",
                    "geoPoint": {
                        "lat": 53.33306,
                        "lon": -6.24889
                    }
                },
                {
                    "facility": "Research Site",
                    "status": "RECRUITING",
                    "city": "Beer Yaakov",
                    "zip": "70300",
                    "country": "Israel"
                },
                {
                    "facility": "Research Site",
                    "status": "RECRUITING",
                    "city": "Haifa",
                    "zip": "31096",
                    "country": "Israel",
                    "geoPoint": {
                        "lat": 32.81841,
                        "lon": 34.9885
                    }
                },
                {
                    "facility": "Research Site",
                    "status": "RECRUITING",
                    "city": "Haifa",
                    "zip": "34362",
                    "country": "Israel",
                    "geoPoint": {
                        "lat": 32.81841,
                        "lon": 34.9885
                    }
                },
                {
                    "facility": "Research Site",
                    "status": "RECRUITING",
                    "city": "Jerusalem",
                    "zip": "91120",
                    "country": "Israel",
                    "geoPoint": {
                        "lat": 31.76904,
                        "lon": 35.21633
                    }
                },
                {
                    "facility": "Research Site",
                    "status": "RECRUITING",
                    "city": "Jerusalem",
                    "zip": "9372212",
                    "country": "Israel",
                    "geoPoint": {
                        "lat": 31.76904,
                        "lon": 35.21633
                    }
                },
                {
                    "facility": "Research Site",
                    "status": "RECRUITING",
                    "city": "Petah Tikva",
                    "zip": "4941492",
                    "country": "Israel",
                    "geoPoint": {
                        "lat": 32.08707,
                        "lon": 34.88747
                    }
                },
                {
                    "facility": "Research Site",
                    "status": "RECRUITING",
                    "city": "Rehovot",
                    "zip": "76100",
                    "country": "Israel",
                    "geoPoint": {
                        "lat": 31.89421,
                        "lon": 34.81199
                    }
                },
                {
                    "facility": "Research Site",
                    "status": "NOT_YET_RECRUITING",
                    "city": "Bologna",
                    "zip": "40138",
                    "country": "Italy",
                    "geoPoint": {
                        "lat": 44.49381,
                        "lon": 11.33875
                    }
                },
                {
                    "facility": "Research Site",
                    "status": "RECRUITING",
                    "city": "Ferrara",
                    "zip": "44124",
                    "country": "Italy",
                    "geoPoint": {
                        "lat": 44.83804,
                        "lon": 11.62057
                    }
                },
                {
                    "facility": "Research Site",
                    "status": "RECRUITING",
                    "city": "Florence",
                    "zip": "50134",
                    "country": "Italy",
                    "geoPoint": {
                        "lat": 43.77925,
                        "lon": 11.24626
                    }
                },
                {
                    "facility": "Research Site",
                    "status": "RECRUITING",
                    "city": "Forli",
                    "zip": "47121",
                    "country": "Italy",
                    "geoPoint": {
                        "lat": 44.22177,
                        "lon": 12.04144
                    }
                },
                {
                    "facility": "Research Site",
                    "status": "RECRUITING",
                    "city": "Messina",
                    "zip": "98124",
                    "country": "Italy",
                    "geoPoint": {
                        "lat": 38.19394,
                        "lon": 15.55256
                    }
                },
                {
                    "facility": "Research Site",
                    "status": "RECRUITING",
                    "city": "Milano",
                    "zip": "20122",
                    "country": "Italy",
                    "geoPoint": {
                        "lat": 45.46427,
                        "lon": 9.18951
                    }
                },
                {
                    "facility": "Research Site",
                    "status": "RECRUITING",
                    "city": "Napoli",
                    "zip": "80131",
                    "country": "Italy",
                    "geoPoint": {
                        "lat": 40.85216,
                        "lon": 14.26811
                    }
                },
                {
                    "facility": "Research Site",
                    "status": "NOT_YET_RECRUITING",
                    "city": "Padova",
                    "zip": "35128",
                    "country": "Italy",
                    "geoPoint": {
                        "lat": 45.40797,
                        "lon": 11.88586
                    }
                },
                {
                    "facility": "Research Site",
                    "status": "RECRUITING",
                    "city": "Pavia",
                    "zip": "27100",
                    "country": "Italy",
                    "geoPoint": {
                        "lat": 45.19205,
                        "lon": 9.15917
                    }
                },
                {
                    "facility": "Research Site",
                    "status": "RECRUITING",
                    "city": "Pisa",
                    "zip": "56124",
                    "country": "Italy",
                    "geoPoint": {
                        "lat": 43.70853,
                        "lon": 10.4036
                    }
                },
                {
                    "facility": "Research Site",
                    "status": "RECRUITING",
                    "city": "Roma",
                    "zip": "00189",
                    "country": "Italy",
                    "geoPoint": {
                        "lat": 41.89193,
                        "lon": 12.51133
                    }
                },
                {
                    "facility": "Research Site",
                    "status": "NOT_YET_RECRUITING",
                    "city": "Torino",
                    "zip": "10154",
                    "country": "Italy",
                    "geoPoint": {
                        "lat": 45.07049,
                        "lon": 7.68682
                    }
                },
                {
                    "facility": "Research Site",
                    "status": "RECRUITING",
                    "city": "Trieste",
                    "zip": "34128",
                    "country": "Italy",
                    "geoPoint": {
                        "lat": 45.64953,
                        "lon": 13.77679
                    }
                },
                {
                    "facility": "Research Site",
                    "status": "RECRUITING",
                    "city": "Bunkyo-ku",
                    "zip": "113-8431",
                    "country": "Japan",
                    "geoPoint": {
                        "lat": 35.37517,
                        "lon": 139.92991
                    }
                },
                {
                    "facility": "Research Site",
                    "status": "RECRUITING",
                    "city": "Kumamoto-shi",
                    "zip": "860-8556",
                    "country": "Japan",
                    "geoPoint": {
                        "lat": 32.80589,
                        "lon": 130.69182
                    }
                },
                {
                    "facility": "Research Site",
                    "status": "RECRUITING",
                    "city": "Kurume-shi",
                    "zip": "830-0011",
                    "country": "Japan",
                    "geoPoint": {
                        "lat": 33.31667,
                        "lon": 130.51667
                    }
                },
                {
                    "facility": "Research Site",
                    "status": "RECRUITING",
                    "city": "Kyoto-shi",
                    "zip": "602-8566",
                    "country": "Japan",
                    "geoPoint": {
                        "lat": 35.02107,
                        "lon": 135.75385
                    }
                },
                {
                    "facility": "Research Site",
                    "status": "RECRUITING",
                    "city": "Matsumoto-shi",
                    "zip": "390-8621",
                    "country": "Japan",
                    "geoPoint": {
                        "lat": 36.23333,
                        "lon": 137.96667
                    }
                },
                {
                    "facility": "Research Site",
                    "status": "RECRUITING",
                    "city": "Sapporo-shi",
                    "zip": "060-8543",
                    "country": "Japan",
                    "geoPoint": {
                        "lat": 43.06667,
                        "lon": 141.35
                    }
                },
                {
                    "facility": "Research Site",
                    "status": "RECRUITING",
                    "city": "Shinjuku-ku",
                    "zip": "160-8582",
                    "country": "Japan",
                    "geoPoint": {
                        "lat": 35.2946,
                        "lon": 139.57059
                    }
                },
                {
                    "facility": "Research Site",
                    "status": "RECRUITING",
                    "city": "Suita-shi",
                    "zip": "564-8565",
                    "country": "Japan",
                    "geoPoint": {
                        "lat": 34.76143,
                        "lon": 135.51567
                    }
                },
                {
                    "facility": "Research Site",
                    "status": "RECRUITING",
                    "city": "Busan",
                    "zip": "49241",
                    "country": "Korea, Republic of",
                    "geoPoint": {
                        "lat": 35.10278,
                        "lon": 129.04028
                    }
                },
                {
                    "facility": "Research Site",
                    "status": "RECRUITING",
                    "city": "Seoul",
                    "zip": "03080",
                    "country": "Korea, Republic of",
                    "geoPoint": {
                        "lat": 37.566,
                        "lon": 126.9784
                    }
                },
                {
                    "facility": "Research Site",
                    "status": "RECRUITING",
                    "city": "Seoul",
                    "zip": "03722",
                    "country": "Korea, Republic of",
                    "geoPoint": {
                        "lat": 37.566,
                        "lon": 126.9784
                    }
                },
                {
                    "facility": "Research Site",
                    "status": "RECRUITING",
                    "city": "Seoul",
                    "zip": "06351",
                    "country": "Korea, Republic of",
                    "geoPoint": {
                        "lat": 37.566,
                        "lon": 126.9784
                    }
                },
                {
                    "facility": "Research Site",
                    "status": "RECRUITING",
                    "city": "Seoul",
                    "zip": "06591",
                    "country": "Korea, Republic of",
                    "geoPoint": {
                        "lat": 37.566,
                        "lon": 126.9784
                    }
                },
                {
                    "facility": "Research Site",
                    "status": "RECRUITING",
                    "city": "Seoul",
                    "zip": "5505",
                    "country": "Korea, Republic of",
                    "geoPoint": {
                        "lat": 37.566,
                        "lon": 126.9784
                    }
                },
                {
                    "facility": "Research Site",
                    "status": "RECRUITING",
                    "city": "Wonju-si",
                    "zip": "26426",
                    "country": "Korea, Republic of"
                },
                {
                    "facility": "Research Site",
                    "status": "NOT_YET_RECRUITING",
                    "city": "Groningen",
                    "zip": "9713 GZ",
                    "country": "Netherlands",
                    "geoPoint": {
                        "lat": 53.21917,
                        "lon": 6.56667
                    }
                },
                {
                    "facility": "Research Site",
                    "status": "NOT_YET_RECRUITING",
                    "city": "Maastricht",
                    "zip": "6229",
                    "country": "Netherlands",
                    "geoPoint": {
                        "lat": 50.84833,
                        "lon": 5.68889
                    }
                },
                {
                    "facility": "Research Site",
                    "status": "NOT_YET_RECRUITING",
                    "city": "Rotterdam",
                    "zip": "3015 GD",
                    "country": "Netherlands",
                    "geoPoint": {
                        "lat": 51.9225,
                        "lon": 4.47917
                    }
                },
                {
                    "facility": "Research Site",
                    "status": "NOT_YET_RECRUITING",
                    "city": "Utrecht",
                    "zip": "3584",
                    "country": "Netherlands",
                    "geoPoint": {
                        "lat": 52.09083,
                        "lon": 5.12222
                    }
                },
                {
                    "facility": "Research Site",
                    "status": "WITHDRAWN",
                    "city": "Auckland",
                    "zip": "2025",
                    "country": "New Zealand",
                    "geoPoint": {
                        "lat": -36.84853,
                        "lon": 174.76349
                    }
                },
                {
                    "facility": "Research Site",
                    "status": "NOT_YET_RECRUITING",
                    "city": "L\u00f8renskog",
                    "zip": "N-1478",
                    "country": "Norway",
                    "geoPoint": {
                        "lat": 59.92625,
                        "lon": 10.95422
                    }
                },
                {
                    "facility": "Research Site",
                    "status": "NOT_YET_RECRUITING",
                    "city": "Oslo",
                    "zip": "0372",
                    "country": "Norway",
                    "geoPoint": {
                        "lat": 59.91273,
                        "lon": 10.74609
                    }
                },
                {
                    "facility": "Research Site",
                    "status": "NOT_YET_RECRUITING",
                    "city": "Trondheim",
                    "zip": "7030",
                    "country": "Norway",
                    "geoPoint": {
                        "lat": 63.43049,
                        "lon": 10.39506
                    }
                },
                {
                    "facility": "Research Site",
                    "status": "RECRUITING",
                    "city": "Gdansk",
                    "zip": "80-952",
                    "country": "Poland",
                    "geoPoint": {
                        "lat": 54.35205,
                        "lon": 18.64637
                    }
                },
                {
                    "facility": "Research Site",
                    "status": "NOT_YET_RECRUITING",
                    "city": "Krakow",
                    "zip": "31-202",
                    "country": "Poland",
                    "geoPoint": {
                        "lat": 50.06143,
                        "lon": 19.93658
                    }
                },
                {
                    "facility": "Research Site",
                    "status": "NOT_YET_RECRUITING",
                    "city": "Pozna\u0144",
                    "zip": "61-848",
                    "country": "Poland",
                    "geoPoint": {
                        "lat": 52.40692,
                        "lon": 16.92993
                    }
                },
                {
                    "facility": "Research Site",
                    "status": "NOT_YET_RECRUITING",
                    "city": "Warszawa",
                    "zip": "02-097",
                    "country": "Poland",
                    "geoPoint": {
                        "lat": 52.22977,
                        "lon": 21.01178
                    }
                },
                {
                    "facility": "Research Site",
                    "status": "NOT_YET_RECRUITING",
                    "city": "Warszawa",
                    "zip": "04-628",
                    "country": "Poland",
                    "geoPoint": {
                        "lat": 52.22977,
                        "lon": 21.01178
                    }
                },
                {
                    "facility": "Research Site",
                    "status": "RECRUITING",
                    "city": "Barcelona",
                    "zip": "8035",
                    "country": "Spain",
                    "geoPoint": {
                        "lat": 41.38879,
                        "lon": 2.15899
                    }
                },
                {
                    "facility": "Research Site",
                    "status": "RECRUITING",
                    "city": "El Palmar",
                    "zip": "30120",
                    "country": "Spain",
                    "geoPoint": {
                        "lat": 37.93939,
                        "lon": -1.16095
                    }
                },
                {
                    "facility": "Research Site",
                    "status": "RECRUITING",
                    "city": "Jaen",
                    "zip": "23007",
                    "country": "Spain",
                    "geoPoint": {
                        "lat": 37.76922,
                        "lon": -3.79028
                    }
                },
                {
                    "facility": "Research Site",
                    "status": "RECRUITING",
                    "city": "L'Hospitalet de Llobregat",
                    "zip": "08907",
                    "country": "Spain",
                    "geoPoint": {
                        "lat": 41.35967,
                        "lon": 2.10028
                    }
                },
                {
                    "facility": "Research Site",
                    "status": "RECRUITING",
                    "city": "La Coruna",
                    "zip": "15006",
                    "country": "Spain",
                    "geoPoint": {
                        "lat": 43.37135,
                        "lon": -8.396
                    }
                },
                {
                    "facility": "Research Site",
                    "status": "RECRUITING",
                    "city": "Madrid",
                    "zip": "28027",
                    "country": "Spain",
                    "geoPoint": {
                        "lat": 40.4165,
                        "lon": -3.70256
                    }
                },
                {
                    "facility": "Research Site",
                    "status": "RECRUITING",
                    "city": "Majadahonda",
                    "zip": "28222",
                    "country": "Spain",
                    "geoPoint": {
                        "lat": 40.47353,
                        "lon": -3.87182
                    }
                },
                {
                    "facility": "Research Site",
                    "status": "RECRUITING",
                    "city": "Malaga",
                    "zip": "29010",
                    "country": "Spain",
                    "geoPoint": {
                        "lat": 36.72016,
                        "lon": -4.42034
                    }
                },
                {
                    "facility": "Research Site",
                    "status": "RECRUITING",
                    "city": "Palma de Mallorca",
                    "zip": "07198",
                    "country": "Spain",
                    "geoPoint": {
                        "lat": 39.56939,
                        "lon": 2.65024
                    }
                },
                {
                    "facility": "Research Site",
                    "status": "RECRUITING",
                    "city": "Pamplona",
                    "zip": "31008",
                    "country": "Spain",
                    "geoPoint": {
                        "lat": 42.81687,
                        "lon": -1.64323
                    }
                },
                {
                    "facility": "Research Site",
                    "status": "RECRUITING",
                    "city": "Salamanca",
                    "zip": "37007",
                    "country": "Spain",
                    "geoPoint": {
                        "lat": 40.96882,
                        "lon": -5.66388
                    }
                },
                {
                    "facility": "Research Site",
                    "status": "RECRUITING",
                    "city": "Santiago De Compostela-Coru\u00f1a",
                    "zip": "15706",
                    "country": "Spain"
                },
                {
                    "facility": "Research Site",
                    "status": "RECRUITING",
                    "city": "Valencia",
                    "zip": "46010",
                    "country": "Spain",
                    "geoPoint": {
                        "lat": 39.46975,
                        "lon": -0.37739
                    }
                },
                {
                    "facility": "Research Site",
                    "status": "NOT_YET_RECRUITING",
                    "city": "G\u00f6teborg",
                    "zip": "413 45",
                    "country": "Sweden",
                    "geoPoint": {
                        "lat": 57.70716,
                        "lon": 11.96679
                    }
                },
                {
                    "facility": "Research Site",
                    "status": "NOT_YET_RECRUITING",
                    "city": "Lund",
                    "zip": "221 85",
                    "country": "Sweden",
                    "geoPoint": {
                        "lat": 55.70584,
                        "lon": 13.19321
                    }
                },
                {
                    "facility": "Research Site",
                    "status": "NOT_YET_RECRUITING",
                    "city": "Skellefte\u00e5",
                    "zip": "93186",
                    "country": "Sweden",
                    "geoPoint": {
                        "lat": 64.75067,
                        "lon": 20.95279
                    }
                },
                {
                    "facility": "Research Site",
                    "status": "NOT_YET_RECRUITING",
                    "city": "Stockholm",
                    "zip": "171 64",
                    "country": "Sweden",
                    "geoPoint": {
                        "lat": 59.33258,
                        "lon": 18.0649
                    }
                },
                {
                    "facility": "Research Site",
                    "status": "NOT_YET_RECRUITING",
                    "city": "Basel",
                    "zip": "4031",
                    "country": "Switzerland",
                    "geoPoint": {
                        "lat": 47.55839,
                        "lon": 7.57327
                    }
                },
                {
                    "facility": "Research Site",
                    "status": "NOT_YET_RECRUITING",
                    "city": "Bern",
                    "zip": "3010",
                    "country": "Switzerland",
                    "geoPoint": {
                        "lat": 46.94809,
                        "lon": 7.44744
                    }
                },
                {
                    "facility": "Research Site",
                    "status": "RECRUITING",
                    "city": "Luzern",
                    "zip": "6000",
                    "country": "Switzerland",
                    "geoPoint": {
                        "lat": 47.05048,
                        "lon": 8.30635
                    }
                },
                {
                    "facility": "Research Site",
                    "status": "NOT_YET_RECRUITING",
                    "city": "St.Gallen",
                    "zip": "9007",
                    "country": "Switzerland",
                    "geoPoint": {
                        "lat": 47.42391,
                        "lon": 9.37477
                    }
                },
                {
                    "facility": "Research Site",
                    "status": "NOT_YET_RECRUITING",
                    "city": "Zurich",
                    "zip": "8091",
                    "country": "Switzerland",
                    "geoPoint": {
                        "lat": 47.36667,
                        "lon": 8.54999
                    }
                },
                {
                    "facility": "Research Site",
                    "status": "RECRUITING",
                    "city": "New Taipei City",
                    "zip": "220",
                    "country": "Taiwan",
                    "geoPoint": {
                        "lat": 25.01111,
                        "lon": 121.44583
                    }
                },
                {
                    "facility": "Research Site",
                    "status": "RECRUITING",
                    "city": "Taichung",
                    "zip": "404",
                    "country": "Taiwan",
                    "geoPoint": {
                        "lat": 24.1469,
                        "lon": 120.6839
                    }
                },
                {
                    "facility": "Research Site",
                    "status": "RECRUITING",
                    "city": "Taichung",
                    "zip": "40705",
                    "country": "Taiwan",
                    "geoPoint": {
                        "lat": 24.1469,
                        "lon": 120.6839
                    }
                },
                {
                    "facility": "Research Site",
                    "status": "RECRUITING",
                    "city": "Taipei",
                    "zip": "10002",
                    "country": "Taiwan",
                    "geoPoint": {
                        "lat": 25.04776,
                        "lon": 121.53185
                    }
                },
                {
                    "facility": "Research Site",
                    "status": "RECRUITING",
                    "city": "Taipei",
                    "zip": "112201",
                    "country": "Taiwan",
                    "geoPoint": {
                        "lat": 25.04776,
                        "lon": 121.53185
                    }
                },
                {
                    "facility": "Research Site",
                    "status": "NOT_YET_RECRUITING",
                    "city": "Ankara",
                    "zip": "06230",
                    "country": "Turkey",
                    "geoPoint": {
                        "lat": 39.91987,
                        "lon": 32.85427
                    }
                },
                {
                    "facility": "Research Site",
                    "status": "NOT_YET_RECRUITING",
                    "city": "Dinar",
                    "zip": "03400",
                    "country": "Turkey",
                    "geoPoint": {
                        "lat": 38.065,
                        "lon": 30.16557
                    }
                },
                {
                    "facility": "Research Site",
                    "status": "NOT_YET_RECRUITING",
                    "city": "Eskisehir",
                    "zip": "26480",
                    "country": "Turkey",
                    "geoPoint": {
                        "lat": 39.77667,
                        "lon": 30.52056
                    }
                },
                {
                    "facility": "Research Site",
                    "status": "NOT_YET_RECRUITING",
                    "city": "Istanbul",
                    "zip": "34180",
                    "country": "Turkey",
                    "geoPoint": {
                        "lat": 41.01384,
                        "lon": 28.94966
                    }
                },
                {
                    "facility": "Research Site",
                    "status": "NOT_YET_RECRUITING",
                    "city": "Istanbul",
                    "zip": "34303",
                    "country": "Turkey",
                    "geoPoint": {
                        "lat": 41.01384,
                        "lon": 28.94966
                    }
                },