{
    "protocolSection": {
        "identificationModule": {
            "nctId": "NCT04464226",
            "orgStudyIdInfo": {
                "id": "20321"
            },
            "secondaryIdInfos": [
                {
                    "id": "2019-003618-15",
                    "type": "EUDRACT_NUMBER"
                }
            ],
            "organization": {
                "fullName": "Bayer",
                "class": "INDUSTRY"
            },
            "briefTitle": "Study to Continue Treatment With Darolutamide in Patients Who Have Been Participating in Previous Darolutamide Studies Supported by Bayer",
            "officialTitle": "An Open-label, Single Arm, Roll-over Study to Provide Continued Treatment With Darolutamide in Participants Who Were Enrolled in Previous Bayer Sponsored Studies",
            "therapeuticArea": [
                "Oncology and Hematology"
            ],
            "study": "study-to-continue-treatment-with-darolutamide-in-patients-who-have-been-participating-in-previous-darolutamide-studies-supported-by-bayer"
        },
        "statusModule": {
            "statusVerifiedDate": "2024-06",
            "overallStatus": "RECRUITING",
            "expandedAccessInfo": {
                "hasExpandedAccess": false
            },
            "startDateStruct": {
                "date": "2020-10-20",
                "type": "ACTUAL"
            },
            "primaryCompletionDateStruct": {
                "date": "2028-06-26",
                "type": "ESTIMATED"
            },
            "completionDateStruct": {
                "date": "2028-06-26",
                "type": "ESTIMATED"
            },
            "studyFirstSubmitDate": "2020-07-07",
            "studyFirstSubmitQcDate": "2020-07-07",
            "studyFirstPostDateStruct": {
                "date": "2020-07-09",
                "type": "ACTUAL"
            },
            "lastUpdateSubmitDate": "2024-07-02",
            "lastUpdatePostDateStruct": {
                "date": "2024-07-03",
                "type": "ACTUAL"
            }
        },
        "sponsorCollaboratorsModule": {
            "responsibleParty": {
                "type": "SPONSOR"
            },
            "leadSponsor": {
                "name": "Bayer",
                "class": "INDUSTRY"
            }
        },
        "oversightModule": {
            "oversightHasDmc": false,
            "isFdaRegulatedDrug": true,
            "isFdaRegulatedDevice": false,
            "isUsExport": false
        },
        "descriptionModule": {
            "briefSummary": "The aim of this study is to provide darolutamide treatment to patients who participated in a previous study with darolutamide supported by Bayer and the treating doctor considers that the continuation of the treatment with darolutamide to be beneficial. Patients will be carried over from the previous studies and continue in this study with darolutamide treatment on the same dosage. They will also return to the study centers for doctor's visits as often as they did in the previous study."
        },
        "conditionsModule": {
            "conditions": [
                "Cancer"
            ],
            "keywords": [
                "Roll-Over Study"
            ]
        },
        "designModule": {
            "studyType": "INTERVENTIONAL",
            "phases": [
                "PHASE3"
            ],
            "designInfo": {
                "allocation": "NA",
                "interventionModel": "SINGLE_GROUP",
                "primaryPurpose": "OTHER",
                "maskingInfo": {
                    "masking": "NONE"
                }
            },
            "enrollmentInfo": {
                "count": 678,
                "type": "ESTIMATED"
            }
        },
        "armsInterventionsModule": {
            "armGroups": [
                {
                    "label": "Darolutamide (BAY1841788)",
                    "type": "EXPERIMENTAL",
                    "description": "Participants enrolled in the current study will use the dose they were assigned to in the feeder study they come from.",
                    "interventionNames": [
                        "Drug: Darolutamide (Nubeqa, BAY1841788)"
                    ]
                }
            ],
            "interventions": [
                {
                    "type": "DRUG",
                    "name": "Darolutamide (Nubeqa, BAY1841788)",
                    "description": "Participants will continue receiving darolutamide treatment at the dose level and schedule of administration previously assigned in the feeder study.",
                    "armGroupLabels": [
                        "Darolutamide (BAY1841788)"
                    ],
                    "otherNames": [
                        "ODM-201"
                    ]
                }
            ]
        },
        "outcomesModule": {
            "primaryOutcomes": [
                {
                    "measure": "Incidence of treatment-emergent adverse events (TEAEs)",
                    "timeFrame": "Up to 4 years"
                },
                {
                    "measure": "Incidence of treatment-emergent serious adverse events (TESAEs)",
                    "timeFrame": "Up to 4 years"
                },
                {
                    "measure": "Incidence of drug-related TEAEs",
                    "timeFrame": "Up to 4 years"
                },
                {
                    "measure": "Incidence of drug-related TESAEs",
                    "timeFrame": "Up to 4 years"
                }
            ],
            "secondaryOutcomes": [
                {
                    "measure": "Number of dose modifications",
                    "timeFrame": "Up to 4 years"
                }
            ]
        },
        "eligibilityModule": {
            "eligibilityCriteria": "Inclusion Criteria:\n\n* Capable of giving signed informed consent which includes compliance with the requirements and restrictions listed in the informed consent form (ICF) and in this protocol.\n* Participants enrolled in any Bayer-sponsored darolutamide feeder study at the time of study closure or primary completion, who are currently receiving darolutamide and are experiencing clinical benefit from treatment.\n* Participants who have not met any treatment discontinuation criteria in the feeder study protocol.\n* Willingness to continue practicing acceptable methods of birth control during the study.\n\nExclusion Criteria:\n\n* Participant is unable to comply with the requirements of the study.\n* Negative benefit/ risk ratio as determined by the investigator.\n* Meet any criteria for treatment discontinuation of the feeder study the participant is coming from.",
            "healthyVolunteers": false,
            "sex": "MALE",
            "minimumAge": "18 Years",
            "stdAges": [
                "ADULT",
                "OLDER_ADULT"
            ]
        },
        "contactsLocationsModule": {
            "centralContacts": [
                {
                    "name": "Bayer Clinical Trials Contact",
                    "role": "CONTACT",
                    "phone": "(+)1-888-84 22937",
                    "email": "clinical-trials-contact@bayer.com"
                }
            ],
            "locations": [
                {
                    "facility": "Urology Centers of Alabama, PC",
                    "status": "COMPLETED",
                    "city": "Homewood",
                    "state": "Alabama",
                    "zip": "35209",
                    "country": "United States",
                    "geoPoint": {
                        "lat": 33.47177,
                        "lon": -86.80082
                    }
                },
                {
                    "facility": "Ironwood Physicians P.C. DBA Ironwood Cancer & Res. Ctr.",
                    "status": "COMPLETED",
                    "city": "Chandler",
                    "state": "Arizona",
                    "zip": "85224",
                    "country": "United States",
                    "geoPoint": {
                        "lat": 33.30616,
                        "lon": -111.84125
                    }
                },
                {
                    "facility": "City of Hope National Medical Center",
                    "status": "WITHDRAWN",
                    "city": "Duarte",
                    "state": "California",
                    "zip": "91010",
                    "country": "United States",
                    "geoPoint": {
                        "lat": 34.13945,
                        "lon": -117.97729
                    }
                },
                {
                    "facility": "San Diego Clinical Trials",
                    "status": "COMPLETED",
                    "city": "La Mesa",
                    "state": "California",
                    "zip": "91942",
                    "country": "United States",
                    "geoPoint": {
                        "lat": 32.76783,
                        "lon": -117.02308
                    }
                },
                {
                    "facility": "Tower Urology, Inc",
                    "status": "ACTIVE_NOT_RECRUITING",
                    "city": "Los Angeles",
                    "state": "California",
                    "zip": "90048",
                    "country": "United States",
                    "geoPoint": {
                        "lat": 34.05223,
                        "lon": -118.24368
                    }
                },
                {
                    "facility": "VA Greater Los Angeles Healthcare System",
                    "status": "WITHDRAWN",
                    "city": "Los Angeles",
                    "state": "California",
                    "zip": "90073-1003",
                    "country": "United States",
                    "geoPoint": {
                        "lat": 34.05223,
                        "lon": -118.24368
                    }
                },
                {
                    "facility": "Stanford Health Care",
                    "status": "COMPLETED",
                    "city": "Stanford",
                    "state": "California",
                    "zip": "94305",
                    "country": "United States",
                    "geoPoint": {
                        "lat": 37.42411,
                        "lon": -122.16608
                    }
                },
                {
                    "facility": "TOI Clinical Research",
                    "status": "COMPLETED",
                    "city": "Whittier",
                    "state": "California",
                    "zip": "90603",
                    "country": "United States",
                    "geoPoint": {
                        "lat": 33.97918,
                        "lon": -118.03284
                    }
                },
                {
                    "facility": "VA Eastern Colorado Health Care System",
                    "status": "COMPLETED",
                    "city": "Aurora",
                    "state": "Colorado",
                    "zip": "80045",
                    "country": "United States",
                    "geoPoint": {
                        "lat": 39.72943,
                        "lon": -104.83192
                    }
                },
                {
                    "facility": "The Urology Center Of Colorado",
                    "status": "COMPLETED",
                    "city": "Denver",
                    "state": "Colorado",
                    "zip": "80211",
                    "country": "United States",
                    "geoPoint": {
                        "lat": 39.73915,
                        "lon": -104.9847
                    }
                },
                {
                    "facility": "Boca Raton Regional Hospital",
                    "status": "COMPLETED",
                    "city": "Boca Raton",
                    "state": "Florida",
                    "zip": "33486",
                    "country": "United States",
                    "geoPoint": {
                        "lat": 26.3669,
                        "lon": -80.13033
                    }
                },
                {
                    "facility": "Advent Health Medical Group Urology",
                    "status": "WITHDRAWN",
                    "city": "Orlando",
                    "state": "Florida",
                    "zip": "32803",
                    "country": "United States",
                    "geoPoint": {
                        "lat": 28.53834,
                        "lon": -81.37924
                    }
                },
                {
                    "facility": "Jesse Brown VA Medical Center",
                    "status": "COMPLETED",
                    "city": "Chicago",
                    "state": "Illinois",
                    "zip": "60612",
                    "country": "United States",
                    "geoPoint": {
                        "lat": 41.85003,
                        "lon": -87.65005
                    }
                },
                {
                    "facility": "Illinois CancerCare, PC",
                    "status": "COMPLETED",
                    "city": "Peoria",
                    "state": "Illinois",
                    "zip": "61615-7828",
                    "country": "United States",
                    "geoPoint": {
                        "lat": 40.69365,
                        "lon": -89.58899
                    }
                },
                {
                    "facility": "First Urology PSC",
                    "status": "WITHDRAWN",
                    "city": "Jeffersonville",
                    "state": "Indiana",
                    "zip": "47130",
                    "country": "United States",
                    "geoPoint": {
                        "lat": 38.27757,
                        "lon": -85.73718
                    }
                },
                {
                    "facility": "Norton Healthcare Pavilion",
                    "status": "COMPLETED",
                    "city": "Louisville",
                    "state": "Kentucky",
                    "zip": "40202",
                    "country": "United States",
                    "geoPoint": {
                        "lat": 38.25424,
                        "lon": -85.75941
                    }
                },
                {
                    "facility": "Anne Arundel Health System",
                    "status": "WITHDRAWN",
                    "city": "Annapolis",
                    "state": "Maryland",
                    "zip": "21401",
                    "country": "United States",
                    "geoPoint": {
                        "lat": 38.97845,
                        "lon": -76.49218
                    }
                },
                {
                    "facility": "Chesapeake Urology Associates",
                    "status": "ACTIVE_NOT_RECRUITING",
                    "city": "Baltimore",
                    "state": "Maryland",
                    "zip": "21204",
                    "country": "United States",
                    "geoPoint": {
                        "lat": 39.29038,
                        "lon": -76.61219
                    }
                },
                {
                    "facility": "Johns Hopkins Hospital/Health System",
                    "status": "COMPLETED",
                    "city": "Baltimore",
                    "state": "Maryland",
                    "zip": "21287",
                    "country": "United States",
                    "geoPoint": {
                        "lat": 39.29038,
                        "lon": -76.61219
                    }
                },
                {
                    "facility": "TidalHealth Peninsula Regional, Inc.",
                    "status": "COMPLETED",
                    "city": "Salisbury",
                    "state": "Maryland",
                    "zip": "21801",
                    "country": "United States",
                    "geoPoint": {
                        "lat": 38.36067,
                        "lon": -75.59937
                    }
                },
                {
                    "facility": "Massachusetts General Hospital",
                    "status": "WITHDRAWN",
                    "city": "Boston",
                    "state": "Massachusetts",
                    "zip": "02114-2696",
                    "country": "United States",
                    "geoPoint": {
                        "lat": 42.35843,
                        "lon": -71.05977
                    }
                },
                {
                    "facility": "Henry Ford Health System",
                    "status": "COMPLETED",
                    "city": "Detroit",
                    "state": "Michigan",
                    "zip": "48202-2608",
                    "country": "United States",
                    "geoPoint": {
                        "lat": 42.33143,
                        "lon": -83.04575
                    }
                },
                {
                    "facility": "St. Vincent Hospital & Healthcare",
                    "status": "COMPLETED",
                    "city": "Billings",
                    "state": "Montana",
                    "zip": "59102",
                    "country": "United States",
                    "geoPoint": {
                        "lat": 45.78329,
                        "lon": -108.50069
                    }
                },
                {
                    "facility": "Urology Cancer Center, PC",
                    "status": "WITHDRAWN",
                    "city": "Omaha",
                    "state": "Nebraska",
                    "zip": "68130-5606",
                    "country": "United States",
                    "geoPoint": {
                        "lat": 41.25626,
                        "lon": -95.94043
                    }
                },
                {
                    "facility": "GU Research Network, LLC",
                    "status": "COMPLETED",
                    "city": "Omaha",
                    "state": "Nebraska",
                    "zip": "68130",
                    "country": "United States",
                    "geoPoint": {
                        "lat": 41.25626,
                        "lon": -95.94043
                    }
                },
                {
                    "facility": "New Jersey Urology, LLC",
                    "status": "COMPLETED",
                    "city": "Voorhees",
                    "state": "New Jersey",
                    "zip": "08043",
                    "country": "United States",
                    "geoPoint": {
                        "lat": 40.48122,
                        "lon": -74.48321
                    }
                },
                {
                    "facility": "New Mexico Oncology Hematology Consultants, Ltd.",
                    "status": "COMPLETED",
                    "city": "Albuquerque",
                    "state": "New Mexico",
                    "zip": "87109",
                    "country": "United States",
                    "geoPoint": {
                        "lat": 35.08449,
                        "lon": -106.65114
                    }
                },
                {
                    "facility": "Montefiore Medical Center",
                    "status": "ACTIVE_NOT_RECRUITING",
                    "city": "Bronx",
                    "state": "New York",
                    "zip": "10461",
                    "country": "United States",
                    "geoPoint": {
                        "lat": 40.84985,
                        "lon": -73.86641
                    }
                },
                {
                    "facility": "New York Cancer & Blood Specialists",
                    "status": "COMPLETED",
                    "city": "Bronx",
                    "state": "New York",
                    "zip": "10469",
                    "country": "United States",
                    "geoPoint": {
                        "lat": 40.84985,
                        "lon": -73.86641
                    }
                },
                {
                    "facility": "University of Rochester Medical Center",
                    "status": "COMPLETED",
                    "city": "Rochester",
                    "state": "New York",
                    "zip": "14642",
                    "country": "United States",
                    "geoPoint": {
                        "lat": 43.15478,
                        "lon": -77.61556
                    }
                },
                {
                    "facility": "Associated Medical Professionals of NY, PLLC",
                    "status": "WITHDRAWN",
                    "city": "Syracuse",
                    "state": "New York",
                    "zip": "13210",
                    "country": "United States",
                    "geoPoint": {
                        "lat": 43.04812,
                        "lon": -76.14742
                    }
                },
                {
                    "facility": "Gabrail Cancer Center",
                    "status": "COMPLETED",
                    "city": "Canton",
                    "state": "Ohio",
                    "zip": "44718",
                    "country": "United States",
                    "geoPoint": {
                        "lat": 40.79895,
                        "lon": -81.37845
                    }
                },
                {
                    "facility": "The Urology Group",
                    "status": "ACTIVE_NOT_RECRUITING",
                    "city": "Cincinnati",
                    "state": "Ohio",
                    "zip": "45212-1979",
                    "country": "United States",
                    "geoPoint": {
                        "lat": 39.12713,
                        "lon": -84.51435
                    }
                },
                {
                    "facility": "Ohio State University",
                    "status": "COMPLETED",
                    "city": "Columbus",
                    "state": "Ohio",
                    "zip": "43210",
                    "country": "United States",
                    "geoPoint": {
                        "lat": 39.96118,
                        "lon": -82.99879
                    }
                },
                {
                    "facility": "Centers for Advanced Urology, LLC",
                    "status": "COMPLETED",
                    "city": "Bala-Cynwyd",
                    "state": "Pennsylvania",
                    "zip": "19004",
                    "country": "United States",
                    "geoPoint": {
                        "lat": 40.00761,
                        "lon": -75.23407
                    }
                },
                {
                    "facility": "Andrews & Patel Associates",
                    "status": "COMPLETED",
                    "city": "Camp Hill",
                    "state": "Pennsylvania",
                    "zip": "17011",
                    "country": "United States",
                    "geoPoint": {
                        "lat": 40.23981,
                        "lon": -76.91997
                    }
                },
                {
                    "facility": "Charleston Oncology",
                    "status": "COMPLETED",
                    "city": "Charleston",
                    "state": "South Carolina",
                    "zip": "29403",
                    "country": "United States",
                    "geoPoint": {
                        "lat": 32.77657,
                        "lon": -79.93092
                    }
                },
                {
                    "facility": "Bon Secours St. Francis Hospital",
                    "status": "WITHDRAWN",
                    "city": "Greenville",
                    "state": "South Carolina",
                    "zip": "29607",
                    "country": "United States",
                    "geoPoint": {
                        "lat": 34.85262,
                        "lon": -82.39401
                    }
                },
                {
                    "facility": "Carolina Urological Research Center",
                    "status": "COMPLETED",
                    "city": "Myrtle Beach",
                    "state": "South Carolina",
                    "zip": "29579",
                    "country": "United States",
                    "geoPoint": {
                        "lat": 33.68906,
                        "lon": -78.88669
                    }
                },
                {
                    "facility": "Urology Associates, PC",
                    "status": "COMPLETED",
                    "city": "Nashville",
                    "state": "Tennessee",
                    "zip": "37209",
                    "country": "United States",
                    "geoPoint": {
                        "lat": 36.16589,
                        "lon": -86.78444
                    }
                },
                {
                    "facility": "Urology Clinics of North Texas",
                    "status": "ACTIVE_NOT_RECRUITING",
                    "city": "Dallas",
                    "state": "Texas",
                    "zip": "75231",
                    "country": "United States",
                    "geoPoint": {
                        "lat": 32.78306,
                        "lon": -96.80667
                    }
                },
                {
                    "facility": "Huntsman Cancer Institute",
                    "status": "COMPLETED",
                    "city": "Salt Lake City",
                    "state": "Utah",
                    "zip": "84112",
                    "country": "United States",
                    "geoPoint": {
                        "lat": 40.76078,
                        "lon": -111.89105
                    }
                },
                {
                    "facility": "Inova Fairfax Hospital - Falls Church",
                    "status": "COMPLETED",
                    "city": "Falls Church",
                    "state": "Virginia",
                    "zip": "22031",
                    "country": "United States",
                    "geoPoint": {
                        "lat": 38.88233,
                        "lon": -77.17109
                    }
                },
                {
                    "facility": "Virginia Commonwealth University",
                    "status": "COMPLETED",
                    "city": "Richmond",
                    "state": "Virginia",
                    "zip": "23298-5054",
                    "country": "United States",
                    "geoPoint": {
                        "lat": 37.55376,
                        "lon": -77.46026
                    }
                },
                {
                    "facility": "Providence Regional Cancer Partnership",
                    "status": "COMPLETED",
                    "city": "Everett",
                    "state": "Washington",
                    "zip": "98201",
                    "country": "United States",
                    "geoPoint": {
                        "lat": 47.97898,
                        "lon": -122.20208
                    }
                },
                {
                    "facility": "Centro de Urolog\u00eda",
                    "status": "COMPLETED",
                    "city": "Buenos Aires",
                    "state": "Ciudad Auton. De Buenos Aires",
                    "zip": "C1120AAT",
                    "country": "Argentina",
                    "geoPoint": {
                        "lat": -34.61315,
                        "lon": -58.37723
                    }
                },
                {
                    "facility": "Adelaide Cancer Centre Research Pty Ltd",
                    "status": "COMPLETED",
                    "city": "Kurralta Park",
                    "state": "South Australia",
                    "zip": "5037",
                    "country": "Australia",
                    "geoPoint": {
                        "lat": -34.95142,
                        "lon": 138.56702
                    }
                },
                {
                    "facility": "Universit\u00e4tsklinikum AKH Wien",
                    "status": "COMPLETED",
                    "city": "Wien",
                    "zip": "1090",
                    "country": "Austria",
                    "geoPoint": {
                        "lat": 48.20849,
                        "lon": 16.37208
                    }
                },
                {
                    "facility": "N.N. Alexandrov National Cancer Centre of Belarus - Oncology Department",
                    "status": "ACTIVE_NOT_RECRUITING",
                    "city": "Lesnoy",
                    "zip": "223040",
                    "country": "Belarus",
                    "geoPoint": {
                        "lat": 51.8625,
                        "lon": 26.7547
                    }
                },
                {
                    "facility": "Minsk City Clinical Oncological Dispensary - Oncology Department",
                    "status": "COMPLETED",
                    "city": "Minsk",
                    "zip": "220013",
                    "country": "Belarus",
                    "geoPoint": {
                        "lat": 53.9,
                        "lon": 27.56667
                    }
                },
                {
                    "facility": "GZA Ziekenhuizen",
                    "status": "COMPLETED",
                    "city": "Wilrijk",
                    "state": "Antwerpen",
                    "zip": "2610",
                    "country": "Belgium",
                    "geoPoint": {
                        "lat": 51.16734,
                        "lon": 4.39513
                    }
                },
                {
                    "facility": "CU Saint-Luc/UZ St-Luc",
                    "status": "WITHDRAWN",
                    "city": "Bruxelles - Brussel",
                    "zip": "1200",
                    "country": "Belgium",
                    "geoPoint": {
                        "lat": 50.85045,
                        "lon": 4.34878
                    }
                },
                {
                    "facility": "UZ Gent",
                    "status": "WITHDRAWN",
                    "city": "Gent",
                    "zip": "9000",
                    "country": "Belgium",
                    "geoPoint": {
                        "lat": 51.05,
                        "lon": 3.71667
                    }
                },
                {
                    "facility": "AZ Groeninge Campus Kennedylaan",
                    "status": "COMPLETED",
                    "city": "Kortrijk",
                    "zip": "8500",
                    "country": "Belgium",
                    "geoPoint": {
                        "lat": 50.82803,
                        "lon": 3.26487
                    }
                },
                {
                    "facility": "CHU de Li\u00e8ge",
                    "status": "COMPLETED",
                    "city": "Liege",
                    "zip": "4000",
                    "country": "Belgium",
                    "geoPoint": {
                        "lat": 50.63373,
                        "lon": 5.56749
                    }
                },
                {
                    "facility": "CHU UCL Namur",
                    "status": "WITHDRAWN",
                    "city": "Namur",
                    "zip": "5000",
                    "country": "Belgium",
                    "geoPoint": {
                        "lat": 50.4669,
                        "lon": 4.86746
                    }
                },
                {
                    "facility": "Santa Casa de Miseric\u00f3rdia da Bahia",
                    "status": "RECRUITING",
                    "city": "Salvador",
                    "state": "Bahia",
                    "zip": "40050-410",
                    "country": "Brazil",
                    "geoPoint": {
                        "lat": -12.97111,
                        "lon": -38.51083
                    }
                },
                {
                    "facility": "Hospital S\u00e3o Rafael",
                    "status": "RECRUITING",
                    "city": "Salvador",
                    "state": "Bahia",
                    "zip": "41253-190",
                    "country": "Brazil",
                    "geoPoint": {
                        "lat": -12.97111,
                        "lon": -38.51083
                    }
                },
                {
                    "facility": "Instituto do Cancer do Cear\u00e1",
                    "status": "RECRUITING",
                    "city": "Fortaleza",
                    "state": "Cear\u00e1",
                    "zip": "60441-700",
                    "country": "Brazil",
                    "geoPoint": {
                        "lat": -3.71722,
                        "lon": -38.54306
                    }
                },
                {
                    "facility": "Hospital Evang\u00e9lico de Cachoeiro de Itapemirim",
                    "status": "RECRUITING",
                    "city": "Cachoeiro de Itapemirim",
                    "state": "Esp\u00edrito Santo",
                    "zip": "29308-020",
                    "country": "Brazil",
                    "geoPoint": {
                        "lat": -20.84889,
                        "lon": -41.11278
                    }
                },
                {
                    "facility": "Hosp. Araujo Jorge da Associa\u00e7\u00e3o de Combate ao C\u00e2ncer",
                    "status": "RECRUITING",
                    "city": "Goi\u00e2nia",
                    "state": "Goi\u00e1s",
                    "zip": "74605-070",
                    "country": "Brazil",
                    "geoPoint": {
                        "lat": -16.67861,
                        "lon": -49.25389
                    }
                },
                {
                    "facility": "COT Centro Oncologico do Triangulo Ltda",
                    "status": "RECRUITING",
                    "city": "Uberlandia",
                    "state": "Minas Gerais",
                    "zip": "38408-150",
                    "country": "Brazil",
                    "geoPoint": {
                        "lat": -18.91861,
                        "lon": -48.27722
                    }
                },
                {
                    "facility": "Liga Paranaense de Combate ao Cancer-Hosp Erasto Gaertner",
                    "status": "RECRUITING",
                    "city": "Curitiba",
                    "state": "Parana",
                    "zip": "81520-060",
                    "country": "Brazil",
                    "geoPoint": {
                        "lat": -25.42778,
                        "lon": -49.27306
                    }
                },
                {
                    "facility": "Liga Norte Riograndense Contra o Cancer | Centro de Pesquisa Cl\u00ednica",
                    "status": "RECRUITING",
                    "city": "Natal",
                    "state": "Rio Grande Do Norte",
                    "zip": "59040-000",
                    "country": "Brazil",
                    "geoPoint": {
                        "lat": -5.795,
                        "lon": -35.20944
                    }
                },
                {
                    "facility": "Associa\u00e7\u00e3o Hospitalar Beneficente S\u00e3o Vicente de Paulo",
                    "status": "RECRUITING",
                    "city": "Passo Fundo",
                    "state": "Rio Grande Do Sul",
                    "zip": "99010-080",
                    "country": "Brazil",
                    "geoPoint": {
                        "lat": -28.26278,
                        "lon": -52.40667
                    }
                },
                {
                    "facility": "Irmandade Santa Casa de Misericordia de Porto Alegre | Oncology",
                    "status": "RECRUITING",
                    "city": "Porto Alegre - RS",
                    "state": "Rio Grande Do Sul",
                    "zip": "90020-090",
                    "country": "Brazil"
                },
                {
                    "facility": "Uni\u00e3o Bras. de Edu. e Assist. Hospital S\u00e3o Lucas da PUCRS",
                    "status": "RECRUITING",
                    "city": "Porto Alegre",
                    "state": "Rio Grande Do Sul",
                    "zip": "90619900",
                    "country": "Brazil",
                    "geoPoint": {
                        "lat": -30.03306,
                        "lon": -51.23
                    }
                },
                {
                    "facility": "Cl\u00ednica de Neoplasias Litoral Ltda",
                    "status": "RECRUITING",
                    "city": "Itaja\u00ed",
                    "state": "Santa Catarina",
                    "zip": "88301-220",
                    "country": "Brazil",
                    "geoPoint": {
                        "lat": -26.90778,
                        "lon": -48.66194
                    }
                },
                {
                    "facility": "Fundacao Pio XII Hospital de Cancer de Barretos",
                    "status": "RECRUITING",
                    "city": "Barretos/SP",
                    "state": "Sao Paulo",
                    "zip": "14784-400",
                    "country": "Brazil"
                },
                {
                    "facility": "Hospital Amaral Carvalho",
                    "status": "RECRUITING",
                    "city": "Ja\u00fa",
                    "state": "Sao Paulo",
                    "zip": "17210-120",
                    "country": "Brazil",
                    "geoPoint": {
                        "lat": -22.29639,
                        "lon": -48.55778
                    }
                },
                {
                    "facility": "Hosp Cl\u00ednicas Facult. Med. de Ribeir\u00e3o Preto / USP",
                    "status": "RECRUITING",
                    "city": "Ribeir\u00e3o Preto/SP",
                    "state": "Sao Paulo",
                    "zip": "14051-140",
                    "country": "Brazil"
                },
                {
                    "facility": "IEP S\u00e3o Lucas",
                    "status": "WITHDRAWN",
                    "city": "S\u00e3o Paulo",
                    "state": "Sao Paulo",
                    "zip": "01234-030",
                    "country": "Brazil",
                    "geoPoint": {
                        "lat": -23.5475,
                        "lon": -46.63611
                    }
                },
                {
                    "facility": "Instituto do Cancer do Estado de Sao Paulo",
                    "status": "RECRUITING",
                    "city": "S\u00e3o Paulo",
                    "state": "Sao Paulo",
                    "zip": "01246-000",
                    "country": "Brazil",
                    "geoPoint": {
                        "lat": -23.5475,
                        "lon": -46.63611
                    }
                },
                {
                    "facility": "IBCC - Instituto Brasileiro de Controle do Cancer",
                    "status": "RECRUITING",
                    "city": "S\u00e3o Paulo",
                    "state": "Sao Paulo",
                    "zip": "03102-002",
                    "country": "Brazil",
                    "geoPoint": {
                        "lat": -23.5475,
                        "lon": -46.63611
                    }
                },
                {
                    "facility": "Inst. de Assist\u00eancia M\u00e9dica ao S\u00e9rvidor P\u00fablico Estadual",
                    "status": "WITHDRAWN",
                    "city": "S\u00e3o Paulo",
                    "state": "Sao Paulo",
                    "zip": "04039-004",
                    "country": "Brazil",
                    "geoPoint": {
                        "lat": -23.5475,
                        "lon": -46.63611
                    }
                },
                {
                    "facility": "Medical Center Kalimat",
                    "status": "COMPLETED",
                    "city": "Sofia",
                    "zip": "1680",
                    "country": "Bulgaria",
                    "geoPoint": {
                        "lat": 42.69751,
                        "lon": 23.32415
                    }
                },
                {
                    "facility": "Complex Oncology Center - Vratsa",
                    "status": "ACTIVE_NOT_RECRUITING",
                    "city": "Vratsa",
                    "zip": "3000",
                    "country": "Bulgaria",
                    "geoPoint": {
                        "lat": 43.21,
                        "lon": 23.5625
                    }
                },
                {
                    "facility": "Prostate Cancer Centre",
                    "status": "COMPLETED",
                    "city": "Calgary",
                    "state": "Alberta",
                    "zip": "T2V 1P9",
                    "country": "Canada",
                    "geoPoint": {
                        "lat": 51.05011,
                        "lon": -114.08529
                    }
                },
                {
                    "facility": "Cross Cancer Institute",
                    "status": "ACTIVE_NOT_RECRUITING",
                    "city": "Edmonton",
                    "state": "Alberta",
                    "zip": "T6G 1Z2",
                    "country": "Canada",
                    "geoPoint": {
                        "lat": 53.55014,
                        "lon": -113.46871
                    }
                },
                {
                    "facility": "Nova Scotia Health Authority",
                    "status": "COMPLETED",
                    "city": "Halifax",
                    "state": "Nova Scotia",
                    "zip": "B3H 3G1",
                    "country": "Canada",
                    "geoPoint": {
                        "lat": 44.64533,
                        "lon": -63.57239
                    }
                },
                {
                    "facility": "G. Kenneth Jansz Medicine Professional Corporation",
                    "status": "COMPLETED",
                    "city": "Burlington",
                    "state": "Ontario",
                    "zip": "L7N 3V2",
                    "country": "Canada",
                    "geoPoint": {
                        "lat": 43.38621,
                        "lon": -79.83713
                    }
                },
                {
                    "facility": "Kingston Health Sciences Centre",
                    "status": "WITHDRAWN",
                    "city": "Kingston",
                    "state": "Ontario",
                    "zip": "K7L 3J7",
                    "country": "Canada",
                    "geoPoint": {
                        "lat": 44.22976,
                        "lon": -76.48101
                    }
                },
                {
                    "facility": "London Health Sciences Centre",
                    "status": "COMPLETED",
                    "city": "London",
                    "state": "Ontario",
                    "zip": "N0P 2C0",
                    "country": "Canada",
                    "geoPoint": {
                        "lat": 42.98339,
                        "lon": -81.23304
                    }
                },
                {
                    "facility": "Sunnybrook Health Sciences Centre",
                    "status": "ACTIVE_NOT_RECRUITING",
                    "city": "Toronto",
                    "state": "Ontario",
                    "zip": "M4N 3M5",
                    "country": "Canada",
                    "geoPoint": {
                        "lat": 43.70011,
                        "lon": -79.4163
                    }
                },
                {
                    "facility": "Princess Margaret Hospital-University Health Network",
                    "status": "ACTIVE_NOT_RECRUITING",
                    "city": "Toronto",
                    "state": "Ontario",
                    "zip": "M5G 2M9",
                    "country": "Canada",
                    "geoPoint": {
                        "lat": 43.70011,
                        "lon": -79.4163
                    }
                },
                {
                    "facility": "CIUSSS de l'Estrie- Centre Haute-Yamaska",
                    "status": "COMPLETED",
                    "city": "Granby",
                    "state": "Quebec",
                    "zip": "J2G 1T7",
                    "country": "Canada",
                    "geoPoint": {
                        "lat": 45.40008,
                        "lon": -72.73243
                    }
                },
                {
                    "facility": "Centre Hospitalier de l'Universite de Montreal (CHUM) - Hopi",
                    "status": "ACTIVE_NOT_RECRUITING",
                    "city": "Montreal",
                    "state": "Quebec",
                    "zip": "H2X 3E4",
                    "country": "Canada",
                    "geoPoint": {
                        "lat": 45.50884,
                        "lon": -73.58781
                    }
                },
                {
                    "facility": "Anhui Provincial Hospital",
                    "status": "RECRUITING",
                    "city": "Hefei City, Anhui Province",
                    "state": "Anhui",
                    "zip": "230031",
                    "country": "China"
                },
                {
                    "facility": "The First Affiliated Hospital of Xiamen University",
                    "status": "RECRUITING",
                    "city": "Xiamen",
                    "state": "Fujian",
                    "zip": "361003",
                    "country": "China",
                    "geoPoint": {
                        "lat": 24.47979,
                        "lon": 118.08187
                    }
                },
                {
                    "facility": "Tongji Hosp. of Tongji Med Coll, Huazhong Uni of Sci & Tech.",
                    "status": "RECRUITING",
                    "city": "Wuhan",
                    "state": "Hubei",
                    "zip": "430030",
                    "country": "China",
                    "geoPoint": {
                        "lat": 30.58333,
                        "lon": 114.26667
                    }
                },
                {
                    "facility": "Hubei Cancer Hospital",
                    "status": "RECRUITING",
                    "city": "Wuhan",
                    "state": "Hubei",
                    "zip": "430079",
                    "country": "China",
                    "geoPoint": {
                        "lat": 30.58333,
                        "lon": 114.26667
                    }
                },
                {
                    "facility": "Hunan Cancer Hospital",
                    "status": "RECRUITING",
                    "city": "Changsha",
                    "state": "Hunan",
                    "zip": "410013",
                    "country": "China",
                    "geoPoint": {
                        "lat": 28.19874,
                        "lon": 112.97087
                    }
                },
                {
                    "facility": "Jiangsu Cancer Hospital",
                    "status": "RECRUITING",
                    "city": "Nanjing",
                    "state": "Jiangsu",
                    "zip": "210000",
                    "country": "China",
                    "geoPoint": {
                        "lat": 32.06167,
                        "lon": 118.77778
                    }
                },
                {
                    "facility": "Liaoning Cancer Hospital and Institute",
                    "status": "RECRUITING",
                    "city": "Shengyang",
                    "state": "Liaoning",
                    "zip": "110042",
                    "country": "China"
                },
                {
                    "facility": "The First Affiliated Hospital of Xi'an Jiaotong University",
                    "status": "RECRUITING",
                    "city": "Xi'an",
                    "state": "Shaanxi",
                    "zip": "710061",
                    "country": "China",
                    "geoPoint": {
                        "lat": 34.25833,
                        "lon": 108.92861
                    }
                },
                {
                    "facility": "Qilu Hosp., Shandong Univ.",
                    "status": "RECRUITING",
                    "city": "Jinan",
                    "state": "Shandong",
                    "zip": "250012",
                    "country": "China",
                    "geoPoint": {
                        "lat": 36.66833,
                        "lon": 116.99722
                    }
                },
                {
                    "facility": "ZheJiang Provincial People's Hospital",
                    "status": "RECRUITING",
                    "city": "Hangzhou",
                    "state": "Zhejiang",
                    "zip": "310014",
                    "country": "China",
                    "geoPoint": {
                        "lat": 30.29365,
                        "lon": 120.16142
                    }
                },
                {
                    "facility": "The First Affiliated Hospital of Wenzhou Medical University",
                    "status": "RECRUITING",
                    "city": "Wenzhou",
                    "state": "Zhejiang",
                    "zip": "325000",
                    "country": "China",
                    "geoPoint": {
                        "lat": 27.99942,
                        "lon": 120.66682
                    }
                },
                {
                    "facility": "Beijing Cancer Hospital",
                    "status": "RECRUITING",
                    "city": "Beijing",
                    "zip": "100142",
                    "country": "China",
                    "geoPoint": {
                        "lat": 39.9075,
                        "lon": 116.39723
                    }
                },
                {
                    "facility": "Beijing Cancer Hospital",
                    "status": "ACTIVE_NOT_RECRUITING",
                    "city": "Beijing",
                    "zip": "100142",
                    "country": "China",
                    "geoPoint": {
                        "lat": 39.9075,
                        "lon": 116.39723
                    }
                },
                {
                    "facility": "Beijing Hospital",
                    "status": "RECRUITING",
                    "city": "Beijing",
                    "zip": "100730",
                    "country": "China",
                    "geoPoint": {
                        "lat": 39.9075,
                        "lon": 116.39723
                    }
                },
                {
                    "facility": "Chongqing Cancer Hospital",
                    "status": "COMPLETED",
                    "city": "Chongqing",
                    "zip": "400030",
                    "country": "China",
                    "geoPoint": {
                        "lat": 29.56278,
                        "lon": 106.55278
                    }
                },
                {
                    "facility": "Fudan University Shanghai Cancer Center",
                    "status": "RECRUITING",
                    "city": "Shanghai",
                    "zip": "200000",
                    "country": "China",
                    "geoPoint": {
                        "lat": 31.22222,
                        "lon": 121.45806
                    }
                },
                {
                    "facility": "Zhongshan Hospital, Fudan University",
                    "status": "ACTIVE_NOT_RECRUITING",
                    "city": "Shanghai",
                    "zip": "200032",
                    "country": "China",
                    "geoPoint": {
                        "lat": 31.22222,
                        "lon": 121.45806
                    }
                },
                {
                    "facility": "Huadong Hospital, Affiliated to Fudan University",
                    "status": "RECRUITING",
                    "city": "Shanghai",
                    "zip": "200040",
                    "country": "China",
                    "geoPoint": {
                        "lat": 31.22222,
                        "lon": 121.45806
                    }
                },
                {
                    "facility": "Tianjin Medical University Cancer Institute & Hospital",
                    "status": "RECRUITING",
                    "city": "Tianjin",
                    "zip": "300000",
                    "country": "China",
                    "geoPoint": {
                        "lat": 39.14222,
                        "lon": 117.17667
                    }
                },
                {
                    "facility": "Hospital Pablo Tob\u00f3n Uribe",
                    "status": "COMPLETED",
                    "city": "Medell\u00edn",
                    "state": "Antioquia",
                    "zip": "050034",
                    "country": "Colombia",
                    "geoPoint": {
                        "lat": 6.25184,
                        "lon": -75.56359
                    }
                },
                {
                    "facility": "Oncom\u00e9dica S.A.",
                    "status": "COMPLETED",
                    "city": "Monter\u00eda",
                    "state": "C\u00f3rdoba",
                    "zip": "230002",
                    "country": "Colombia",
                    "geoPoint": {
                        "lat": 8.74798,
                        "lon": -75.88143
                    }
                },
                {
                    "facility": "Fundaci\u00f3n Oftalmol\u00f3gica de Santander Carlos Ardila Lule",
                    "status": "COMPLETED",
                    "city": "Florida Blanca",
                    "state": "Santander",
                    "zip": "681004",
                    "country": "Colombia",
                    "geoPoint": {
                        "lat": 4.69203,
                        "lon": -74.10987
                    }
                },
                {
                    "facility": "Masarykuv onkologicky ustav",
                    "status": "ACTIVE_NOT_RECRUITING",
                    "city": "Brno",
                    "zip": "65653",
                    "country": "Czechia",
                    "geoPoint": {
                        "lat": 49.19522,
                        "lon": 16.60796
                    }
                },
                {
                    "facility": "Nemocnice Jablonec nad Nisou",
                    "status": "ACTIVE_NOT_RECRUITING",
                    "city": "Jablonec nad Nisou",
                    "zip": "46601",
                    "country": "Czechia",
                    "geoPoint": {
                        "lat": 50.72431,
                        "lon": 15.17108
                    }
                },
                {
                    "facility": "Fakultni nemocnice Kralovske Vinohrady",
                    "status": "ACTIVE_NOT_RECRUITING",
                    "city": "Praha 10",
                    "zip": "10034",
                    "country": "Czechia",
                    "geoPoint": {
                        "lat": 50.08804,
                        "lon": 14.42076
                    }
                },
                {
                    "facility": "Urocentrum Praha, s.r.o.",
                    "status": "ACTIVE_NOT_RECRUITING",
                    "city": "Praha 2",
                    "zip": "120 00",
                    "country": "Czechia",
                    "geoPoint": {
                        "lat": 50.08804,
                        "lon": 14.42076
                    }
                },
                {
                    "facility": "Vseobecna fakultni nemocnice v Praze",
                    "status": "ACTIVE_NOT_RECRUITING",
                    "city": "Praha 2",
                    "zip": "128 08",
                    "country": "Czechia",
                    "geoPoint": {
                        "lat": 50.08804,
                        "lon": 14.42076
                    }
                },
                {
                    "facility": "Androgeos - private center of urology and andrology",
                    "status": "ACTIVE_NOT_RECRUITING",
                    "city": "Praha 6",
                    "zip": "160 00",
                    "country": "Czechia",
                    "geoPoint": {
                        "lat": 50.08804,
                        "lon": 14.42076
                    }
                },
                {
                    "facility": "North Estonia Medical Centre Foundation",
                    "status": "ACTIVE_NOT_RECRUITING",
                    "city": "Tallinn",
                    "zip": "13419",
                    "country": "Estonia",
                    "geoPoint": {
                        "lat": 59.43696,
                        "lon": 24.75353
                    }
                },
                {
                    "facility": "HUS, Meilahden sairaala",
                    "status": "COMPLETED",
                    "city": "Helsinki",
                    "zip": "00290",
                    "country": "Finland",
                    "geoPoint": {
                        "lat": 60.16952,
                        "lon": 24.93545
                    }
                },
                {
                    "facility": "Keski-Suomen sairaala Nova",
                    "status": "COMPLETED",
                    "city": "Jyv\u00e4skyl\u00e4",
                    "zip": "40620",
                    "country": "Finland",
                    "geoPoint": {
                        "lat": 62.24147,
                        "lon": 25.72088
                    }
                },
                {
                    "facility": "Mikkelin keskussairaala",
                    "status": "COMPLETED",
                    "city": "Mikkeli",
                    "zip": "FIN-50100",
                    "country": "Finland",
                    "geoPoint": {
                        "lat": 61.68857,
                        "lon": 27.27227
                    }
                },
                {
                    "facility": "Oulun yliopistollinen sairaala",
                    "status": "COMPLETED",
                    "city": "Oulu",
                    "zip": "90220",
                    "country": "Finland",
                    "geoPoint": {
                        "lat": 65.01236,
                        "lon": 25.46816
                    }
                },
                {
                    "facility": "Sein\u00e4joen keskussairaala",
                    "status": "COMPLETED",
                    "city": "Sein\u00e4joki",
                    "zip": "60220",
                    "country": "Finland",
                    "geoPoint": {
                        "lat": 62.79446,
                        "lon": 22.82822
                    }
                },
                {
                    "facility": "Tampereen yliopistollinen sairaala, keskussairaala",
                    "status": "COMPLETED",
                    "city": "Tampere",
                    "zip": "33520",
                    "country": "Finland",
                    "geoPoint": {
                        "lat": 61.49911,
                        "lon": 23.78712
                    }
                },
                {
                    "facility": "Turun yliopistollinen keskussairaala",
                    "status": "WITHDRAWN",
                    "city": "Turku",
                    "zip": "20520",
                    "country": "Finland",
                    "geoPoint": {
                        "lat": 60.45148,
                        "lon": 22.26869
                    }
                },
                {
                    "facility": "Turun yliopistollinen keskussairaala",
                    "status": "COMPLETED",
                    "city": "Turku",
                    "zip": "20520",
                    "country": "Finland",
                    "geoPoint": {
                        "lat": 60.45148,
                        "lon": 22.26869
                    }
                },
                {
                    "facility": "Centre Hospitalier Universitaire - Angers",
                    "status": "COMPLETED",
                    "city": "Angers",
                    "zip": "49933",
                    "country": "France",
                    "geoPoint": {
                        "lat": 47.46667,
                        "lon": -0.55
                    }
                },
                {
                    "facility": "Institut Bergoni\u00e9 - Unicancer Nouvelle Aquitaine",
                    "status": "ACTIVE_NOT_RECRUITING",
                    "city": "Bordeaux",
                    "zip": "33076",
                    "country": "France",
                    "geoPoint": {
                        "lat": 44.84044,
                        "lon": -0.5805
                    }
                },
                {
                    "facility": "Clinique Lanroze",
                    "status": "ACTIVE_NOT_RECRUITING",
                    "city": "Brest",
                    "zip": "29200",
                    "country": "France",
                    "geoPoint": {
                        "lat": 48.3903,
                        "lon": -4.48628
                    }
                },
                {
                    "facility": "Centre Jean Perrin",
                    "status": "ACTIVE_NOT_RECRUITING",
                    "city": "Clermont-ferrand",
                    "zip": "63011",
                    "country": "France",
                    "geoPoint": {
                        "lat": 45.77966,
                        "lon": 3.08628
                    }
                },
                {
                    "facility": "Centre d'Oncologie et de Radiologie du Parc",
                    "status": "COMPLETED",
                    "city": "Dijon",
                    "zip": "21000",
                    "country": "France",
                    "geoPoint": {
                        "lat": 47.31667,
                        "lon": 5.01667
                    }
                },
                {
                    "facility": "Institut Paoli-Calmettes - Marseille",
                    "status": "ACTIVE_NOT_RECRUITING",
                    "city": "Marseille",
                    "zip": "13273",
                    "country": "France",
                    "geoPoint": {
                        "lat": 43.29551,
                        "lon": 5.38958
                    }
                },
                {
                    "facility": "Institut du Cancer de Montpellier - Val d'Aurelle",
                    "status": "ACTIVE_NOT_RECRUITING",
                    "city": "Montpellier Cedex",
                    "zip": "34298",
                    "country": "France",
                    "geoPoint": {
                        "lat": 43.61092,
                        "lon": 3.87723
                    }
                },
                {
                    "facility": "Centre d'Oncologie de Gentilly",
                    "status": "WITHDRAWN",
                    "city": "Nancy",
                    "zip": "54100",
                    "country": "France",
                    "geoPoint": {
                        "lat": 48.68439,
                        "lon": 6.18496
                    }
                },
                {
                    "facility": "Hopital Hotel Dieu - Nantes",
                    "status": "COMPLETED",
                    "city": "Nantes Cedex",
                    "zip": "44093",
                    "country": "France",
                    "geoPoint": {
                        "lat": 47.21725,
                        "lon": -1.55336
                    }
                },
                {
                    "facility": "H\u00f4pital Saint Louis",
                    "status": "COMPLETED",
                    "city": "Paris",
                    "zip": "75010",
                    "country": "France",
                    "geoPoint": {
                        "lat": 48.85341,
                        "lon": 2.3488
                    }
                },
                {
                    "facility": "Centre Hospitalier Lyon Sud",
                    "status": "ACTIVE_NOT_RECRUITING",
                    "city": "Pierre Benite",
                    "zip": "69495",
                    "country": "France",
                    "geoPoint": {
                        "lat": 45.7009,
                        "lon": 4.82511
                    }
                },
                {
                    "facility": "H\u00f4pital de la Mil\u00e9trie",
                    "status": "ACTIVE_NOT_RECRUITING",
                    "city": "Poitiers",
                    "zip": "86021",
                    "country": "France",
                    "geoPoint": {
                        "lat": 46.58333,
                        "lon": 0.33333
                    }
                },
                {
                    "facility": "Institut de Canc\u00e9rologie Jean Godinot",
                    "status": "ACTIVE_NOT_RECRUITING",
                    "city": "Reims",
                    "zip": "51726",
                    "country": "France",
                    "geoPoint": {
                        "lat": 49.25,
                        "lon": 4.03333
                    }
                },
                {
                    "facility": "H\u00f4pital Pontchaillou",
                    "status": "COMPLETED",
                    "city": "Rennes Cedex",
                    "zip": "35033",
                    "country": "France",
                    "geoPoint": {
                        "lat": 48.11198,
                        "lon": -1.67429
                    }
                },
                {
                    "facility": "H\u00f4pital Charles Nicolle",
                    "status": "COMPLETED",
                    "city": "Rouen",
                    "zip": "76031",
                    "country": "France",
                    "geoPoint": {
                        "lat": 49.44313,
                        "lon": 1.09932
                    }
                },
                {
                    "facility": "H\u00f4pital d'Instruction des Arm\u00e9es Begin",
                    "status": "COMPLETED",
                    "city": "Saint Mande",
                    "zip": "94160",
                    "country": "France",
                    "geoPoint": {
                        "lat": 48.83864,
                        "lon": 2.41579
                    }
                },
                {
                    "facility": "Institut de Canc\u00e9rologie de l'Ouest - Saint Herblain",
                    "status": "ACTIVE_NOT_RECRUITING",
                    "city": "Saint-Herblain",
                    "zip": "44800",
                    "country": "France",
                    "geoPoint": {
                        "lat": 47.21765,
                        "lon": -1.64841
                    }
                },
                {
                    "facility": "Centre M\u00e9dico-Chirurgical Foch",
                    "status": "COMPLETED",
                    "city": "Suresnes",
                    "zip": "92151",
                    "country": "France",
                    "geoPoint": {
                        "lat": 48.87143,
                        "lon": 2.22929
                    }
                },
                {
                    "facility": "H\u00f4pital Bretonneau",
                    "status": "COMPLETED",
                    "city": "Tours",
                    "zip": "37044",
                    "country": "France",
                    "geoPoint": {
                        "lat": 47.38333,
                        "lon": 0.68333
                    }
                },
                {
                    "facility": "Institut Gustave Roussy - D\u00e9partement de M\u00e9decine Oncologique",
                    "status": "COMPLETED",
                    "city": "Villejuif Cedex",
                    "zip": "94805",
                    "country": "France",
                    "geoPoint": {
                        "lat": 48.7939,
                        "lon": 2.35992
                    }
                },
                {
                    "facility": "Urologische Gemeinschaftspraxis Carl-Andreas-Meilinger",
                    "status": "COMPLETED",
                    "city": "Emmendingen",
                    "state": "Baden-W\u00fcrttemberg",
                    "zip": "79312",
                    "country": "Germany",
                    "geoPoint": {
                        "lat": 48.12096,
                        "lon": 7.85359
                    }
                },
                {
                    "facility": "Universit\u00e4tsklinikum Freiburg",
                    "status": "COMPLETED",
                    "city": "Freiburg",
                    "state": "Baden-W\u00fcrttemberg",
                    "zip": "79106",
                    "country": "Germany",
                    "geoPoint": {
                        "lat": 47.9959,
                        "lon": 7.85222
                    }
                },
                {
                    "facility": "Urologische GemPraxis Dr. R. Rudolph",
                    "status": "WITHDRAWN",
                    "city": "Kirchheim unter Teck",
                    "state": "Baden-W\u00fcrttemberg",
                    "zip": "73230",
                    "country": "Germany",
                    "geoPoint": {
                        "lat": 48.64683,
                        "lon": 9.45378
                    }
                },
                {
                    "facility": "Urologische Gemeinschaftspraxis Muehlacker",
                    "status": "COMPLETED",
                    "city": "Muehlacker",
                    "state": "Baden-W\u00fcrttemberg",
                    "zip": "75417",
                    "country": "Germany"
                },
                {
                    "facility": "Studienpraxis Urologie",
                    "status": "COMPLETED",
                    "city": "N\u00fcrtingen",
                    "state": "Baden-W\u00fcrttemberg",
                    "zip": "72622",
                    "country": "Germany",
                    "geoPoint": {
                        "lat": 48.62565,
                        "lon": 9.34203
                    }
                },
                {
                    "facility": "Urologische Gemeinschaftspraxis Dr. Simone Maier",
                    "status": "COMPLETED",
                    "city": "Reutlingen",
                    "state": "Baden-W\u00fcrttemberg",
                    "zip": "72764",
                    "country": "Germany",
                    "geoPoint": {
                        "lat": 48.49144,
                        "lon": 9.20427
                    }
                },
                {
                    "facility": "Uniklinik T\u00fcbingen / Urologie",
                    "status": "COMPLETED",
                    "city": "T\u00fcbingen",
                    "state": "Baden-W\u00fcrttemberg",
                    "zip": "72076",
                    "country": "Germany",
                    "geoPoint": {
                        "lat": 48.52266,
                        "lon": 9.05222
                    }
                },
                {
                    "facility": "Universit\u00e4tsklinikum Ulm",
                    "status": "WITHDRAWN",
                    "city": "Ulm",
                    "state": "Baden-W\u00fcrttemberg",
                    "zip": "89075",
                    "country": "Germany",
                    "geoPoint": {
                        "lat": 48.39841,
                        "lon": 9.99155
                    }
                },
                {
                    "facility": "Universit\u00e4tsklinikum Erlangen",
                    "status": "COMPLETED",
                    "city": "Erlangen",
                    "state": "Bayern",
                    "zip": "91054",
                    "country": "Germany",
                    "geoPoint": {
                        "lat": 49.59099,
                        "lon": 11.00783
                    }
                },
                {
                    "facility": "Universit\u00e4tsklinikum der Johann Wolfgang Goethe Universit\u00e4t",
                    "status": "WITHDRAWN",
                    "city": "Frankfurt",
                    "state": "Hessen",
                    "zip": "60590",
                    "country": "Germany",
                    "geoPoint": {
                        "lat": 50.11552,
                        "lon": 8.68417
                    }
                },
                {
                    "facility": "St\u00e4dtisches Klinikum Braunschweig gGmbH",
                    "status": "COMPLETED",
                    "city": "Braunschweig",
                    "state": "Niedersachsen",
                    "zip": "38126",
                    "country": "Germany",
                    "geoPoint": {
                        "lat": 52.26594,
                        "lon": 10.52673
                    }
                },
                {
                    "facility": "Gesundheitszentrum Holzminden",
                    "status": "WITHDRAWN",
                    "city": "Holzminden",
                    "state": "Niedersachsen",
                    "zip": "37603",
                    "country": "Germany",
                    "geoPoint": {
                        "lat": 51.82798,
                        "lon": 9.4455
                    }
                },
                {
                    "facility": "Heinrich-Heine-Universit\u00e4t D\u00fcsseldorf",
                    "status": "COMPLETED",
                    "city": "D\u00fcsseldorf",
                    "state": "Nordrhein-Westfalen",
                    "zip": "40225",
                    "country": "Germany",
                    "geoPoint": {
                        "lat": 51.22172,
                        "lon": 6.77616
                    }
                },
                {
                    "facility": "Praxis Drs. Tim Schneider /B. Schneider",
                    "status": "COMPLETED",
                    "city": "M\u00fchlheim",
                    "state": "Nordrhein-Westfalen",
                    "zip": "45468",
                    "country": "Germany",
                    "geoPoint": {
                        "lat": 50.11667,
                        "lon": 8.83333
                    }
                },
                {
                    "facility": "Universit\u00e4tsklinikum M\u00fcnster (UKM)",
                    "status": "COMPLETED",
                    "city": "M\u00fcnster",
                    "state": "Nordrhein-Westfalen",
                    "zip": "48149",
                    "country": "Germany",
                    "geoPoint": {
                        "lat": 51.96236,
                        "lon": 7.62571
                    }
                },
                {
                    "facility": "Uro-Gyn-Zentrum Wall Hr. Dr. Jochen Glei\u00dfner",
                    "status": "COMPLETED",
                    "city": "Wuppertal",
                    "state": "Nordrhein-Westfalen",
                    "zip": "42103",
                    "country": "Germany",
                    "geoPoint": {
                        "lat": 51.27027,
                        "lon": 7.16755
                    }
                },
                {
                    "facility": "Universit\u00e4tsmedizin der Johannes Gutenberg Universit\u00e4t Mainz",
                    "status": "COMPLETED",
                    "city": "Mainz",
                    "state": "Rheinland-Pfalz",
                    "zip": "55131",
                    "country": "Germany",
                    "geoPoint": {
                        "lat": 49.98419,
                        "lon": 8.2791
                    }
                },
                {
                    "facility": "Medizinische Fakult\u00e4t der Otto-von-Guericke Universit\u00e4t",
                    "status": "COMPLETED",
                    "city": "Magdeburg",
                    "state": "Sachsen-Anhalt",
                    "zip": "39120",
                    "country": "Germany",
                    "geoPoint": {
                        "lat": 52.12773,
                        "lon": 11.62916
                    }
                },
                {
                    "facility": "Friedrich-Schiller-Uni. Jena",
                    "status": "COMPLETED",
                    "city": "Jena",
                    "state": "Th\u00fcringen",
                    "zip": "07747",
                    "country": "Germany",
                    "geoPoint": {
                        "lat": 50.92878,
                        "lon": 11.5899
                    }
                },
                {
                    "facility": "Debreceni Egyetem Klinikai Kozpont",
                    "status": "WITHDRAWN",
                    "city": "Debrecen",
                    "zip": "4032",
                    "country": "Hungary",
                    "geoPoint": {
                        "lat": 47.53333,
                        "lon": 21.63333
                    }
                },
                {
                    "facility": "Tolna Varmegyei Balassa Janos Korhaz",
                    "status": "ACTIVE_NOT_RECRUITING",
                    "city": "Szekszard",
                    "zip": "7100",
                    "country": "Hungary",
                    "geoPoint": {
                        "lat": 46.35014,
                        "lon": 18.70905
                    }
                },
                {
                    "facility": "Zala Varmegyei Szent Rafael Korhaz",
                    "status": "ACTIVE_NOT_RECRUITING",
                    "city": "Zalaegerszeg",
                    "zip": "8900",
                    "country": "Hungary",
                    "geoPoint": {
                        "lat": 46.84,
                        "lon": 16.84389
                    }
                },
                {
                    "facility": "Clalit Health | Soroka Medical Center - Internal Medicine Department",
                    "status": "ACTIVE_NOT_RECRUITING",
                    "city": "Beer Sheva",
                    "zip": "8410101",
                    "country": "Israel",
                    "geoPoint": {
                        "lat": 31.25181,
                        "lon": 34.7913
                    }
                },
                {
                    "facility": "Rabin Medical Center | Beilinson Hospital - Internal Medicine C Department",
                    "status": "ACTIVE_NOT_RECRUITING",
                    "city": "Petah Tikva",
                    "zip": "4941492",
                    "country": "Israel",
                    "geoPoint": {
                        "lat": 32.08707,
                        "lon": 34.88747
                    }
                },
                {
                    "facility": "Health Corporation of the Ziv Medical Center (R.A.)",
                    "status": "ACTIVE_NOT_RECRUITING",
                    "city": "Zefat",
                    "zip": "1311001",
                    "country": "Israel",
                    "geoPoint": {
                        "lat": 32.96465,
                        "lon": 35.496
                    }
                },
                {
                    "facility": "Istituto Nazionale Tumori IRCCS Fondazione G.Pascale",
                    "status": "COMPLETED",
                    "city": "Napoli",
                    "state": "Campania",
                    "zip": "80131",
                    "country": "Italy",
                    "geoPoint": {
                        "lat": 40.85216,
                        "lon": 14.26811
                    }
                },
                {
                    "facility": "A.O.U. di Parma",
                    "status": "COMPLETED",
                    "city": "Parma",
                    "state": "Emilia-Romagna",
                    "zip": "43126",
                    "country": "Italy",
                    "geoPoint": {
                        "lat": 44.79935,
                        "lon": 10.32618
                    }
                },
                {
                    "facility": "A.O.U. San Luigi Gonzaga",
                    "status": "ACTIVE_NOT_RECRUITING",
                    "city": "Torino",
                    "state": "Piemonte",
                    "zip": "10043",
                    "country": "Italy",
                    "geoPoint": {
                        "lat": 45.07049,
                        "lon": 7.68682
                    }
                },
                {
                    "facility": "IRCCS Fondazione del Piemonte per l'Oncologia",
                    "status": "COMPLETED",
                    "city": "Torino",
                    "state": "Piemonte",
                    "zip": "10060",
                    "country": "Italy",
                    "geoPoint": {
                        "lat": 45.07049,
                        "lon": 7.68682
                    }
                },
                {
                    "facility": "Istituto Oncologico Veneto IRCCS (IOV)",
                    "status": "ACTIVE_NOT_RECRUITING",
                    "city": "Padova",
                    "state": "Veneto",
                    "zip": "35128",
                    "country": "Italy",
                    "geoPoint": {
                        "lat": 45.40797,
                        "lon": 11.88586
                    }
                },
                {
                    "facility": "Nagoya University Hospital",
                    "status": "ACTIVE_NOT_RECRUITING",
                    "city": "Nagoya",
                    "state": "Aichi",
                    "zip": "466-8560",
                    "country": "Japan",
                    "geoPoint": {
                        "lat": 35.18147,
                        "lon": 136.90641
                    }
                },
                {
                    "facility": "Asahi General Hospital",
                    "status": "ACTIVE_NOT_RECRUITING",
                    "city": "Asahi",
                    "state": "Chiba",
                    "zip": "289-2511",
                    "country": "Japan",
                    "geoPoint": {
                        "lat": 35.71667,
                        "lon": 140.65
                    }
                },
                {
                    "facility": "Toho University Sakura Medical Center",
                    "status": "ACTIVE_NOT_RECRUITING",
                    "city": "Sakura",
                    "state": "Chiba",
                    "zip": "285-8741",
                    "country": "Japan",
                    "geoPoint": {
                        "lat": 35.71667,
                        "lon": 140.23333
                    }
                },
                {
                    "facility": "Gunma University Hospital",
                    "status": "ACTIVE_NOT_RECRUITING",
                    "city": "Maebashi",
                    "state": "Gunma",
                    "zip": "371-8511",
                    "country": "Japan",
                    "geoPoint": {
                        "lat": 36.4,
                        "lon": 139.08333
                    }
                },
                {
                    "facility": "Sapporo Medical University Hospital",
                    "status": "ACTIVE_NOT_RECRUITING",
                    "city": "Sapporo",
                    "state": "Hokkaido",
                    "zip": "060-8543",
                    "country": "Japan",
                    "geoPoint": {
                        "lat": 43.06667,
                        "lon": 141.35
                    }
                },
                {
                    "facility": "Kobe University Hospital",
                    "status": "ACTIVE_NOT_RECRUITING",
                    "city": "Kobe",
                    "state": "Hyogo",
                    "zip": "650-0017",
                    "country": "Japan",
                    "geoPoint": {
                        "lat": 34.6913,
                        "lon": 135.183
                    }
                },
                {
                    "facility": "National hospital Organization Mito Medical Center",
                    "status": "ACTIVE_NOT_RECRUITING",
                    "city": "Higashiibaraki",
                    "state": "Ibaraki",
                    "zip": "311-3193",
                    "country": "Japan"
                },
                {
                    "facility": "Kitasato University Hospital",
                    "status": "ACTIVE_NOT_RECRUITING",
                    "city": "Sagamihara",
                    "state": "Kanagawa",
                    "zip": "252-0375",
                    "country": "Japan",
                    "geoPoint": {
                        "lat": 35.54899,
                        "lon": 139.26064
                    }
                },
                {
                    "facility": "Yokohama City University Medical Center",
                    "status": "ACTIVE_NOT_RECRUITING",
                    "city": "Yokohama",
                    "state": "Kanagawa",
                    "zip": "232-0024",
                    "country": "Japan",
                    "geoPoint": {
                        "lat": 35.43333,
                        "lon": 139.65
                    }
                },
                {
                    "facility": "Yokosuka Kyosai Hospital",
                    "status": "COMPLETED",
                    "city": "Yokosuka",
                    "state": "Kanagawa",
                    "zip": "238-8558",
                    "country": "Japan",
                    "geoPoint": {
                        "lat": 35.28361,
                        "lon": 139.66722
                    }
                },
                {
                    "facility": "Mie University Hospital",
                    "status": "ACTIVE_NOT_RECRUITING",
                    "city": "Tsu",
                    "state": "Mie",
                    "zip": "514-8507",
                    "country": "Japan",
                    "geoPoint": {
                        "lat": 34.73333,
                        "lon": 136.51667
                    }
                },
                {
                    "facility": "National Hospital Organization Shinshu Ueda Medical Center",
                    "status": "ACTIVE_NOT_RECRUITING",
                    "city": "Ueda",
                    "state": "Nagano",
                    "zip": "386-8610",
                    "country": "Japan",
                    "geoPoint": {
                        "lat": 36.40265,
                        "lon": 138.28161
                    }
                },
                {
                    "facility": "Oita University Hospital",
                    "status": "ACTIVE_NOT_RECRUITING",
                    "city": "Yufu",
                    "state": "Oita",
                    "zip": "879-5593",
                    "country": "Japan",
                    "geoPoint": {
                        "lat": 33.1956,
                        "lon": 131.37829
                    }
                },
                {
                    "facility": "Kindai University Hospital",
                    "status": "ACTIVE_NOT_RECRUITING",
                    "city": "Osakasayama",
                    "state": "Osaka",
                    "zip": "589-8511",
                    "country": "Japan",
                    "geoPoint": {
                        "lat": 34.69374,
                        "lon": 135.50218
                    }
                },
                {
                    "facility": "Osaka University Hospital",
                    "status": "ACTIVE_NOT_RECRUITING",
                    "city": "Suita",
                    "state": "Osaka",
                    "zip": "565-0871",
                    "country": "Japan",
                    "geoPoint": {
                        "lat": 34.76143,
                        "lon": 135.51567
                    }
                },
                {
                    "facility": "Hamamatsu University Hospital",
                    "status": "ACTIVE_NOT_RECRUITING",
                    "city": "Hamamatsu",
                    "state": "Shizuoka",
                    "zip": "431-3192",
                    "country": "Japan",
                    "geoPoint": {
                        "lat": 34.7,
                        "lon": 137.73333
                    }
                },
                {
                    "facility": "Saiseikai Utsunomiya Hospital",
                    "status": "ACTIVE_NOT_RECRUITING",
                    "city": "Utsunomiya",
                    "state": "Tochigi",
                    "zip": "321-0974",
                    "country": "Japan",
                    "geoPoint": {
                        "lat": 36.56667,
                        "lon": 139.88333
                    }
                },
                {
                    "facility": "Juntendo University Hospital",
                    "status": "ACTIVE_NOT_RECRUITING",
                    "city": "Bunkyo-ku",
                    "state": "Tokyo",
                    "zip": "113-8431",
                    "country": "Japan",
                    "geoPoint": {
                        "lat": 35.37517,
                        "lon": 139.92991
                    }
                },
                {
                    "facility": "Nippon Medical School Hospital",
                    "status": "ACTIVE_NOT_RECRUITING",
                    "city": "Bunkyo-ku",
                    "state": "Tokyo",
                    "zip": "113-8603",
                    "country": "Japan",
                    "geoPoint": {
                        "lat": 35.37517,
                        "lon": 139.92991
                    }
                },
                {
                    "facility": "Tokyo Metropolitan Institute for Geriatrics and Gerontology",
                    "status": "COMPLETED",
                    "city": "Itabashi-ku",
                    "state": "Tokyo",
                    "zip": "173-0015",
                    "country": "Japan",
                    "geoPoint": {
                        "lat": 35.74893,
                        "lon": 139.71497
                    }
                },
                {
                    "facility": "Kyorin University Hospital",
                    "status": "COMPLETED",
                    "city": "Mitaka",
                    "state": "Tokyo",
                    "zip": "181-8611",
                    "country": "Japan",
                    "geoPoint": {
                        "lat": 35.68351,
                        "lon": 139.55963
                    }
                },
                {
                    "facility": "Tokyo Metropolitan Police Hospital",
                    "status": "ACTIVE_NOT_RECRUITING",
                    "city": "Nakano-ku",
                    "state": "Tokyo",
                    "zip": "164-8541",
                    "country": "Japan",
                    "geoPoint": {
                        "lat": 36.75,
                        "lon": 138.36667
                    }
                },
                {
                    "facility": "Keio University Hospital",
                    "status": "ACTIVE_NOT_RECRUITING",
                    "city": "Shinjuku-ku",
                    "state": "Tokyo",
                    "zip": "160-8582",
                    "country": "Japan",
                    "geoPoint": {
                        "lat": 35.2946,
                        "lon": 139.57059
                    }
                },
                {
                    "facility": "The Fraternity Memorial Hospital",
                    "status": "ACTIVE_NOT_RECRUITING",
                    "city": "Sumida-ku",
                    "state": "Tokyo",
                    "zip": "130-8587",
                    "country": "Japan"
                },
                {
                    "facility": "Tottori University Hospital",
                    "status": "COMPLETED",
                    "city": "Yonago",
                    "state": "Tottori",
                    "zip": "683-8504",
                    "country": "Japan",
                    "geoPoint": {
                        "lat": 35.43333,
                        "lon": 133.33333
                    }
                },
                {
                    "facility": "Yamaguchi University Hospital",
                    "status": "ACTIVE_NOT_RECRUITING",
                    "city": "Ube",
                    "state": "Yamaguchi",
                    "zip": "755-8505",
                    "country": "Japan",
                    "geoPoint": {
                        "lat": 33.94306,
                        "lon": 131.25111
                    }
                },
                {
                    "facility": "Chiba Cancer Center",
                    "status": "ACTIVE_NOT_RECRUITING",
                    "city": "Chiba",
                    "zip": "260-8717",
                    "country": "Japan",
                    "geoPoint": {
                        "lat": 35.6,
                        "lon": 140.11667
                    }
                },
                {
                    "facility": "Gifu Prefectural General Medical Center",
                    "status": "ACTIVE_NOT_RECRUITING",
                    "city": "Gifu",
                    "zip": "500-8717",
                    "country": "Japan",
                    "geoPoint": {
                        "lat": 35.42291,
                        "lon": 136.76039
                    }
                },
                {
                    "facility": "Hiroshima City Hiroshima Citizens Hospital",
                    "status": "COMPLETED",
                    "city": "Hiroshima",
                    "zip": "730-8518",
                    "country": "Japan",
                    "geoPoint": {
                        "lat": 34.4,
                        "lon": 132.45
                    }
                },
                {
                    "facility": "National Cancer Center Hospital East",
                    "status": "WITHDRAWN",
                    "city": "Kashiwa",
                    "zip": "277-8577",
                    "country": "Japan",
                    "geoPoint": {
                        "lat": 35.86224,
                        "lon": 139.97732
                    }
                },
                {
                    "facility": "National Hospital Organization Kumamoto Medical Center",
                    "status": "ACTIVE_NOT_RECRUITING",
                    "city": "Kumamoto",
                    "zip": "860-0008",
                    "country": "Japan",
                    "geoPoint": {
                        "lat": 32.80589,
                        "lon": 130.69182
                    }
                },
                {
                    "facility": "University of Miyazaki Hospital",
                    "status": "ACTIVE_NOT_RECRUITING",
                    "city": "Miyazaki",
                    "zip": "889-1692",
                    "country": "Japan",
                    "geoPoint": {
                        "lat": 31.91667,
                        "lon": 131.41667
                    }
                },
                {
                    "facility": "Nagasaki University Hospital",
                    "status": "ACTIVE_NOT_RECRUITING",
                    "city": "Nagasaki",
                    "zip": "852-8501",
                    "country": "Japan",
                    "geoPoint": {
                        "lat": 32.75,
                        "lon": 129.88333
                    }
                },
                {
                    "facility": "Osaka International Cancer Institute",
                    "status": "ACTIVE_NOT_RECRUITING",
                    "city": "Osaka",
                    "zip": "541-8567",
                    "country": "Japan",
                    "geoPoint": {
                        "lat": 34.69374,
                        "lon": 135.50218
                    }
                },
                {
                    "facility": "Osaka Metropolitan University Hospital",
                    "status": "WITHDRAWN",
                    "city": "Osaka",
                    "zip": "545-8586",
                    "country": "Japan",
                    "geoPoint": {
                        "lat": 34.69374,
                        "lon": 135.50218
                    }
                },
                {
                    "facility": "Osaka General Medical Center",
                    "status": "COMPLETED",
                    "city": "Osaka",
                    "zip": "558-8558",
                    "country": "Japan",
                    "geoPoint": {
                        "lat": 34.69374,
                        "lon": 135.50218
                    }
                },
                {
                    "facility": "Toyama University Hospital",
                    "status": "COMPLETED",
                    "city": "Toyama",
                    "zip": "930-0194",
                    "country": "Japan",
                    "geoPoint": {
                        "lat": 36.7,
                        "lon": 137.21667
                    }
                },
                {
                    "facility": "Wakayama Medical University Hospital",
                    "status": "ACTIVE_NOT_RECRUITING",
                    "city": "Wakayama",
                    "zip": "641-8510",
                    "country": "Japan",
                    "geoPoint": {
                        "lat": 34.23333,
                        "lon": 135.16667
                    }
                },
                {
                    "facility": "Chungbuk National University Hospital",
                    "status": "ACTIVE_NOT_RECRUITING",
                    "city": "Cheongju-si",
                    "state": "Chungcheongbugdo",
                    "zip": "28644",
                    "country": "Korea, Republic of",
                    "geoPoint": {
                        "lat": 36.63722,
                        "lon": 127.48972
                    }
                },
                {
                    "facility": "Chonnam National University Hospital",
                    "status": "ACTIVE_NOT_RECRUITING",
                    "city": "Donggu,",
                    "state": "Gwangju Gwang''yeogsi",
                    "zip": "61469",
                    "country": "Korea, Republic of"
                },
                {
                    "facility": "Seoul National Univ. Bundang Hospital",
                    "status": "WITHDRAWN",
                    "city": "Seongnam-si",
                    "state": "Gyeonggido",
                    "zip": "13620",
                    "country": "Korea, Republic of",
                    "geoPoint": {
                        "lat": 37.43861,
                        "lon": 127.13778
                    }
                },
                {
                    "facility": "Seoul National University Hospital",
                    "status": "ACTIVE_NOT_RECRUITING",
                    "city": "Seoul",
                    "state": "Seoul Teugbyeolsi",
                    "zip": "3080",
                    "country": "Korea, Republic of",
                    "geoPoint": {
                        "lat": 37.566,
                        "lon": 126.9784
                    }
                },
                {
                    "facility": "Inje University Busan Paik Hospital",
                    "status": "WITHDRAWN",
                    "city": "Busan",
                    "zip": "47392",
                    "country": "Korea, Republic of",
                    "geoPoint": {
                        "lat": 35.10278,
                        "lon": 129.04028
                    }
                },
                {
                    "facility": "Keimyung University Dongsan Medical Center",
                    "status": "COMPLETED",
                    "city": "Daegu",
                    "zip": "42601",
                    "country": "Korea, Republic of",
                    "geoPoint": {
                        "lat": 35.87028,
                        "lon": 128.59111
                    }
                },
                {
                    "facility": "Kyungpook National University Chilgok Hospital",
                    "status": "ACTIVE_NOT_RECRUITING",
                    "city": "Daegu",
                    "zip": "700721",
                    "country": "Korea, Republic of",
                    "geoPoint": {
                        "lat": 35.87028,
                        "lon": 128.59111
                    }
                },
                {
                    "facility": "Gachon University Gil Medical Center",
                    "status": "ACTIVE_NOT_RECRUITING",
                    "city": "Incheon",
                    "zip": "21565",
                    "country": "Korea, Republic of",
                    "geoPoint": {
                        "lat": 37.45646,
                        "lon": 126.70515
                    }
                },
                {
                    "facility": "Severance Hospital, Yonsei University Health System",
                    "status": "ACTIVE_NOT_RECRUITING",
                    "city": "Seoul",
                    "zip": "03722",
                    "country": "Korea, Republic of",
                    "geoPoint": {
                        "lat": 37.566,
                        "lon": 126.9784
                    }
                },
                {
                    "facility": "Gangnam Severance Hospital, Yonsei University Health System",
                    "status": "ACTIVE_NOT_RECRUITING",
                    "city": "Seoul",
                    "zip": "135-720",
                    "country": "Korea, Republic of",
                    "geoPoint": {
                        "lat": 37.566,
                        "lon": 126.9784
                    }
                },
                {
                    "facility": "The Catholic University of Korea Seoul St. Mary's Hospital",
                    "status": "ACTIVE_NOT_RECRUITING",
                    "city": "Seoul",
                    "zip": "137-701",
                    "country": "Korea, Republic of",
                    "geoPoint": {
                        "lat": 37.566,
                        "lon": 126.9784
                    }
                },
                {
                    "facility": "Asan Medical Center",
                    "status": "ACTIVE_NOT_RECRUITING",
                    "city": "Seoul",
                    "zip": "138736",
                    "country": "Korea, Republic of",
                    "geoPoint": {
                        "lat": 37.566,
                        "lon": 126.9784
                    }
                },
                {
                    "facility": "Samsung Medical Center",
                    "status": "ACTIVE_NOT_RECRUITING",
                    "city": "Seoul",
                    "zip": "6351",
                    "country": "Korea, Republic of",
                    "geoPoint": {
                        "lat": 37.566,
                        "lon": 126.9784
                    }
                },
                {
                    "facility": "Litavniece Dzintra practice in urology and oncological chem.",
                    "status": "COMPLETED",
                    "city": "Liepaja",
                    "zip": "LV-3401",
                    "country": "Latvia",
                    "geoPoint": {
                        "lat": 56.51667,
                        "lon": 21.01667
                    }
                },
                {
                    "facility": "URO Ltd.",
                    "status": "WITHDRAWN",
                    "city": "Riga",
                    "zip": "LV-1001",
                    "country": "Latvia",
                    "geoPoint": {
                        "lat": 56.946,
                        "lon": 24.10589
                    }
                },
                {
                    "facility": "P. Stradins Clinical University Hospital",
                    "status": "RECRUITING",
                    "city": "Riga",
                    "zip": "LV-1002",
                    "country": "Latvia",
                    "geoPoint": {
                        "lat": 56.946,
                        "lon": 24.10589
                    }
                },
                {
                    "facility": "AS \"Association of Health Centers\" polyclinic \"Elite\"",
                    "status": "COMPLETED",
                    "city": "Riga",
                    "zip": "LV-1029",
                    "country": "Latvia",
                    "geoPoint": {
                        "lat": 56.946,
                        "lon": 24.10589
                    }
                },
                {
                    "facility": "Riga East Clinical University Hospital \"Gailezers\"",
                    "status": "RECRUITING",
                    "city": "Riga",
                    "zip": "LV-1038",
                    "country": "Latvia",
                    "geoPoint": {
                        "lat": 56.946,
                        "lon": 24.10589
                    }
                },
                {
                    "facility": "Hospital of LT University of Health Sciences Kaunas Clinics",
                    "status": "RECRUITING",
                    "city": "Kaunas",
                    "zip": "LT-50161",
                    "country": "Lithuania",
                    "geoPoint": {
                        "lat": 54.90272,
                        "lon": 23.90961
                    }
                },
                {
                    "facility": "PI Klaipedos University Hospital",
                    "status": "COMPLETED",
                    "city": "Klaipeda",
                    "zip": "LT-92288",
                    "country": "Lithuania",
                    "geoPoint": {
                        "lat": 55.70888,
                        "lon": 21.14311
                    }
                },
                {
                    "facility": "National Cancer Institute",
                    "status": "RECRUITING",
                    "city": "Vilnius",
                    "zip": "LT-08660",
                    "country": "Lithuania",
                    "geoPoint": {
                        "lat": 54.68916,
                        "lon": 25.2798
                    }
                },
                {
                    "facility": "Vilnius University Hospital Santaros Klinikos",
                    "status": "RECRUITING",
                    "city": "Vilnius",
                    "zip": "LT-08661",
                    "country": "Lithuania",
                    "geoPoint": {
                        "lat": 54.68916,
                        "lon": 25.2798
                    }
                },
                {
                    "facility": "Hospital Universitario \"Jos\u00e9 Eleuterio Gonz\u00e1lez\"",
                    "status": "ACTIVE_NOT_RECRUITING",
                    "city": "Monterrey",
                    "state": "Nuevo Leon",
                    "zip": "64460",
                    "country": "Mexico",
                    "geoPoint": {
                        "lat": 25.67507,
                        "lon": -100.31847
                    }
                },
                {
                    "facility": "INBIOMEDyC Quer\u00e9taro",
                    "status": "COMPLETED",
                    "city": "Santiago de Quer\u00e9taro",
                    "state": "Quer\u00e9taro",
                    "zip": "76000",
                    "country": "Mexico",
                    "geoPoint": {
                        "lat": 20.58806,
                        "lon": -100.38806
                    }
                },
                {
                    "facility": "Nederlands Kanker Instituut",
                    "status": "WITHDRAWN",
                    "city": "Amsterdam",
                    "zip": "1066 CX",
                    "country": "Netherlands",
                    "geoPoint": {
                        "lat": 52.37403,
                        "lon": 4.88969
                    }
                },
                {
                    "facility": "Academisch Medisch Centrum (AMC)",
                    "status": "ACTIVE_NOT_RECRUITING",
                    "city": "Amsterdam",
                    "zip": "1105 AZ",
                    "country": "Netherlands",
                    "geoPoint": {
                        "lat": 52.37403,
                        "lon": 4.88969
                    }
                },
                {
                    "facility": "HagaZiekenhuis",
                    "status": "ACTIVE_NOT_RECRUITING",
                    "city": "Den Haag",
                    "zip": "2545 CH",
                    "country": "Netherlands",
                    "geoPoint": {
                        "lat": 52.07667,
                        "lon": 4.29861
                    }
                },
                {
                    "facility": "Albert Schweitzer Ziekenhuis | Dordwijk - Cardiology Department",
                    "status": "ACTIVE_NOT_RECRUITING",
                    "city": "Dordrecht",
                    "zip": "3318 AT",
                    "country": "Netherlands",
                    "geoPoint": {
                        "lat": 51.81,
                        "lon": 4.67361
                    }
                },
                {
                    "facility": "Zuyderland Medical Centre | Internal Medicine Department",
                    "status": "ACTIVE_NOT_RECRUITING",
                    "city": "Geleen",
                    "zip": "6162 BG",
                    "country": "Netherlands",
                    "geoPoint": {
                        "lat": 50.97417,
                        "lon": 5.82917
                    }
                },
                {
                    "facility": "Tergooi MC | Hilversum - Wetenschapsbureau",
                    "status": "COMPLETED",
                    "city": "Hilversum",
                    "zip": "1213 XZ",
                    "country": "Netherlands",
                    "geoPoint": {
                        "lat": 52.22333,
                        "lon": 5.17639
                    }
                },
                {
                    "facility": "Spaarne Gasthuis",
                    "status": "ACTIVE_NOT_RECRUITING",
                    "city": "Hoofddorp",
                    "zip": "2134 TM",
                    "country": "Netherlands",
                    "geoPoint": {
                        "lat": 52.3025,
                        "lon": 4.68889
                    }
                },
                {
                    "facility": "ETZ TweeSteden Ziekenhuis (vh Maria Ziekenhuis)",
                    "status": "ACTIVE_NOT_RECRUITING",
                    "city": "Tilburg",
                    "zip": "5042 AD",
                    "country": "Netherlands",
                    "geoPoint": {
                        "lat": 51.55551,
                        "lon": 5.0913
                    }
                },
                {
                    "facility": "Centro M\u00e9dico Monte Carmelo - Oncology Department",
                    "status": "ACTIVE_NOT_RECRUITING",
                    "city": "La Victoria",
                    "state": "Arequipa",
                    "zip": "4001",
                    "country": "Peru"
                },
                {
                    "facility": "Hospital Central de la Fuerza Aerea del Per\u00fa",
                    "status": "COMPLETED",
                    "city": "Lima",
                    "zip": "15046",
                    "country": "Peru",
                    "geoPoint": {
                        "lat": -12.04318,
                        "lon": -77.02824
                    }
                },
                {
                    "facility": "Instituto Peruano de Oncolog\u00eda & Radioterapia - Oncologia SA - Oncology Department",
                    "status": "ACTIVE_NOT_RECRUITING",
                    "city": "Lima",
                    "zip": "TBC",
                    "country": "Peru",
                    "geoPoint": {
                        "lat": -12.04318,
                        "lon": -77.02824
                    }
                },
                {
                    "facility": "Uniwersyteckie Centrum Kliniczne",
                    "status": "WITHDRAWN",
                    "city": "Gdansk",
                    "zip": "80-214",
                    "country": "Poland",
                    "geoPoint": {
                        "lat": 54.35205,
                        "lon": 18.64637
                    }
                },
                {
                    "facility": "ETG Network Spolka z o.o.",
                    "status": "ACTIVE_NOT_RECRUITING",
                    "city": "Lodz",
                    "zip": "90-302",
                    "country": "Poland",
                    "geoPoint": {
                        "lat": 51.75,
                        "lon": 19.46667
                    }
                },
                {
                    "facility": "KO-MED Centra Kliniczne Lublin II",
                    "status": "ACTIVE_NOT_RECRUITING",
                    "city": "Lublin",
                    "zip": "20-362",
                    "country": "Poland",
                    "geoPoint": {
                        "lat": 51.25,
                        "lon": 22.56667
                    }
                },
                {
                    "facility": "Europejskie Centrum Zdrowia Otwock, Szpital im. F. Chopina",
                    "status": "ACTIVE_NOT_RECRUITING",
                    "city": "Otwock",
                    "zip": "05-400",
                    "country": "Poland",
                    "geoPoint": {
                        "lat": 52.10577,
                        "lon": 21.26129
                    }
                },
                {
                    "facility": "SPZOZ Wojewodzki Szpital Specjalistyczny nr 3",
                    "status": "WITHDRAWN",
                    "city": "Rybnik",
                    "zip": "44-200",
                    "country": "Poland",
                    "geoPoint": {
                        "lat": 50.09713,
                        "lon": 18.54179
                    }
                },
                {
                    "facility": "Urologica Praktyka Lekarska Adam Marcheluk",
                    "status": "COMPLETED",
                    "city": "Siedlce",
                    "zip": "08-110",
                    "country": "Poland",
                    "geoPoint": {
                        "lat": 52.16772,
                        "lon": 22.29006
                    }
                },
                {
                    "facility": "Mazowiecki Szpital Onkologiczny",
                    "status": "WITHDRAWN",
                    "city": "Waliszew",
                    "zip": "05-135",
                    "country": "Poland"
                },
                {
                    "facility": "Centrum Onkologii - Instytut im. M.Sklodowskiej-Curie",
                    "status": "WITHDRAWN",
                    "city": "Warszawa",
                    "zip": "02-781",
                    "country": "Poland",
                    "geoPoint": {
                        "lat": 52.22977,
                        "lon": 21.01178
                    }
                },
                {
                    "facility": "Szpital Grochowski im. dr.med. Rafala Masztaka",
                    "status": "ACTIVE_NOT_RECRUITING",
                    "city": "Warszawa",
                    "zip": "04-073",
                    "country": "Poland",
                    "geoPoint": {
                        "lat": 52.22977,
                        "lon": 21.01178
                    }
                },
                {
                    "facility": "EMC Instytut Medyczny SA",
                    "status": "WITHDRAWN",
                    "city": "Wroclaw",
                    "zip": "54-144",
                    "country": "Poland",
                    "geoPoint": {
                        "lat": 51.1,
                        "lon": 17.03333
                    }
                },
                {
                    "facility": "Hospital Garcia de Orta | Research Department",
                    "status": "COMPLETED",
                    "city": "Almada",
                    "state": "Lisboa",
                    "zip": "2805-267",
                    "country": "Portugal",
                    "geoPoint": {
                        "lat": 38.67902,
                        "lon": -9.1569
                    }
                },
                {
                    "facility": "ULSM - Hospital Pedro Hispano",
                    "status": "WITHDRAWN",
                    "city": "Matosinhos",
                    "state": "Porto",
                    "zip": "4464-513",
                    "country": "Portugal",
                    "geoPoint": {
                        "lat": 41.18207,
                        "lon": -8.68908
                    }
                },
                {
                    "facility": "IPO Lisboa",
                    "status": "COMPLETED",
                    "city": "Lisboa",
                    "zip": "1093 CODEX",
                    "country": "Portugal",
                    "geoPoint": {
                        "lat": 38.71667,
                        "lon": -9.13333
                    }
                },
                {
                    "facility": "CHLC - Hospital Sao Jose",
                    "status": "COMPLETED",
                    "city": "Lisboa",
                    "zip": "1150-199",
                    "country": "Portugal",
                    "geoPoint": {
                        "lat": 38.71667,
                        "lon": -9.13333
                    }
                },
                {
                    "facility": "Luz Saude | Hospital da Luz Lisboa - Centro de Investigacao Clinica",
                    "status": "COMPLETED",
                    "city": "Lisboa",
                    "zip": "1500-650",
                    "country": "Portugal",
                    "geoPoint": {
                        "lat": 38.71667,
                        "lon": -9.13333
                    }
                },
                {
                    "facility": "IPO Porto",
                    "status": "COMPLETED",
                    "city": "Porto",
                    "zip": "4200-072",
                    "country": "Portugal",
                    "geoPoint": {
                        "lat": 41.14961,
                        "lon": -8.61099
                    }
                },
                {
                    "facility": "CHUSJ - Hospital Sao Joao",
                    "status": "COMPLETED",
                    "city": "Porto",
                    "zip": "4200-319",
                    "country": "Portugal",
                    "geoPoint": {
                        "lat": 41.14961,
                        "lon": -8.61099
                    }
                },
                {
                    "facility": "Institutul Clinic Fundeni",
                    "status": "COMPLETED",
                    "city": "Bucuresti",
                    "zip": "22328",
                    "country": "Romania",
                    "geoPoint": {
                        "lat": 44.42802,
                        "lon": 26.09665
                    }
                },
                {
                    "facility": "Sf. Nectarie Oncology Center",
                    "status": "WITHDRAWN",
                    "city": "Craiova",
                    "zip": "200542",
                    "country": "Romania",
                    "geoPoint": {
                        "lat": 44.31667,
                        "lon": 23.8
                    }
                },
                {
                    "facility": "Spitalul Clinic Judetean de Urgenta Oradea",
                    "status": "WITHDRAWN",
                    "city": "Oradea",
                    "zip": "410159",
                    "country": "Romania",
                    "geoPoint": {
                        "lat": 47.0458,
                        "lon": 21.91833
                    }
                },
                {
                    "facility": "Spitalul Clinic Judetean Mures",
                    "status": "ACTIVE_NOT_RECRUITING",
                    "city": "Targu-Mures",
                    "zip": "540103",
                    "country": "Romania",
                    "geoPoint": {
                        "lat": 46.54245,
                        "lon": 24.55747
                    }
                },
                {
                    "facility": "Ltd \"EVIMED\"",
                    "status": "RECRUITING",
                    "city": "Chelyabinsk",
                    "zip": "454048",
                    "country": "Russian Federation",
                    "geoPoint": {
                        "lat": 55.15402,
                        "lon": 61.42915
                    }
                },
                {
                    "facility": "Chelyabinsk Regional Oncology Dispensary",
                    "status": "ACTIVE_NOT_RECRUITING",
                    "city": "Chelyabinsk",
                    "zip": "454087",
                    "country": "Russian Federation",
                    "geoPoint": {
                        "lat": 55.15402,
                        "lon": 61.42915
                    }
                },
                {
                    "facility": "Ivanovo Regional Oncology Dispensary",
                    "status": "RECRUITING",
                    "city": "Ivanovo",
                    "zip": "153040",
                    "country": "Russian Federation",
                    "geoPoint": {
                        "lat": 56.99719,
                        "lon": 40.97139
                    }
                },
                {
                    "facility": "Republican Clinical Oncology Dispensary Kazan",
                    "status": "COMPLETED",
                    "city": "Kazan",
                    "zip": "420029",
                    "country": "Russian Federation",
                    "geoPoint": {
                        "lat": 55.78874,
                        "lon": 49.12214
                    }
                },
                {
                    "facility": "Krasnoyarsk Regional Clinical Oncology Dispensary",
                    "status": "ACTIVE_NOT_RECRUITING",
                    "city": "Krasnoyarsk",
                    "zip": "660133",
                    "country": "Russian Federation",
                    "geoPoint": {
                        "lat": 56.01839,
                        "lon": 92.86717
                    }
                },
                {
                    "facility": "Russian Oncological Scientific Center n.a. N.N. Blokhin RAMS",
                    "status": "ACTIVE_NOT_RECRUITING",
                    "city": "Moscow",
                    "zip": "115552",
                    "country": "Russian Federation",
                    "geoPoint": {
                        "lat": 55.75222,
                        "lon": 37.61556
                    }
                },
                {
                    "facility": "Moscow Scient. Res. Institute of Oncology n.a P.A. Hertzen",
                    "status": "ACTIVE_NOT_RECRUITING",
                    "city": "Moscow",
                    "zip": "125284",
                    "country": "Russian Federation",
                    "geoPoint": {
                        "lat": 55.75222,
                        "lon": 37.61556
                    }
                },
                {
                    "facility": "City clinical hospital #40 Moscow",
                    "status": "WITHDRAWN",
                    "city": "Moscow",
                    "zip": "129301",
                    "country": "Russian Federation",
                    "geoPoint": {
                        "lat": 55.75222,
                        "lon": 37.61556
                    }
                },
                {
                    "facility": "City Outpatient Clinic #1 of Privolzhsky Regional Med. Cent.",
                    "status": "COMPLETED",
                    "city": "Nizhny Novgorod",
                    "zip": "603001",
                    "country": "Russian Federation",
                    "geoPoint": {
                        "lat": 56.32867,
                        "lon": 44.00205
                    }
                },
                {
                    "facility": "Medical Center \"Avicenna\"",
                    "status": "RECRUITING",
                    "city": "Novosibirsk",
                    "zip": "630007",
                    "country": "Russian Federation",
                    "geoPoint": {
                        "lat": 55.0415,
                        "lon": 82.9346
                    }
                },
                {
                    "facility": "LLC Reafan",
                    "status": "COMPLETED",
                    "city": "Novosibirsk",
                    "zip": "630099",
                    "country": "Russian Federation",
                    "geoPoint": {
                        "lat": 55.0415,
                        "lon": 82.9346
                    }
                },
                {
                    "facility": "National Medical Research Radiology Center",
                    "status": "COMPLETED",
                    "city": "Obninsk",
                    "zip": "249036",
                    "country": "Russian Federation",
                    "geoPoint": {
                        "lat": 55.09681,
                        "lon": 36.61006
                    }
                },
                {
                    "facility": "Clinical Oncological Dispensary of Omsk Region",
                    "status": "RECRUITING",
                    "city": "Omsk",
                    "zip": "644013",
                    "country": "Russian Federation",
                    "geoPoint": {
                        "lat": 54.99244,
                        "lon": 73.36859
                    }
                },
                {
                    "facility": "Rostov State Medical University",
                    "status": "WITHDRAWN",
                    "city": "Rostov-on-Don",
                    "zip": "344022",
                    "country": "Russian Federation",
                    "geoPoint": {
                        "lat": 47.23135,
                        "lon": 39.72328
                    }
                },
                {
                    "facility": "Saratov State Medical University",
                    "status": "ACTIVE_NOT_RECRUITING",
                    "city": "Saratov",
                    "zip": "410054",
                    "country": "Russian Federation",
                    "geoPoint": {
                        "lat": 51.54056,
                        "lon": 46.00861
                    }
                },
                {
                    "facility": "Leningrad Regional Oncology Dispensary",
                    "status": "ACTIVE_NOT_RECRUITING",
                    "city": "St. Petersburg",
                    "zip": "188663",
                    "country": "Russian Federation",
                    "geoPoint": {
                        "lat": 59.93863,
                        "lon": 30.31413
                    }
                },
                {
                    "facility": "St. Petersburg Clinical Hospital of RAS",
                    "status": "WITHDRAWN",
                    "city": "St. Petersburg",
                    "zip": "194017",
                    "country": "Russian Federation",
                    "geoPoint": {
                        "lat": 59.93863,
                        "lon": 30.31413
                    }
                },
                {
                    "facility": "St. Petersburg Medical University n.a. I.P. Pavlov",
                    "status": "WITHDRAWN",
                    "city": "St. Petersburg",
                    "zip": "197022",
                    "country": "Russian Federation",
                    "geoPoint": {
                        "lat": 59.93863,
                        "lon": 30.31413
                    }
                },
                {
                    "facility": "Multi-Field Clinical Medical Center \"Medical City\"",
                    "status": "RECRUITING",
                    "city": "Tyumen",
                    "zip": "625041",
                    "country": "Russian Federation",
                    "geoPoint": {
                        "lat": 57.15222,
                        "lon": 65.52722
                    }
                },
                {
                    "facility": "Regional Clinical Oncology Dispensary",
                    "status": "ACTIVE_NOT_RECRUITING",
                    "city": "Vladimir",
                    "zip": "600009",
                    "country": "Russian Federation",
                    "geoPoint": {
                        "lat": 56.13655,
                        "lon": 40.39658
                    }
                },
                {
                    "facility": "Clinical Hospital Center Bezanijska kosa",
                    "status": "COMPLETED",
                    "city": "Belgrade",
                    "zip": "11080",
                    "country": "Serbia",
                    "geoPoint": {
                        "lat": 44.80401,
                        "lon": 20.46513
                    }
                },
                {
                    "facility": "Clinical Center Nis",
                    "status": "ACTIVE_NOT_RECRUITING",
                    "city": "Nis",
                    "zip": "18000",
                    "country": "Serbia",
                    "geoPoint": {
                        "lat": 43.32472,
                        "lon": 21.90333
                    }
                },
                {
                    "facility": "J. BREZA MEDICAL s. r. o.",
                    "status": "COMPLETED",
                    "city": "Bratislava",
                    "zip": "851 01",
                    "country": "Slovakia",
                    "geoPoint": {
                        "lat": 48.14816,
                        "lon": 17.10674
                    }
                },
                {
                    "facility": "CUIMED s.r.o",
                    "status": "COMPLETED",
                    "city": "Bratislava",
                    "zip": "85101",
                    "country": "Slovakia",
                    "geoPoint": {
                        "lat": 48.14816,
                        "lon": 17.10674
                    }
                },
                {
                    "facility": "Privatna urologicka ambulancia, s.r.o.",
                    "status": "WITHDRAWN",
                    "city": "Trencin",
                    "zip": "91101",
                    "country": "Slovakia",
                    "geoPoint": {
                        "lat": 48.89452,
                        "lon": 18.04436
                    }
                },
                {
                    "facility": "Cancercare Outeniqua",
                    "status": "RECRUITING",
                    "city": "George",
                    "state": "Eastern Cape",
                    "zip": "6530",
                    "country": "South Africa",
                    "geoPoint": {
                        "lat": -33.963,
                        "lon": 22.46173
                    }
                },
                {
                    "facility": "Dept Radiation and Oncology Tygerberg Academic Hospital",
                    "status": "RECRUITING",
                    "city": "Cape Town",
                    "state": "Western Cape",
                    "zip": "7505",
                    "country": "South Africa",
                    "geoPoint": {
                        "lat": -33.92584,
                        "lon": 18.42322
                    }
                },
                {
                    "facility": "Cancercare Rondebosch Oncology",
                    "status": "RECRUITING",
                    "city": "Rondebosch",
                    "state": "Western Cape",
                    "zip": "7700",
                    "country": "South Africa",
                    "geoPoint": {
                        "lat": -33.96333,
                        "lon": 18.47639
                    }
                },
                {
                    "facility": "Hospital General de Elche",
                    "status": "COMPLETED",
                    "city": "Elche",
                    "state": "Alicante",
                    "zip": "3203",
                    "country": "Spain",
                    "geoPoint": {
                        "lat": 38.26218,
                        "lon": -0.70107
                    }
                },
                {
                    "facility": "Hospital Universitari de Bellvitge | Bellvitge Biomedical Research Institute - Cardiology - AF, Stroke Prevention",
                    "status": "COMPLETED",
                    "city": "L'Hospitalet de Llobregat",
                    "state": "Barcelona",
                    "zip": "08907",
                    "country": "Spain",
                    "geoPoint": {
                        "lat": 41.35967,
                        "lon": 2.10028
                    }
                },
                {
                    "facility": "Corporaci\u00f3 Sanit\u00e0ria Parc Taul\u00ed",
                    "status": "COMPLETED",
                    "city": "Sabadell",
                    "state": "Barcelona",
                    "zip": "08208",
                    "country": "Spain",
                    "geoPoint": {
                        "lat": 41.54329,
                        "lon": 2.10942
                    }
                },
                {
                    "facility": "Hospital SAS de Jerez de la Frontera",
                    "status": "WITHDRAWN",
                    "city": "Jerez de la Frontera",
                    "state": "C\u00e1diz",
                    "zip": "11407",
                    "country": "Spain",
                    "geoPoint": {
                        "lat": 36.68645,
                        "lon": -6.13606
                    }
                },
                {
                    "facility": "Hospital de Manacor",
                    "status": "COMPLETED",
                    "city": "Manacor",
                    "state": "Illes Baleares",
                    "zip": "7500",
                    "country": "Spain",
                    "geoPoint": {
                        "lat": 39.56964,
                        "lon": 3.20955
                    }
                },
                {
                    "facility": "Hospital Universitari Son Espases",
                    "status": "ACTIVE_NOT_RECRUITING",
                    "city": "Palma de Mallorca",
                    "state": "Illes Baleares",
                    "zip": "07120",
                    "country": "Spain",
                    "geoPoint": {
                        "lat": 39.56939,
                        "lon": 2.65024
                    }
                },
                {
                    "facility": "Fundaci\u00f3n Hospital Alcorc\u00f3n",
                    "status": "COMPLETED",
                    "city": "Alcorc\u00f3n",
                    "state": "Madrid",
                    "zip": "28922",
                    "country": "Spain",
                    "geoPoint": {
                        "lat": 40.34582,
                        "lon": -3.82487
                    }
                },
                {
                    "facility": "Hospital del Mar",
                    "status": "COMPLETED",
                    "city": "Barcelona",
                    "zip": "08003",
                    "country": "Spain",
                    "geoPoint": {
                        "lat": 41.38879,
                        "lon": 2.15899
                    }
                },
                {
                    "facility": "Ciutat Sanitaria i Universitaria de la Vall d'Hebron",
                    "status": "ACTIVE_NOT_RECRUITING",
                    "city": "Barcelona",
                    "zip": "08035",
                    "country": "Spain",
                    "geoPoint": {
                        "lat": 41.38879,
                        "lon": 2.15899
                    }
                },
                {
                    "facility": "Hospital Cl\u00ednic i Provincial de Barcelona",
                    "status": "COMPLETED",
                    "city": "Barcelona",
                    "zip": "08036",
                    "country": "Spain",
                    "geoPoint": {
                        "lat": 41.38879,
                        "lon": 2.15899
                    }
                },
                {
                    "facility": "Hospital de la Santa Creu i de Sant Pau | Oncolog\u00eda",
                    "status": "ACTIVE_NOT_RECRUITING",
                    "city": "Barcelona",
                    "zip": "8041",
                    "country": "Spain",
                    "geoPoint": {
                        "lat": 41.38879,
                        "lon": 2.15899
                    }
                },
                {
                    "facility": "Hospital San Pedro de Alc\u00e1ntara",
                    "status": "COMPLETED",
                    "city": "C\u00e1ceres",
                    "zip": "10003",
                    "country": "Spain",
                    "geoPoint": {
                        "lat": 39.47649,
                        "lon": -6.37224
                    }
                },
                {
                    "facility": "Hospital Reina Sof\u00eda",
                    "status": "COMPLETED",
                    "city": "C\u00f3rdoba",
                    "zip": "14004",
                    "country": "Spain",
                    "geoPoint": {
                        "lat": 37.89155,
                        "lon": -4.77275
                    }
                },
                {
                    "facility": "Hospital Lucus August\u00ed",
                    "status": "COMPLETED",
                    "city": "Lugo",
                    "zip": "27003",
                    "country": "Spain",
                    "geoPoint": {
                        "lat": 43.00992,
                        "lon": -7.55602
                    }
                },
                {
                    "facility": "Hospital General Universitario Gregorio Maranon | Oncologia",
                    "status": "COMPLETED",
                    "city": "Madrid",
                    "zip": "28009",
                    "country": "Spain",
                    "geoPoint": {
                        "lat": 40.4165,
                        "lon": -3.70256
                    }
                },
                {
                    "facility": "Hospital Ram\u00f3n y Cajal | Oncolog\u00eda",
                    "status": "COMPLETED",
                    "city": "Madrid",
                    "zip": "28034",
                    "country": "Spain",
                    "geoPoint": {
                        "lat": 40.4165,
                        "lon": -3.70256
                    }
                },
                {
                    "facility": "Fundacion Jimenez Diaz (Clinica de la Concepcion)",
                    "status": "COMPLETED",
                    "city": "Madrid",
                    "zip": "28040",
                    "country": "Spain",
                    "geoPoint": {
                        "lat": 40.4165,
                        "lon": -3.70256
                    }
                },
                {
                    "facility": "Hospital Clinico Universitario San Carlos | Oncologia",
                    "status": "COMPLETED",
                    "city": "Madrid",
                    "zip": "28040",
                    "country": "Spain",
                    "geoPoint": {
                        "lat": 40.4165,
                        "lon": -3.70256
                    }
                },
                {
                    "facility": "Hospital Universitario 12 de Octubre",
                    "status": "COMPLETED",
                    "city": "Madrid",
                    "zip": "28041",
                    "country": "Spain",
                    "geoPoint": {
                        "lat": 40.4165,
                        "lon": -3.70256
                    }
                },
                {
                    "facility": "Hospital Universitario Virgen de la Victoria | Oncology",
                    "status": "COMPLETED",
                    "city": "M\u00e1laga",
                    "zip": "29010",
                    "country": "Spain",
                    "geoPoint": {
                        "lat": 36.72016,
                        "lon": -4.42034
                    }
                },
                {
                    "facility": "Hospital Cl\u00ednico de Salamanca",
                    "status": "WITHDRAWN",
                    "city": "Salamanca",
                    "zip": "37007",
                    "country": "Spain",
                    "geoPoint": {
                        "lat": 40.96882,
                        "lon": -5.66388
                    }
                },
                {
                    "facility": "H Virgen del Rocio |Cardiology|AF|Stroke prevention",
                    "status": "COMPLETED",
                    "city": "Sevilla",
                    "zip": "41013",
                    "country": "Spain",
                    "geoPoint": {
                        "lat": 37.38283,
                        "lon": -5.97317
                    }
                },
                {
                    "facility": "Instituto Valenciano de Oncolog\u00eda",
                    "status": "COMPLETED",
                    "city": "Valencia",
                    "zip": "46009",
                    "country": "Spain",
                    "geoPoint": {
                        "lat": 39.46975,
                        "lon": -0.37739
                    }
                },
                {
                    "facility": "Hospital Arnau de Vilanova de Valencia",
                    "status": "COMPLETED",
                    "city": "Valencia",
                    "zip": "46015",
                    "country": "Spain",
                    "geoPoint": {
                        "lat": 39.46975,
                        "lon": -0.37739
                    }
                },
                {
                    "facility": "Sahlgrenska Universitetssjukhuset",
                    "status": "COMPLETED",
                    "city": "G\u00f6teborg",
                    "zip": "413 45",
                    "country": "Sweden",
                    "geoPoint": {
                        "lat": 57.70716,
                        "lon": 11.96679
                    }
                },
                {
                    "facility": "Sk\u00e5nes Universitetssjukhus Malm\u00f6",
                    "status": "WITHDRAWN",
                    "city": "Malm\u00f6",
                    "zip": "205 02",
                    "country": "Sweden",
                    "geoPoint": {
                        "lat": 55.60587,
                        "lon": 13.00073
                    }
                },
                {
                    "facility": "Karolinska Universitetssjukhuset",
                    "status": "COMPLETED",
                    "city": "Stockholm",
                    "zip": "171 64",
                    "country": "Sweden",
                    "geoPoint": {
                        "lat": 59.33258,
                        "lon": 18.0649
                    }
                },
                {
                    "facility": "Norrlands Universitetssjukhus, Umea",
                    "status": "COMPLETED",
                    "city": "Umea",
                    "zip": "901 85",
                    "country": "Sweden",
                    "geoPoint": {
                        "lat": 63.82842,
                        "lon": 20.25972
                    }
                },
                {
                    "facility": "Akademiska Sjukhuset",
                    "status": "COMPLETED",
                    "city": "Uppsala",
                    "zip": "751 85",
                    "country": "Sweden",
                    "geoPoint": {
                        "lat": 59.85882,
                        "lon": 17.63889
                    }
                },
                {
                    "facility": "Kaohsiung Medical University Chung-Ho Memorial Hospital",
                    "status": "ACTIVE_NOT_RECRUITING",
                    "city": "Kaohsiung City",
                    "state": "Kaohsiung",
                    "zip": "807377",
                    "country": "Taiwan",
                    "geoPoint": {
                        "lat": 22.61626,
                        "lon": 120.31333
                    }
                },
                {
                    "facility": "China Medical University Hospital",
                    "status": "ACTIVE_NOT_RECRUITING",
                    "city": "Taichung",
                    "zip": "404327",
                    "country": "Taiwan",
                    "geoPoint": {
                        "lat": 24.1469,
                        "lon": 120.6839
                    }
                },
                {
                    "facility": "Taichung Veterans General Hospital",
                    "status": "ACTIVE_NOT_RECRUITING",
                    "city": "Taichung",
                    "zip": "40705",
                    "country": "Taiwan",
                    "geoPoint": {
                        "lat": 24.1469,
                        "lon": 120.6839
                    }
                },
                {
                    "facility": "National Taiwan University Hospital",
                    "status": "ACTIVE_NOT_RECRUITING",
                    "city": "Taipei",
                    "zip": "100",
                    "country": "Taiwan",
                    "geoPoint": {
                        "lat": 25.04776,
                        "lon": 121.53185
                    }
                },
                {
                    "facility": "Taipei Veterans General Hospital",
                    "status": "ACTIVE_NOT_RECRUITING",
                    "city": "Taipei",
                    "zip": "11217",
                    "country": "Taiwan",
                    "geoPoint": {
                        "lat": 25.04776,
                        "lon": 121.53185
                    }
                },
                {
                    "facility": "Chang Gung Memorial Hospital at Linkou",
                    "status": "ACTIVE_NOT_RECRUITING",
                    "city": "Taoyuan",
                    "zip": "33305",
                    "country": "Taiwan",
                    "geoPoint": {
                        "lat": 24.95233,
                        "lon": 121.20193
                    }
                },
                {
                    "facility": "Gazi Universitesi Tip Fakultesi",
                    "status": "ACTIVE_NOT_RECRUITING",
                    "city": "Ankara",
                    "zip": "06500",
                    "country": "Turkey",
                    "geoPoint": {
                        "lat": 39.91987,
                        "lon": 32.85427
                    }
                },
                {
                    "facility": "TC Saglik Bakanligi Goztepe ProfDr Suleyman Yalcin Sehir Has",
                    "status": "WITHDRAWN",
                    "city": "Istanbul",
                    "zip": "34724",
                    "country": "Turkey",
                    "geoPoint": {
                        "lat": 41.01384,
                        "lon": 28.94966
                    }
                },
                {
                    "facility": "Bukovinian State Medical University",
                    "status": "ACTIVE_NOT_RECRUITING",
                    "city": "Chernivtsi",
                    "zip": "58002",
                    "country": "Ukraine",
                    "geoPoint": {
                        "lat": 48.29149,
                        "lon": 25.94034
                    }
                },
                {
                    "facility": "City Dnipropetrovsk Multi- field Clinical Hosp. 4 DSMA",
                    "status": "RECRUITING",
                    "city": "Dnipro",
                    "zip": "49102",
                    "country": "Ukraine",
                    "geoPoint": {
                        "lat": 48.4593,
                        "lon": 35.03864
                    }
                },
                {
                    "facility": "Kharkiv regional Clinical Centre of urology and nephrology",
                    "status": "ACTIVE_NOT_RECRUITING",
                    "city": "Kharkiv",
                    "zip": "61037",
                    "country": "Ukraine",
                    "geoPoint": {
                        "lat": 49.98081,
                        "lon": 36.25272
                    }
                },
                {
                    "facility": "Academy of Medical Science of Ukraine",
                    "status": "RECRUITING",
                    "city": "Kyiv",
                    "zip": "252053",
                    "country": "Ukraine",
                    "geoPoint": {
                        "lat": 50.45466,
                        "lon": 30.5238
                    }
                },
                {
                    "facility": "Kyiv City Hospital #3",
                    "status": "ACTIVE_NOT_RECRUITING",
                    "city": "Kyiv",
                    "zip": "2660",
                    "country": "Ukraine",
                    "geoPoint": {
                        "lat": 50.45466,
                        "lon": 30.5238
                    }
                },
                {
                    "facility": "Transkarpathian Regional Oncology Center",
                    "status": "ACTIVE_NOT_RECRUITING",
                    "city": "Uzhgorod",
                    "zip": "88014",
                    "country": "Ukraine",
                    "geoPoint": {
                        "lat": 48.61667,
                        "lon": 22.3
                    }
                },
                {
                    "facility": "Royal Berkshire Hospital",
                    "status": "ACTIVE_NOT_RECRUITING",
                    "city": "Reading",
                    "state": "Berkshire",
                    "zip": "RG1 5AN",
                    "country": "United Kingdom",
                    "geoPoint": {
                        "lat": 51.45625,
                        "lon": -0.97113
                    }
                },
                {
                    "facility": "Prince Philip Hospital",
                    "status": "COMPLETED",
                    "city": "Llanelli",
                    "state": "Carmarthenshire",
                    "zip": "SA14 8QF",
                    "country": "United Kingdom",
                    "geoPoint": {
                        "lat": 51.68195,
                        "lon": -4.16191
                    }
                },
                {
                    "facility": "Colchester General Hospital",
                    "status": "ACTIVE_NOT_RECRUITING",
                    "city": "Colchester",
                    "state": "Essex",
                    "zip": "CO45JR",
                    "country": "United Kingdom",
                    "geoPoint": {
                        "lat": 51.88921,
                        "lon": 0.90421
                    }
                },
                {
                    "facility": "Clatterbridge Centre for Oncology",
                    "status": "COMPLETED",
                    "city": "Bebington",
                    "state": "Merseyside",
                    "zip": "CH63 4JY",
                    "country": "United Kingdom",
                    "geoPoint": {
                        "lat": 53.35,
                        "lon": -3.01667
                    }
                },
                {
                    "facility": "Scunthorpe General Hospital",
                    "status": "COMPLETED",
                    "city": "Scunthorpe",
                    "state": "North East Lincolnshire",
                    "zip": "DN15 7BH",
                    "country": "United Kingdom",
                    "geoPoint": {
                        "lat": 53.57905,
                        "lon": -0.65437
                    }
                },
                {
                    "facility": "Russells Hall Hospital",
                    "status": "COMPLETED",
                    "city": "Dudley",
                    "state": "West Midlands",
                    "zip": "DY1 2HQ",
                    "country": "United Kingdom",
                    "geoPoint": {
                        "lat": 52.5,
                        "lon": -2.08333
                    }
                },
                {
                    "facility": "Huddersfield Royal Infirmary",
                    "status": "ACTIVE_NOT_RECRUITING",
                    "city": "Huddersfield",
                    "state": "West Yorkshire",
                    "zip": "HD3 3EA",
                    "country": "United Kingdom",
                    "geoPoint": {
                        "lat": 53.64904,
                        "lon": -1.78416
                    }
                },
                {
                    "facility": "Pinderfields Hospital The Mid Yorkshire Hospitals NHS Trust",
                    "status": "COMPLETED",
                    "city": "Wakefield",
                    "state": "West Yorkshire",
                    "zip": "WF1 4DG",
                    "country": "United Kingdom",
                    "geoPoint": {
                        "lat": 53.68331,
                        "lon": -1.49768
                    }
                },
                {
                    "facility": "University Hospital of Wales",
                    "status": "COMPLETED",
                    "city": "Cardiff",
                    "zip": "CF14 4XW",
                    "country": "United Kingdom",
                    "geoPoint": {
                        "lat": 51.48,
                        "lon": -3.18
                    }
                },
                {
                    "facility": "Beatson West of Scotland Cancer Centre",
                    "status": "COMPLETED",
                    "city": "Glasgow",
                    "zip": "G12 0YN",
                    "country": "United Kingdom",
                    "geoPoint": {
                        "lat": 55.86515,
                        "lon": -4.25763
                    }
                },
                {
                    "facility": "University College London Hospitals NHS Foundation Trust",
                    "status": "COMPLETED",
                    "city": "London",
                    "zip": "W1T 7HA",
                    "country": "United Kingdom",
                    "geoPoint": {
                        "lat": 51.50853,
                        "lon": -0.12574
                    }
                },
                {
                    "facility": "Charing Cross Hospital",
                    "status": "COMPLETED",
                    "city": "London",
                    "zip": "W6 8RF",
                    "country": "United Kingdom",
                    "geoPoint": {
                        "lat": 51.50853,
                        "lon": -0.12574
                    }
                }
            ]
        },
        "referencesModule": {
            "seeAlsoLinks": [
                {
                    "label": "Click here to find information for studies related to Bayer products. To find this study enter the ClinicalTrials.gov identifier (NCT) number or Bayer Study Identifier (ID) in the search field.",
                    "url": "https://clinicaltrials.bayer.com/"
                }
            ]
        },
        "ipdSharingStatementModule": {
            "ipdSharing": "NO",
            "description": "Availability of this study's data will later be determined according to Bayer's commitment to the EFPIA/PhRMA \"Principles for responsible clinical trial data sharing\". This pertains to scope, timepoint and process of data access. As such, Bayer commits to sharing upon request from qualified researchers patient-level clinical trial data, study-level clinical trial data, and protocols from clinical trials in patients for medicines and indications approved in the US and EU as necessary for conducting legitimate research. This applies to data on new medicines and indications that have been approved by the EU and US regulatory agencies on or after January 01, 2014.\n\nInterested researchers can use www.vivli.org to request access to anonymized patient-level data and supporting documents from clinical studies to conduct research. Information on the Bayer criteria for listing studies and other relevant information is provided in the member section of the portal."
        }
    },
    "derivedSection": {
        "miscInfoModule": {
            "versionHolder": "2024-07-30"
        }
    },
    "hasResults": false
}