{
    "protocolSection": {
        "identificationModule": {
            "nctId": "NCT05696392",
            "orgStudyIdInfo": {
                "id": "INCB 18424-902"
            },
            "organization": {
                "fullName": "Incyte Corporation",
                "class": "INDUSTRY"
            },
            "briefTitle": "The Purpose of This Study is to Evaluate the Effects of Ruxolitinib Cream on Adults With Atopic Dermatitis Experiencing Sleep Disturbance.",
            "officialTitle": "An Open-Label, Single-Arm, Phase 4 Study of Ruxolitinib Cream in Adults With Atopic Dermatitis Experiencing Sleep Disturbance in the United States (MORPHEUS)",
            "acronym": "MORPHEUS",
            "therapeuticArea": [
                "Dermatology"
            ],
            "study": "the-purpose-of-this-study-is-to-evaluate-the-effects-of-ruxolitinib-cream-on-adults-with-atopic-dermatitis-experiencing-sleep-disturbance"
        },
        "statusModule": {
            "statusVerifiedDate": "2024-07",
            "overallStatus": "RECRUITING",
            "expandedAccessInfo": {
                "hasExpandedAccess": false
            },
            "startDateStruct": {
                "date": "2023-03-16",
                "type": "ACTUAL"
            },
            "primaryCompletionDateStruct": {
                "date": "2024-09-27",
                "type": "ESTIMATED"
            },
            "completionDateStruct": {
                "date": "2024-09-27",
                "type": "ESTIMATED"
            },
            "studyFirstSubmitDate": "2023-01-13",
            "studyFirstSubmitQcDate": "2023-01-13",
            "studyFirstPostDateStruct": {
                "date": "2023-01-25",
                "type": "ACTUAL"
            },
            "lastUpdateSubmitDate": "2024-07-24",
            "lastUpdatePostDateStruct": {
                "date": "2024-07-26",
                "type": "ACTUAL"
            }
        },
        "sponsorCollaboratorsModule": {
            "responsibleParty": {
                "type": "SPONSOR"
            },
            "leadSponsor": {
                "name": "Incyte Corporation",
                "class": "INDUSTRY"
            }
        },
        "oversightModule": {
            "oversightHasDmc": false,
            "isFdaRegulatedDrug": true,
            "isFdaRegulatedDevice": false
        },
        "descriptionModule": {
            "briefSummary": "The purpose of the study is to evaluate the effect of ruxolitinib cream on sleep disturbances with participants with Atopic Dermatitis."
        },
        "conditionsModule": {
            "conditions": [
                "Atopic Dermatitis"
            ],
            "keywords": [
                "ruoltitinib",
                "atopic dermatitis",
                "sleep distubance",
                "itch",
                "Opzelura"
            ]
        },
        "designModule": {
            "studyType": "INTERVENTIONAL",
            "phases": [
                "PHASE4"
            ],
            "designInfo": {
                "allocation": "NA",
                "interventionModel": "SINGLE_GROUP",
                "primaryPurpose": "TREATMENT",
                "maskingInfo": {
                    "masking": "NONE"
                }
            },
            "enrollmentInfo": {
                "count": 100,
                "type": "ESTIMATED"
            }
        },
        "armsInterventionsModule": {
            "armGroups": [
                {
                    "label": "Treatment Group: Ruxolitinib",
                    "type": "EXPERIMENTAL",
                    "description": "ruxolitinib cream 1.5% will be applied twice daily (BID) as a thin film.",
                    "interventionNames": [
                        "Drug: ruxolitinib cream"
                    ]
                }
            ],
            "interventions": [
                {
                    "type": "DRUG",
                    "name": "ruxolitinib cream",
                    "description": "ruxolitinib cream 1.5% will be applied twice daily as a thin film",
                    "armGroupLabels": [
                        "Treatment Group: Ruxolitinib"
                    ],
                    "otherNames": [
                        "INCB018424"
                    ]
                }
            ]
        },
        "outcomesModule": {
            "primaryOutcomes": [
                {
                    "measure": "Change from baseline in Total Sleep Time (TST)",
                    "description": "Total sleep time (TST) is the total amount of time spent during a planned sleep episode. TST will be measured by the \u014cura Ring wearable device.",
                    "timeFrame": "Week 8"
                }
            ],
            "secondaryOutcomes": [
                {
                    "measure": "Change from baseline in PROMIS Sleep Disturbance",
                    "description": "PROMIS sleep disturbance will be measured by a questionnaire which includes a 5-point scale with a range in score from 8 to 40, with higher scores indicating greater severity of sleep disturbance.",
                    "timeFrame": "Week 8"
                }
            ]
        },
        "eligibilityModule": {
            "eligibilityCriteria": "Inclusion Criteria:\n\n* Has clinically confirmed diagnosis of active AD according to Hanifin and Rajka (1980) criteria.\n* Has at least a 2-year history of AD (information obtained from medical chart, participant's physician, or directly from the participant).\n* Has an overall BSA affected by AD of 3%-20% (excluding scalp) at the screening and baseline visits.\n* Has an IGA score \u2265 2 at the screening and baseline visits.\n* Has an Itch NRS score \u2265 4 at the screening and baseline visits.\n* Willing to complete the once-daily Itch NRS (24-hour recall period) entries at approximately the same time each day during the study.\n* Agrees to maintain a regular sleep schedule during the study period.\n* Willing and able to follow required study procedures for measuring sleep for the duration of the study.\n\nExclusion Criteria:\n\n* Currently using a wearable or other device for monitoring sleep patterns and unwilling to discontinue its use during the study.\n* Currently has a schedule that includes nighttime work shifts.\n* Has had significant flares or unstable course in AD (ie, condition worsened significantly or required significant change in medications, as per medical judgment) in the previous 4 weeks before screening (information obtained from medical chart, participant's physician, or directly from the participant).\n* Has received any ultraviolet B phototherapy (including tanning beds) or excimer laser within 4 weeks prior to the screening period.\n* Has had psoralen plus ultraviolet A treatment within 4 weeks prior to the screening period.\n* Has received a nonbiological investigational product or device within 4 weeks prior to the screening period, or is currently enrolled in another investigational drug study.\n* Has received treatment with JAK inhibitors (systemic or topical) within 4 weeks prior to the screening period.\n* Has had prior treatment with a JAK inhibitor that was discontinued for safety reasons or tolerance problems.\n* Has a known or suspected allergy to ruxolitinib or any component of the study drug.",
            "healthyVolunteers": false,
            "sex": "ALL",
            "minimumAge": "18 Years",
            "stdAges": [
                "ADULT",
                "OLDER_ADULT"
            ]
        },
        "contactsLocationsModule": {
            "centralContacts": [
                {
                    "name": "Incyte Corporation Call Center (US)",
                    "role": "CONTACT",
                    "phone": "1.855.463.3463",
                    "email": "medinfo@incyte.com"
                },
                {
                    "name": "Incyte Corporation Call Center (ex-US)",
                    "role": "CONTACT",
                    "phone": "+800 00027423",
                    "email": "eumedinfo@incyte.com"
                }
            ],
            "locations": [
                {
                    "facility": "First Oc Dermatology",
                    "status": "RECRUITING",
                    "city": "Fountain Valley",
                    "state": "California",
                    "zip": "92708",
                    "country": "United States",
                    "geoPoint": {
                        "lat": 33.70918,
                        "lon": -117.95367
                    }
                },
                {
                    "facility": "Ark Clinical Research",
                    "status": "RECRUITING",
                    "city": "Long Beach",
                    "state": "California",
                    "zip": "90815",
                    "country": "United States",
                    "geoPoint": {
                        "lat": 33.76696,
                        "lon": -118.18923
                    }
                },
                {
                    "facility": "The Gw Medical Faculty Associates",
                    "status": "RECRUITING",
                    "city": "Washington",
                    "state": "District of Columbia",
                    "zip": "20037",
                    "country": "United States",
                    "geoPoint": {
                        "lat": 38.89511,
                        "lon": -77.03637
                    }
                },
                {
                    "facility": "Skin Care Research, Llc",
                    "status": "RECRUITING",
                    "city": "Boca Raton",
                    "state": "Florida",
                    "zip": "33486",
                    "country": "United States",
                    "geoPoint": {
                        "lat": 26.3669,
                        "lon": -80.13033
                    }
                },
                {
                    "facility": "Trueblue Clinical Research",
                    "status": "RECRUITING",
                    "city": "Brandon",
                    "state": "Florida",
                    "zip": "33511",
                    "country": "United States",
                    "geoPoint": {
                        "lat": 27.9378,
                        "lon": -82.28592
                    }
                },
                {
                    "facility": "Driven Research Llc",
                    "status": "COMPLETED",
                    "city": "Coral Gables",
                    "state": "Florida",
                    "zip": "33134",
                    "country": "United States",
                    "geoPoint": {
                        "lat": 25.72149,
                        "lon": -80.26838
                    }
                },
                {
                    "facility": "University of Florida Health Dermatology-Springhill",
                    "status": "RECRUITING",
                    "city": "Gainesville",
                    "state": "Florida",
                    "zip": "32606",
                    "country": "United States",
                    "geoPoint": {
                        "lat": 29.65163,
                        "lon": -82.32483
                    }
                },
                {
                    "facility": "Skin Care Research, Llc Scr Hollywood",
                    "status": "RECRUITING",
                    "city": "Hollywood",
                    "state": "Florida",
                    "zip": "33021",
                    "country": "United States",
                    "geoPoint": {
                        "lat": 26.0112,
                        "lon": -80.14949
                    }
                },
                {
                    "facility": "Ciocca Dermatology Pa",
                    "status": "RECRUITING",
                    "city": "Miami",
                    "state": "Florida",
                    "zip": "33173",
                    "country": "United States",
                    "geoPoint": {
                        "lat": 25.77427,
                        "lon": -80.19366
                    }
                },
                {
                    "facility": "Dermatology Specialists Research Indiana",
                    "status": "RECRUITING",
                    "city": "Clarksville",
                    "state": "Indiana",
                    "zip": "47129",
                    "country": "United States",
                    "geoPoint": {
                        "lat": 38.29674,
                        "lon": -85.75996
                    }
                },
                {
                    "facility": "Dawes Fretzin Clinical Research Group Llc",
                    "status": "RECRUITING",
                    "city": "Indianapolis",
                    "state": "Indiana",
                    "zip": "46250",
                    "country": "United States",
                    "geoPoint": {
                        "lat": 39.76838,
                        "lon": -86.15804
                    }
                },
                {
                    "facility": "Skin Sciences Pllc",
                    "status": "RECRUITING",
                    "city": "Louisville",
                    "state": "Kentucky",
                    "zip": "40217",
                    "country": "United States",
                    "geoPoint": {
                        "lat": 38.25424,
                        "lon": -85.75941
                    }
                },
                {
                    "facility": "Northeast Dermatology Associates",
                    "status": "RECRUITING",
                    "city": "Beverly",
                    "state": "Massachusetts",
                    "zip": "01915",
                    "country": "United States",
                    "geoPoint": {
                        "lat": 42.55843,
                        "lon": -70.88005
                    }
                },
                {
                    "facility": "Beth Israel Deaconess Medical Center (Bidmc)",
                    "status": "RECRUITING",
                    "city": "Boston",
                    "state": "Massachusetts",
                    "zip": "02215",
                    "country": "United States",
                    "geoPoint": {
                        "lat": 42.35843,
                        "lon": -71.05977
                    }
                },
                {
                    "facility": "Essential Dermatology",
                    "status": "COMPLETED",
                    "city": "Natick",
                    "state": "Massachusetts",
                    "zip": "01760",
                    "country": "United States",
                    "geoPoint": {
                        "lat": 42.28343,
                        "lon": -71.3495
                    }
                },
                {
                    "facility": "Washington University School of Medicine Dermatology",
                    "status": "RECRUITING",
                    "city": "Saint Louis",
                    "state": "Missouri",
                    "zip": "63110",
                    "country": "United States",
                    "geoPoint": {
                        "lat": 38.62727,
                        "lon": -90.19789
                    }
                },
                {
                    "facility": "Suny Downstate Health Sciences University",
                    "status": "RECRUITING",
                    "city": "Brooklyn",
                    "state": "New York",
                    "zip": "11203",
                    "country": "United States",
                    "geoPoint": {
                        "lat": 40.6501,
                        "lon": -73.94958
                    }
                },
                {
                    "facility": "Empire Dermatology",
                    "status": "RECRUITING",
                    "city": "East Syracuse",
                    "state": "New York",
                    "zip": "13057",
                    "country": "United States",
                    "geoPoint": {
                        "lat": 43.06534,
                        "lon": -76.07853
                    }
                },
                {
                    "facility": "Sadick Dermatology",
                    "status": "RECRUITING",
                    "city": "New York",
                    "state": "New York",
                    "zip": "10075",
                    "country": "United States",
                    "geoPoint": {
                        "lat": 40.71427,
                        "lon": -74.00597
                    }
                },
                {
                    "facility": "Skin Search of Rochester",
                    "status": "RECRUITING",
                    "city": "Rochester",
                    "state": "New York",
                    "zip": "14623",
                    "country": "United States",
                    "geoPoint": {
                        "lat": 43.15478,
                        "lon": -77.61556
                    }
                },
                {
                    "facility": "Ohio Pediatric Research Association",
                    "status": "RECRUITING",
                    "city": "Dayton",
                    "state": "Ohio",
                    "zip": "45414",
                    "country": "United States",
                    "geoPoint": {
                        "lat": 39.75895,
                        "lon": -84.19161
                    }
                },
                {
                    "facility": "Oregon Dermatology and Research Center",
                    "status": "RECRUITING",
                    "city": "Portland",
                    "state": "Oregon",
                    "zip": "97210",
                    "country": "United States",
                    "geoPoint": {
                        "lat": 45.52345,
                        "lon": -122.67621
                    }
                },
                {
                    "facility": "Knight Cancer Institute At Oregon Health and Science University",
                    "status": "RECRUITING",
                    "city": "Portland",
                    "state": "Oregon",
                    "zip": "97239",
                    "country": "United States",
                    "geoPoint": {
                        "lat": 45.52345,
                        "lon": -122.67621
                    }
                },
                {
                    "facility": "University of Pittsburgh Medical Center Upmc Dermatology Clinic Oakland Falk Medical Building",
                    "status": "RECRUITING",
                    "city": "Pittsburgh",
                    "state": "Pennsylvania",
                    "zip": "15213",
                    "country": "United States",
                    "geoPoint": {
                        "lat": 40.44062,
                        "lon": -79.99589
                    }
                },
                {
                    "facility": "Clinical Research Center of the Carolinas",
                    "status": "RECRUITING",
                    "city": "Charleston",
                    "state": "South Carolina",
                    "zip": "29407",
                    "country": "United States",
                    "geoPoint": {
                        "lat": 32.77657,
                        "lon": -79.93092
                    }
                },
                {
                    "facility": "Arlington Research Center",
                    "status": "RECRUITING",
                    "city": "Arlington",
                    "state": "Texas",
                    "zip": "76011",
                    "country": "United States",
                    "geoPoint": {
                        "lat": 32.73569,
                        "lon": -97.10807
                    }
                },
                {
                    "facility": "Jordan Valley Dermatology Center",
                    "status": "RECRUITING",
                    "city": "South Jordan",
                    "state": "Utah",
                    "zip": "84095",
                    "country": "United States",
                    "geoPoint": {
                        "lat": 40.56217,
                        "lon": -111.92966
                    }
                },
                {
                    "facility": "Pi Coor Clinical Research Llc",
                    "status": "NOT_YET_RECRUITING",
                    "city": "Burke",
                    "state": "Virginia",
                    "zip": "22015",
                    "country": "United States",
                    "geoPoint": {
                        "lat": 38.79345,
                        "lon": -77.27165
                    }
                },
                {
                    "facility": "Clinical Research Partners Llc",
                    "status": "COMPLETED",
                    "city": "Richmond",
                    "state": "Virginia",
                    "zip": "23226",
                    "country": "United States",
                    "geoPoint": {
                        "lat": 37.55376,
                        "lon": -77.46026
                    }
                },
                {
                    "facility": "Dermatology Specialists of Spokane",
                    "status": "RECRUITING",
                    "city": "Spokane",
                    "state": "Washington",
                    "zip": "99202",
                    "country": "United States",
                    "geoPoint": {
                        "lat": 47.65966,
                        "lon": -117.42908
                    }
                }
            ]
        },
        "ipdSharingStatementModule": {
            "ipdSharing": "YES",
            "description": "Incyte shares data with qualified external researchers after a research proposal is submitted. These requests are reviewed and approved by a review panel on the basis of scientific merit. All data provided is anonymized to respect the privacy of patients who have participated in the trial in line with applicable laws and regulations.\n\nThe trial data availability is according to the criteria and process described on https://www.incyte.com/our-company/compliance-and-transparency.",
            "infoTypes": [
                "STUDY_PROTOCOL",
                "SAP"
            ],
            "timeFrame": "Data will be shared after the primary publication or 2 years after the study has ended for market authorized products and indications.",
            "accessCriteria": "Data from eligible studies will be shared with qualified researchers according to the criteria and process described in the Data Sharing section of the www.incyteclinicaltrials.com website. For approved requests, the researchers will be granted access to anonymized data under the terms of a data sharing agreement.",
            "url": "https://www.incyte.com/our-company/compliance-and-transparency"
        }
    },
    "derivedSection": {
        "miscInfoModule": {
            "versionHolder": "2024-07-30"
        },
        "conditionBrowseModule": {
            "meshes": [
                {
                    "id": "D000020920",
                    "term": "Dyssomnias"
                },
                {
                    "id": "D000020447",
                    "term": "Parasomnias"
                },
                {
                    "id": "D000003876",
                    "term": "Dermatitis, Atopic"
                },
                {
                    "id": "D000003872",
                    "term": "Dermatitis"
                },
                {
                    "id": "D000004485",
                    "term": "Eczema"
                }
            ],
            "ancestors": [
                {
                    "id": "D000012871",
                    "term": "Skin Diseases"
                },
                {
                    "id": "D000012873",
                    "term": "Skin Diseases, Genetic"
                },
                {
                    "id": "D000030342",
                    "term": "Genetic Diseases, Inborn"
                },
                {
                    "id": "D000017443",
                    "term": "Skin Diseases, Eczematous"
                },
                {
                    "id": "D000006969",
                    "term": "Hypersensitivity, Immediate"
                },
                {
                    "id": "D000006967",
                    "term": "Hypersensitivity"
                },
                {
                    "id": "D000007154",
                    "term": "Immune System Diseases"
                },
                {
                    "id": "D000012893",
                    "term": "Sleep Wake Disorders"
                },
                {
                    "id": "D000009422",
                    "term": "Nervous System Diseases"
                },
                {
                    "id": "D000001523",
                    "term": "Mental Disorders"
                }
            ],
            "browseLeaves": [
                {
                    "id": "M22655",
                    "name": "Dyssomnias",
                    "asFound": "Sleep Disturbance",
                    "relevance": "HIGH"
                },
                {
                    "id": "M22242",
                    "name": "Parasomnias",
                    "asFound": "Sleep Disturbance",
                    "relevance": "HIGH"
                },
                {
                    "id": "M7071",
                    "name": "Dermatitis, Atopic",
                    "asFound": "Atopic Dermatitis",
                    "relevance": "HIGH"
                },
                {
                    "id": "M7067",
                    "name": "Dermatitis",
                    "asFound": "Dermatitis",
                    "relevance": "HIGH"
                },
                {
                    "id": "M7655",
                    "name": "Eczema",
                    "asFound": "Atopic Dermatitis",
                    "relevance": "HIGH"
                },
                {
                    "id": "M14396",
                    "name": "Pruritus",
                    "relevance": "LOW"
                },
                {
                    "id": "M15674",
                    "name": "Skin Diseases",
                    "relevance": "LOW"
                },
                {
                    "id": "M15676",
                    "name": "Skin Diseases, Genetic",
                    "relevance": "LOW"
                },
                {
                    "id": "M23686",
                    "name": "Genetic Diseases, Inborn",
                    "relevance": "LOW"
                },
                {
                    "id": "M19712",
                    "name": "Skin Diseases, Eczematous",
                    "relevance": "LOW"
                },
                {
                    "id": "M10018",
                    "name": "Hypersensitivity",
                    "relevance": "LOW"
                },
                {
                    "id": "M10020",
                    "name": "Hypersensitivity, Immediate",
                    "relevance": "LOW"
                },
                {
                    "id": "M10200",
                    "name": "Immune System Diseases",
                    "relevance": "LOW"
                },
                {
                    "id": "M15696",
                    "name": "Sleep Wake Disorders",
                    "relevance": "LOW"
                },
                {
                    "id": "M4815",
                    "name": "Mental Disorders",
                    "relevance": "LOW"
                },
                {
                    "id": "M14473",
                    "name": "Psychotic Disorders",
                    "relevance": "LOW"
                }
            ],
            "browseBranches": [
                {
                    "abbrev": "BC10",
                    "name": "Nervous System Diseases"
                },
                {
                    "abbrev": "BXM",
                    "name": "Behaviors and Mental Disorders"
                },
                {
                    "abbrev": "All",
                    "name": "All Conditions"
                },
                {
                    "abbrev": "BC16",
                    "name": "Diseases and Abnormalities at or Before Birth"
                },
                {
                    "abbrev": "BC17",
                    "name": "Skin and Connective Tissue Diseases"
                },
                {
                    "abbrev": "BC20",
                    "name": "Immune System Diseases"
                },
                {
                    "abbrev": "BC23",
                    "name": "Symptoms and General Pathology"
                }
            ]
        }
    },
    "hasResults": false
}